[{"name":"ブロッサムジュニア　仙台木町教室","nameKana":"ぶろっさむじゅにあせんだいきまちきょうしつ","corp":"株式会社ティワイコーポレーション","serviceTypes":["児童発達支援","放課後等デイサービス"],"ward":"仙台市","address":"宮城県仙台市青葉区木町4番8号滝田ビル1階","tel":"022-779-5581","url":"https://h-navi.jp/support_facility/facilities/159805","lat":38.27726586,"lng":140.86048363,"weekday":"14:00-17:00","saturday":"09:00-16:00","sunday":"","holiday":"","closed":"","capacity":null,"id":"0455110940"},{"name":"ブロッサムジュニア　柏木教室","nameKana":"ぶろっさむじゅにあかしわぎきょうしつ","corp":"株式会社ティワイコーポレーション","serviceTypes":["児童発達支援","放課後等デイサービス"],"ward":"仙台市","address":"宮城県仙台市青葉区柏木二丁目5番9号Ｔハウス久賀1階","tel":"022-341-6870","url":"https://h-navi.jp/support_facility/facilities/163812/blogs","lat":38.27511032,"lng":140.85575927,"weekday":"14:00-17:00","saturday":"09:00-16:00","sunday":"","holiday":"","closed":"日曜、祝日","capacity":10,"id":"0455111096"},{"name":"児童発達支援・放課後等デイサービス　Sketch　book","nameKana":"じどうはったつしえんほうかごとうでいさーびすすけっちぶっく","corp":"株式会社健生","serviceTypes":["児童発達支援","放課後等デイサービス"],"ward":"仙台市","address":"宮城県仙台市若林区大和町五丁目6番17号第二吉田店マンション101","tel":"022-357-0454","url":"","lat":38.2443625,"lng":140.9005396,"weekday":"13:30-17:30","saturday":"","sunday":"","holiday":"09:30-16:30","closed":"土曜日、日曜日","capacity":10,"id":"0455301275"},{"name":"放課後デイサービス　ウィズ・ユー北仙台","nameKana":"ほうかごでいさーびすうぃずゆーきたせんだい","corp":"株式会社qualia","serviceTypes":["児童発達支援","放課後等デイサービス"],"ward":"仙台市","address":"宮城県仙台市青葉区木町10番7号ホープレジデンス木町1階","tel":"022-343-0568","url":"","lat":38.2690755,"lng":140.87017166,"weekday":"","saturday":"","sunday":"","holiday":"","closed":"","capacity":null,"id":"0455111039"},{"name":"てらぴぁぽけっと仙台教室","nameKana":"てらぴぁぽけっとせんだいきょうしつ","corp":"株式会社Ｉｒｅｖｏｔｉｏｎ","serviceTypes":["児童発達支援"],"ward":"仙台市","address":"宮城県仙台市青葉区木町通二丁目2番8号第6ダイワビル2階","tel":"022-342-1450","url":"https://www.terapia-sendai.com/","lat":38.2690755,"lng":140.8701717,"weekday":"10:00-17:00","saturday":"10:00-17:00","sunday":"10:00-17:00","holiday":"10:00-17:00","closed":"無し","capacity":10,"id":"0455111021"},{"name":"放課後等デイサービス　ウィズ・ユー富谷","nameKana":"ほうかごとうでいさーびすうぃずゆーとみや","corp":"株式会社qualia","serviceTypes":["児童発達支援"],"ward":"富谷市","address":"宮城県富谷市鷹乃杜一丁目11番1号","tel":"022-290-0992","url":"https://www.with-ac.com/shisetu/tomiya/","lat":38.36440652,"lng":140.87205535,"weekday":"","saturday":"","sunday":"","holiday":"","closed":"","capacity":null,"id":"0451600076"},{"name":"放課後等デイサービスウィズ・ユー南仙台","nameKana":"ほうかごとうでいさーびすういずゆーみなみせんだい","corp":"株式会社ｈｙｍｎ","serviceTypes":["児童発達支援","放課後等デイサービス"],"ward":"仙台市","address":"宮城県仙台市太白区中田五丁目6番6号エコービル１階","tel":"022-395-6358","url":"https://www.with-ac.com/shisetsu/minamisendai/","lat":38.19690609,"lng":140.88529811,"weekday":"10:00-17:00","saturday":"10:00-17:00","sunday":"","holiday":"10:00-17:00","closed":"日曜日、12月30日〜1月3日","capacity":10,"id":"0455410928"},{"name":"ミッキーサポートプラス","nameKana":"みっきーさぽーとぷらす","corp":"株式会社ウェルフェア","serviceTypes":["児童発達支援","放課後等デイサービス"],"ward":"仙台市","address":"宮城県仙台市青葉区高松一丁目7番17号","tel":"022-346-6266","url":"","lat":38.27587031,"lng":140.89217127,"weekday":"","saturday":"","sunday":"","holiday":"","closed":"","capacity":null,"id":"0455111120"},{"name":"HIYOKO STUDY館下教室","nameKana":"ひよこすたでぃたてしたきょうしつ","corp":"株式会社ひよこグループ","serviceTypes":["児童発達支援","放課後等デイサービス"],"ward":"岩沼市","address":"宮城県岩沼市館下３丁目２-６","tel":"0223-23-1528","url":"https://hiyoko.group/","lat":38.1122357,"lng":140.86565144,"weekday":"10:00-16:00","saturday":"10:00-16:00","sunday":"","holiday":"10:00-16:00","closed":"日曜日","capacity":10,"id":"0451100424"},{"name":"HIYOKO STUDY小山教室","nameKana":"ひよこすたでぃおやまきょうしつ","corp":"株式会社ひよこグループ","serviceTypes":["児童発達支援","放課後等デイサービス"],"ward":"名取市","address":"宮城県名取市小山２-１０-１９","tel":"022-393-8128","url":"https://hiyoko.group/facility/earl/","lat":38.16384521,"lng":140.87662582,"weekday":"10:00-13:00","saturday":"10:00-13:00","sunday":"","holiday":"10:00-13:00","closed":"日曜日、年末年始(12月29日から1月3日)","capacity":10,"id":"0450700604"},{"name":"HIYOKO　MUSIC増田教室","nameKana":"ひよこみゅーじっくますだきょうしつ","corp":"株式会社ひよこグループ","serviceTypes":["児童発達支援"],"ward":"名取市","address":"宮城県名取市増田２丁目１-１１","tel":"022-748-6853","url":"https://hiyoko-group.com/","lat":38.16971438,"lng":140.88552753,"weekday":"10:00-13:00","saturday":"10:00-13:00","sunday":"","holiday":"10:00-13:00","closed":"日曜日","capacity":10,"id":"0450700620"},{"name":"HIYOKO STUDY亘理教室","nameKana":"ひよこすたでぃわたりきょうしつ","corp":"株式会社ひよこグループ","serviceTypes":["児童発達支援"],"ward":"亘理郡亘理町","address":"宮城県亘理郡亘理町吉田字宮前４０","tel":"0223-36-8112","url":"https://hiyoko.group/","lat":38.01163728,"lng":140.85783721,"weekday":"10:00-17:00","saturday":"10:00-17:00","sunday":"","holiday":"10:00-17:00","closed":"日曜日","capacity":10,"id":"0452405202"},{"name":"にじいろひよこ園岩沼","nameKana":"にじいろひよこえんいわぬま","corp":"株式会社ひよこグループ","serviceTypes":["児童発達支援"],"ward":"岩沼市","address":"宮城県岩沼市たけくま２丁目２２—１０","tel":"0223-29-2459","url":"https://hiyoko.group","lat":38.11076599,"lng":140.85391355,"weekday":"08:30-14:30","saturday":"08:30-14:30","sunday":"","holiday":"","closed":"日曜、祝日、年末年始並びに施設の定めた閉所日","capacity":10,"id":"0451100416"},{"name":"HIYOKO　STUDY船岡教室","nameKana":"ひよこすたでいふなおかきょうしつ","corp":"株式会社ひよこグループ","serviceTypes":["児童発達支援","放課後等デイサービス"],"ward":"柴田郡柴田町","address":"宮城県柴田郡柴田町船岡新生町２８−２","tel":"0224-87-6023","url":"https://hiyoko.group/","lat":38.06579855,"lng":140.77343849,"weekday":"10:00-17:00","saturday":"10:00-17:00","sunday":"","holiday":"10:00-17:00","closed":"日曜日・月曜日、12月29日〜1月3日","capacity":10,"id":"0452220171"},{"name":"HIYOKO　STUDY松ヶ丘教室","nameKana":"ひよこすたでぃまつがおかきょうしつ","corp":"株式会社ひよこグループ","serviceTypes":["児童発達支援"],"ward":"岩沼市","address":"宮城県岩沼市松ケ丘１-１１-９","tel":"0223-23-7028","url":"https://hiyoko.group","lat":38.11230743,"lng":140.85090537,"weekday":"10:00-13:00","saturday":"08:30-14:30","sunday":"","holiday":"08:30-14:30","closed":"日曜日　","capacity":10,"id":"0451100432"},{"name":"HIYOKO KIDS 亘理教室","nameKana":"ひよこきっずわたりきょうしつ","corp":"株式会社ひよこグループ","serviceTypes":["児童発達支援"],"ward":"亘理郡亘理町","address":"宮城県亘理郡亘理町吉田字宮前４０","tel":"0223-36-8807","url":"https://hiyoko-group.com/facility/nijiiro-watari/","lat":38.01163728,"lng":140.85783721,"weekday":"08:30-14:30","saturday":"08:30-14:30","sunday":"","holiday":"08:30-14:30","closed":"日曜日・年末年始","capacity":10,"id":"0452405210"},{"name":"HIYOKO MUSIC長町南教室","nameKana":"ひよこみゅーじっくながまちみなみきょうしつ","corp":"株式会社ひよこグループ","serviceTypes":["児童発達支援","放課後等デイサービス"],"ward":"仙台市","address":"宮城県仙台市太白区長町南1-10-1啓陽ビル1Ｆ","tel":"022-796-5063","url":"https://hiyoko.group/","lat":38.22223917,"lng":140.87882545,"weekday":"10:00-17:00","saturday":"10:00-15:00","sunday":"","holiday":"10:00-15:00","closed":"日曜日　12月29日〜翌年1月3日","capacity":10,"id":"0455410985"},{"name":"HIYOKO MUSIC新田教室","nameKana":"ひよこみゅーじっくしんでんきょうしつ","corp":"株式会社ひよこグループ","serviceTypes":["児童発達支援","放課後等デイサービス"],"ward":"仙台市","address":"宮城県仙台市宮城野区新田4-9-27　1Ｆ","tel":"022-355-8484","url":"https://hiyoko.group/","lat":38.27289934,"lng":140.92653509,"weekday":"10:00-17:00","saturday":"09:00-14:00","sunday":"","holiday":"09:00-14:00","closed":"日曜日","capacity":10,"id":"0455210815"},{"name":"HIYOKO MUSIC栗生教室","nameKana":"ひよこみゅーじっくくりうきょうしつ","corp":"株式会社ひよこグループ","serviceTypes":["児童発達支援","放課後等デイサービス"],"ward":"仙台市","address":"宮城県仙台市青葉区栗生5-8-10ロワールＴＮ2Ｆ","tel":"022-395-8640","url":"https://hiyoko.group/","lat":38.26619068,"lng":140.79031525,"weekday":"10:00-17:00","saturday":"09:00-14:00","sunday":"","holiday":"09:00-14:00","closed":"日曜日","capacity":10,"id":"0455111161"},{"name":"HIYOKO MUSIC＆SPORTS富沢教室","nameKana":"ひよこみゅーじっくあんどすぽーつとみざわきょうしつ","corp":"株式会社ひよこグループ","serviceTypes":["児童発達支援","放課後等デイサービス"],"ward":"仙台市","address":"宮城県仙台市太白区大野田4-20-14ＩＭＧビル101","tel":"022-398-9464","url":"https://hiyoko.group/","lat":38.21303769,"lng":140.87236479,"weekday":"10:00-17:00","saturday":"10:00-14:00","sunday":"","holiday":"10:00-14:00","closed":"日曜日","capacity":10,"id":"0455410977"},{"name":"HIYOKO MUSIC荒井教室","nameKana":"ひよこみゅーじっくあらいきょうしつ","corp":"株式会社ひよこグループ","serviceTypes":["児童発達支援","放課後等デイサービス"],"ward":"仙台市","address":"宮城県仙台市若林区伊在2-17-7-102","tel":"022-781-6748","url":"https://hiyoko.group/","lat":38.24716578,"lng":140.93902492,"weekday":"10:00-17:00","saturday":"10:00-14:00","sunday":"00:00-00:00","holiday":"10:00-14:00","closed":"日曜日、12月29日〜翌年1月3日","capacity":10,"id":"0455301374"},{"name":"HIYOKO SPORTS長町南教室","nameKana":"ひよこすぽーつながまちみなみきょうしつ","corp":"株式会社ひよこグループ","serviceTypes":["児童発達支援","放課後等デイサービス"],"ward":"仙台市","address":"宮城県仙台市太白区長町南4-12-1ciel長町南101","tel":"022-399-7761","url":"https://hiyoko.group","lat":38.22110033,"lng":140.87162867,"weekday":"10:00-17:00","saturday":"10:00-14:00","sunday":"","holiday":"10:00-14:00","closed":"日曜日","capacity":10,"id":"0455410969"},{"name":"HIYOKO SPORTS南中山教室","nameKana":"ひよこすぽーつみなみなかやまきょうしつ","corp":"株式会社ひよこグループ","serviceTypes":["児童発達支援","放課後等デイサービス"],"ward":"仙台市","address":"宮城県仙台市泉区南中山2-2-5","tel":"050-5536-3585","url":"https://hiyoko.group/","lat":38.31040824,"lng":140.82844282,"weekday":"10:00-17:00","saturday":"10:00-15:00","sunday":"10:00-15:00","holiday":"10:00-15:00","closed":"","capacity":15,"id":"0455510958"},{"name":"HIYOKO SPORTS北仙台教室","nameKana":"ひよこすぽーつきたせんだいきょうしつ","corp":"株式会社ひよこグループ","serviceTypes":["児童発達支援","放課後等デイサービス"],"ward":"仙台市","address":"宮城県仙台市青葉区葉山町2-5ハヤママンション1Ｆ","tel":"050-5538-6846","url":"https://hiyoko.group/","lat":38.28363495,"lng":140.86611854,"weekday":"10:00-17:00","saturday":"10:00-17:00","sunday":"10:00-17:00","holiday":"10:00-17:00","closed":"年末年始(12/29~1/3)","capacity":10,"id":"0455111179"},{"name":"太陽の子　多賀城","nameKana":"たいようのこたがじょう","corp":"東北福祉ビジネス株式会社","serviceTypes":["児童発達支援","放課後等デイサービス"],"ward":"多賀城市","address":"宮城県多賀城市中央２丁目４−２　星テナントビル２階","tel":"022-352-3389","url":"https://www.t-welfare.com","lat":38.29211418,"lng":141.0042999,"weekday":"11:30-13:00","saturday":"10:00-16:00","sunday":"10:00-16:00","holiday":"10:00-16:00","closed":"土日祝","capacity":10,"id":"0450915046"},{"name":"チャレンジアカデミー青山","nameKana":"ちゃれんじあかでみーあおやま","corp":"株式会社秀賀会","serviceTypes":["児童発達支援","放課後等デイサービス"],"ward":"仙台市","address":"宮城県仙台市太白区青山二丁目33番21号","tel":"080-3736-1918","url":"","lat":38.23988367,"lng":140.86083216,"weekday":"","saturday":"","sunday":"","holiday":"","closed":"","capacity":null,"id":"0455410845"},{"name":"デイサービスＮＡＫＡＧＡＷＡ","nameKana":"でいさーびすなかがわ","corp":"株式会社中川","serviceTypes":["児童発達支援"],"ward":"仙台市","address":"宮城県仙台市宮城野区仙台市宮城野区プラザ和光ビル1階","tel":"0222992510","url":"http://www.nakagawa-d.co.jp","lat":38.26611095,"lng":140.90982612,"weekday":"09:00-17:00","saturday":"","sunday":"","holiday":"09:00-17:00","closed":"土曜、日曜、年末年始、5/3〜5/5","capacity":null,"id":"0455210534"},{"name":"日本重症心身障害児支援協会　多機能型ステーション　望（のぞみ）青葉","nameKana":"にほんじゅうしょうしんしんしょうがいじしえんきょうかいたきのうがたすてーしょんのぞみのぞみあおば","corp":"株式会社中川","serviceTypes":["児童発達支援","放課後等デイサービス"],"ward":"仙台市","address":"宮城県仙台市青葉区小田原四丁目2番18号","tel":"022-264-1202","url":"","lat":38.26977905,"lng":140.88807781,"weekday":"09:30-14:30","saturday":"","sunday":"","holiday":"","closed":"","capacity":null,"id":"0455110908"},{"name":"おりーぶ五橋","nameKana":"おりーぶいつつばし","corp":"社会福祉法人仙台市手をつなぐ育成会","serviceTypes":["児童発達支援","放課後等デイサービス"],"ward":"仙台市","address":"宮城県仙台市若林区土樋1-11-2プラザスクランブルビル2F","tel":"022-211-5030","url":"https://www.sendaishi-ikuseikai.or.jp/","lat":38.2476,"lng":140.88034975,"weekday":"10:00-17:00","saturday":"10:00-15:00","sunday":"","holiday":"","closed":"年末年始、お盆期間、日曜日、国民の祝日に関する法律に規定する日","capacity":7,"id":"0455101394"},{"name":"おりーぶ上野山","nameKana":"おりーぶかみのやま","corp":"社会福祉法人仙台市手をつなぐ育成会","serviceTypes":["児童発達支援","放課後等デイサービス"],"ward":"仙台市","address":"宮城県仙台市太白区上野山一丁目11番１号上野山児童館内","tel":"022-743-3555","url":"https://www.sendaishi-ikuseikai.or.jp/","lat":38.22686846,"lng":140.83185179,"weekday":"11:00-17:00","saturday":"09:00-15:00","sunday":"","holiday":"","closed":"年末年始、日曜日、国民の祝日に関する法律に規定する日","capacity":10,"id":"0455401067"},{"name":"仙台市立町たんぽぽホーム","nameKana":"せんだいしたちまちたんぽぽほーむ","corp":"社会福祉法人仙台はげみの会","serviceTypes":["児童発達支援"],"ward":"仙台市","address":"宮城県仙台市青葉区立町１８−３","tel":"022-266-8810","url":"http://www.hageminokai.com/","lat":38.26302859,"lng":140.86428382,"weekday":"08:30-17:00","saturday":"","sunday":"","holiday":"","closed":"土日祝日、12月29日〜1月3日、夏季3日","capacity":40,"id":"0455101329"},{"name":"仙台市西花苑たんぽぽホーム","nameKana":"せんだいしせいかえんたんぽぽほーむ","corp":"社会福祉法人仙台はげみの会","serviceTypes":["児童発達支援"],"ward":"仙台市","address":"宮城県仙台市青葉区西花苑二丁目１０−１","tel":"022-302-2180","url":"http://www.hageminokai.com/","lat":38.26351631,"lng":140.80010646,"weekday":"08:30-17:00","saturday":"","sunday":"","holiday":"","closed":"土日祝、12月29日〜1月3日、夏季3日","capacity":30,"id":"0455101345"},{"name":"仙台市田子西たんぽぽホーム","nameKana":"せんだいしたごにしたんぽぽほーむ","corp":"社会福祉法人仙台はげみの会","serviceTypes":["児童発達支援"],"ward":"仙台市","address":"宮城県仙台市宮城野区田子西一丁目１１−３","tel":"022-258-8825","url":"http://hageminokai.com/","lat":38.2880541,"lng":140.95716501,"weekday":"08:30-17:00","saturday":"","sunday":"","holiday":"","closed":"土日祝日、12月29日〜1月3日、夏季3日","capacity":50,"id":"0455200907"},{"name":"仙台市上飯田たんぽぽホーム","nameKana":"せんだいしかみいいだたんぽぽほーむ","corp":"社会福祉法人仙台はげみの会","serviceTypes":["児童発達支援"],"ward":"仙台市","address":"宮城県仙台市若林区上飯田三丁目２７−２３","tel":"022-289-6835","url":"http://hageminokai.com/","lat":38.2134221,"lng":140.92277801,"weekday":"08:30-17:00","saturday":"","sunday":"","holiday":"","closed":"土日祝日、12月29日〜1月3日、夏季3日","capacity":40,"id":"0455300657"},{"name":"仙台市大野田たんぽぽホーム","nameKana":"せんだいしおおのだたんぽぽほーむ","corp":"社会福祉法人仙台はげみの会","serviceTypes":["児童発達支援"],"ward":"仙台市","address":"宮城県仙台市太白区大野田五丁目２３−４","tel":"022-246-2956","url":"http://hageminokai.com/","lat":38.21503462,"lng":140.87445632,"weekday":"","saturday":"","sunday":"","holiday":"","closed":"土日祝日、12月29日〜1月3日、夏季3日","capacity":60,"id":"0455401034"},{"name":"仙台市袋原たんぽぽホーム","nameKana":"せんだいしふくろばらたんぽぽほーむ","corp":"社会福祉法人仙台はげみの会","serviceTypes":["児童発達支援"],"ward":"仙台市","address":"宮城県仙台市太白区袋原四丁目３２−７","tel":"022-393-9085","url":"http://hageminokai.com/","lat":38.19910684,"lng":140.91477921,"weekday":"08:30-17:00","saturday":"","sunday":"","holiday":"","closed":"土日祝日、12月29日〜1月3日、夏季3日","capacity":50,"id":"0455401158"},{"name":"仙台市なかよし学園","nameKana":"せんだいしなかよしがくえん","corp":"社会福祉法人なのはな会","serviceTypes":["児童発達支援"],"ward":"仙台市","address":"宮城県仙台市宮城野区鶴ケ谷五丁目２２−１","tel":"022-252-4222","url":"http://nanohanakai.or.jp/nakayoshi/","lat":38.29466282,"lng":140.91617638,"weekday":"09:00-15:30","saturday":"","sunday":"","holiday":"","closed":"","capacity":30,"id":"0455210021"},{"name":"仙台市なのはなホーム","nameKana":"せんだいしなのはなほーむ","corp":"社会福祉法人なのはな会","serviceTypes":["児童発達支援"],"ward":"仙台市","address":"宮城県仙台市青葉区北根4ー１０−１０","tel":"022-275-3878","url":"http://nanohana-home.nanohanakai.or.jp","lat":38.29784724,"lng":140.86891694,"weekday":"08:30-17:15","saturday":"","sunday":"","holiday":"","closed":"土日祝日","capacity":30,"id":"0455101360"},{"name":"仙台市あおぞらホーム","nameKana":"せんだいしあおぞらほーむ","corp":"社会福祉法人なのはな会","serviceTypes":["児童発達支援"],"ward":"仙台市","address":"宮城県仙台市宮城野区鶴ケ谷五丁目２２−１","tel":"022-252-4220","url":"http://nanohanakai.or.jp/aozora/","lat":38.29466282,"lng":140.91617638,"weekday":"09:00-15:30","saturday":"","sunday":"","holiday":"","closed":"","capacity":20,"id":"0455200881"},{"name":"なのはな園","nameKana":"なのはなえん","corp":"社会福祉法人なのはな会","serviceTypes":["児童発達支援"],"ward":"仙台市","address":"宮城県仙台市太白区郡山６−７−１","tel":"022-246-7810","url":"http://nanohanakai.or.jp/nanohana-en/","lat":38.21742343,"lng":140.89057473,"weekday":"08:30-17:30","saturday":"","sunday":"","holiday":"","closed":"土、日、祝日","capacity":30,"id":"0455410035"},{"name":"ぬくもりすぺいす「虹っ子」","nameKana":"ぬくもりすぺいすにじっこ","corp":"特定非営利活動法人みやぎ発達障害サポートネット","serviceTypes":["児童発達支援"],"ward":"仙台市","address":"宮城県仙台市青葉区旭ケ丘三丁目20番16号","tel":"022-341-0885","url":"http://mddsnet.jp/","lat":38.29477133,"lng":140.88671679,"weekday":"10:00-16:00","saturday":"09:00-15:00","sunday":"","holiday":"","closed":"日曜日、月曜日","capacity":10,"id":"0455101519"},{"name":"カラット国見","nameKana":"からっとくにみ","corp":"ドリームクライム株式会社","serviceTypes":["児童発達支援","放課後等デイサービス"],"ward":"仙台市","address":"宮城県仙台市青葉区国見一丁目６番４８号　国見パーソナルメインビル１階","tel":"022-341-7895","url":"http://www.karat-dc.com/","lat":38.2788235,"lng":140.84937368,"weekday":"13:00-17:00","saturday":"10:00-16:00","sunday":"","holiday":"","closed":"日曜日・祝日・お盆・年末年始","capacity":10,"id":"0455110718"},{"name":"こどもみらいアイビー向陽台","nameKana":"こどもみらいあいびーこうようだい","corp":"合同会社ａｎｅｍｏｓ","serviceTypes":["児童発達支援","放課後等デイサービス"],"ward":"仙台市","address":"宮城県仙台市泉区向陽台五丁目19番22号","tel":"022-725-4940","url":"https://ivy2022-02.com/","lat":38.33608821,"lng":140.90050357,"weekday":"11:15-17:15","saturday":"11:00-16:00","sunday":"","holiday":"11:00-16:00","closed":"日曜日、8月１４日〜１５日、12月31日〜1月3日","capacity":10,"id":"0455510735"},{"name":"くろわーる療育園　愛子駅前","nameKana":"くろわーるりょういくえんあやしえきまえ","corp":"株式会社ソーシャルライズ","serviceTypes":["児童発達支援","放課後等デイサービス"],"ward":"仙台市","address":"宮城県仙台市青葉区愛子中央一丁目7番6号","tel":"022-302-4582","url":"http://socialrise.co.jp/","lat":38.27234176,"lng":140.76223634,"weekday":"09:00-18:00","saturday":"08:00-17:00","sunday":"","holiday":"08:00-17:00","closed":"日曜、年末年始","capacity":10,"id":"0455110981"},{"name":"くろわーる療育園　愛子東","nameKana":"くろわーるりょういくえんあやしひがし","corp":"株式会社ソーシャルライズ","serviceTypes":["児童発達支援","放課後等デイサービス"],"ward":"仙台市","address":"宮城県仙台市青葉区愛子東一丁目6番12号","tel":"022-352-3836","url":"https://www.rise-ryouiku.com/","lat":38.27270053,"lng":140.77768246,"weekday":"","saturday":"","sunday":"","holiday":"","closed":"日曜、年末年始","capacity":10,"id":"0455111104"},{"name":"くろわーる療育園　愛子","nameKana":"くろわーるりょういくえんあやし","corp":"株式会社ソーシャルライズ","serviceTypes":["児童発達支援","放課後等デイサービス"],"ward":"仙台市","address":"宮城県仙台市青葉区下愛子字町3-3","tel":"070-1170-0891","url":"","lat":38.27151986,"lng":140.7693164,"weekday":"","saturday":"","sunday":"","holiday":"","closed":"日曜、年末年始","capacity":10,"id":"0455111211"},{"name":"らいぶＭＯＴＴＯクラブ","nameKana":"らいぶもっとくらぶ","corp":"一般社団法人ＭＯＴＴＯ","serviceTypes":["児童発達支援","放課後等デイサービス"],"ward":"仙台市","address":"宮城県仙台市青葉区錦ケ丘一丁目3番地の1","tel":"080-5368-9657","url":"https://a-motto.jimdofree.com/","lat":38.25698551,"lng":140.76560069,"weekday":"08:30-16:30","saturday":"08:30-14:30","sunday":"","holiday":"","closed":"木日祝","capacity":5,"id":"0455111047"},{"name":"あいゆうはうす ひなた","nameKana":"あいゆうはうすひなた","corp":"株式会社アイ・ユー","serviceTypes":["児童発達支援","放課後等デイサービス"],"ward":"仙台市","address":"宮城県仙台市泉区紫山4-20-8","tel":"022-341-8975","url":"https://aiyu-hinata.jp/","lat":38.3492646,"lng":140.82213589,"weekday":"10:00-17:30","saturday":"","sunday":"","holiday":"","closed":"","capacity":10,"id":"0455510933"},{"name":"児童発達支援センター　りんごのほっぺ","nameKana":"じどうはったつしえんせんたーりんごのほっぺ","corp":"社会福祉法人宮城厚生福祉会","serviceTypes":["児童発達支援"],"ward":"大崎市","address":"宮城県大崎市古川福沼２丁目１８番２７号","tel":"0229-21-8606","url":"","lat":38.58100957,"lng":140.97702444,"weekday":"09:00-13:00","saturday":"","sunday":"","holiday":"","closed":"土日祝日","capacity":10,"id":"0451500680"},{"name":"アスノバなないろの里","nameKana":"あすのばなないろのさと","corp":"株式会社未来企画","serviceTypes":["児童発達支援","放課後等デイサービス"],"ward":"仙台市","address":"宮城県仙台市若林区なないろの里一丁目19番地の4メデルなないろの里3階東","tel":"022-762-9745","url":"https://asunoba.com/","lat":38.23902212,"lng":140.92700428,"weekday":"10:00-17:30","saturday":"","sunday":"","holiday":"","closed":"１２月３０日〜１月３日までを除く","capacity":null,"id":"0455301259"},{"name":"ラグーン","nameKana":"らぐーん","corp":"株式会社　Growing　Works","serviceTypes":["児童発達支援","放課後等デイサービス"],"ward":"仙台市","address":"宮城県仙台市若林区蒲町29−15","tel":"022-369-3933","url":"","lat":38.24413555,"lng":140.92706784,"weekday":"10:00-18:00","saturday":"09:00-17:00","sunday":"","holiday":"","closed":"","capacity":10,"id":"0455301234"},{"name":"グリーン","nameKana":"ぐりーん","corp":"株式会社　Growing　Works","serviceTypes":["児童発達支援","放課後等デイサービス"],"ward":"仙台市","address":"宮城県仙台市宮城野区燕沢一丁目19番5号2階","tel":"022-355-9696","url":"http://lagooon.jp","lat":38.2808982,"lng":140.92155173,"weekday":"11:00-18:00","saturday":"09:00-16:00","sunday":"","holiday":"","closed":"日　祝","capacity":10,"id":"0455210633"},{"name":"ビックママスーパーキッズ","nameKana":"びっくまますーぱーきっず","corp":"株式会社ビック・ママ","serviceTypes":["児童発達支援","放課後等デイサービス"],"ward":"仙台市","address":"宮城県仙台市若林区東八番丁183BM本社ビル2階","tel":"090-2035-6520","url":"https://big-mama.co.jp/superkids","lat":38.25058607,"lng":140.88471856,"weekday":"10:00-13:00","saturday":"09:00-12:00","sunday":"","holiday":"","closed":"日曜日、祝日、年末年始（12月28日〜1月3日）","capacity":10,"id":"0455301226"},{"name":"杜のつぐみ療育園　新田東園","nameKana":"もりのつぐみりょういくえんしんでんひがしえん","corp":"株式会社プリサート","serviceTypes":["児童発達支援","放課後等デイサービス"],"ward":"仙台市","address":"宮城県仙台市宮城野区新田東一丁目1番2号アスコット新田東1階","tel":"022-762-8714","url":"https://www.prisert-morinotugumi-ryouikuen.com/","lat":38.266111,"lng":140.9098261,"weekday":"10:00-17:00","saturday":"","sunday":"","holiday":"10:00-17:00","closed":"5/3〜５/５、８/13〜８/15、12/30〜1/3","capacity":10,"id":"0455210617"},{"name":"杜のつぐみ療育園　荒井園","nameKana":"もりのつぐみりょういくえんあらいえん","corp":"株式会社プリサート","serviceTypes":["児童発達支援","放課後等デイサービス"],"ward":"仙台市","address":"宮城県仙台市若林区荒井東1丁目6-1アクロスプラザ荒井東2階","tel":"022-369-3860","url":"https://www.prisert-morinotugu","lat":38.24436252,"lng":140.9005396,"weekday":"10:00-17:00","saturday":"10:00-15:00","sunday":"","holiday":"10:00-17:00","closed":"","capacity":10,"id":"0455301283"},{"name":"杜のつぐみ療育園四郎丸園","nameKana":"もりのつぐみりょういくえんしろうまるえん","corp":"株式会社プリサート","serviceTypes":["児童発達支援","放課後等デイサービス"],"ward":"仙台市","address":"宮城県仙台市太白区四郎丸字大宮69番地の15","tel":"022-796-4255","url":"https://www.prisert.co.jp/","lat":38.19315772,"lng":140.91993462,"weekday":"10:00-17:00","saturday":"","sunday":"","holiday":"10:00-17:00","closed":"土日　5月3〜5日、8月13〜15日、12月30〜1月3日","capacity":10,"id":"0455410795"},{"name":"ちゃいるどらんど　さぽーとくらぶ","nameKana":"ちゃいるどらんどさぽーとくらぶ","corp":"株式会社ちゃいるどらんど","serviceTypes":["児童発達支援","放課後等デイサービス"],"ward":"仙台市","address":"宮城県仙台市若林区六丁の目西町3番41号白山ビル2F","tel":"022-288-6132","url":"https://www.childland.net/company.html","lat":38.2443625,"lng":140.9005396,"weekday":"","saturday":"","sunday":"","holiday":"","closed":"","capacity":null,"id":"0455301317"},{"name":"放課後等デイサービス　ウィズ・ユー仙台五橋","nameKana":"ほうかごとうでいさーびすうぃずゆーせんだいいつつばし","corp":"合同会社来夢舎","serviceTypes":["児童発達支援","放課後等デイサービス"],"ward":"仙台市","address":"宮城県仙台市若林区東七番丁160-1　沼田ビル101","tel":"022-797-9216","url":"","lat":38.25163313,"lng":140.88319086,"weekday":"14:30-17:30","saturday":"10:00-16:00","sunday":"","holiday":"10:00-16:00","closed":"","capacity":10,"id":"0455301333"},{"name":"さくら療育園","nameKana":"さくらりょういくえん","corp":"株式会社ささゆう","serviceTypes":["児童発達支援","放課後等デイサービス"],"ward":"仙台市","address":"宮城県仙台市若林区荒井五丁目1番地の111階","tel":"050-3091-2730","url":"https://hp.kaipoke.biz/4kx/","lat":38.24851837,"lng":140.94453822,"weekday":"09:30-17:30","saturday":"09:30-17:30","sunday":"","holiday":"","closed":"土日祝・GW・お盆・年末年始","capacity":10,"id":"0455301358"},{"name":"ぽっぷあっぷ","nameKana":"ぽっぷあっぷ","corp":"学校法人ろりぽっぷ学園","serviceTypes":["児童発達支援","放課後等デイサービス"],"ward":"仙台市","address":"宮城県仙台市若林区沖野七丁目40番69号仙台市若林区沖野七丁目４０番６９号","tel":"0222904792","url":"https://www.lollipop.ed.jp/","lat":38.22809533,"lng":140.92011931,"weekday":"10:00-17:00","saturday":"","sunday":"","holiday":"","closed":"土日祝","capacity":10,"id":"0455301366"},{"name":"放課後等デイサービス　らんらん泉中央","nameKana":"ほうかごとうでいさーびすらんらんいずみちゅうおう","corp":"合同会社ｒｅａｌｉｓ","serviceTypes":["児童発達支援","放課後等デイサービス"],"ward":"仙台市","address":"宮城県仙台市泉区泉中央3-36-1セントレアカマⅡ2Ｆ","tel":"022-341-1723","url":"https://realis-miyagi.com/ranran_izumichuo","lat":38.32470544,"lng":140.8875804,"weekday":"","saturday":"","sunday":"","holiday":"","closed":"","capacity":null,"id":"0455510974"},{"name":"さくら療育園　スオラ","nameKana":"さくらりょういくえんすおら","corp":"株式会社ささゆう","serviceTypes":["児童発達支援","放課後等デイサービス"],"ward":"塩竈市","address":"宮城県塩竈市みのが丘アヴェニュー","tel":"050-3091-4939","url":"https://www.sakura-ryoikuen.com/","lat":38.31435351,"lng":141.02202704,"weekday":"09:30-17:30","saturday":"09:30-17:30","sunday":"","holiday":"","closed":"日曜、祝日　年末年始、GW","capacity":10,"id":"0450300330"},{"name":"センサリーパーク","nameKana":"せんさりーぱーく","corp":"Ｒｅｏｂａ株式会社","serviceTypes":["児童発達支援","放課後等デイサービス"],"ward":"仙台市","address":"宮城県仙台市宮城野区田子入4-1","tel":"050-1808-5618","url":"https://sensory-park.jp/","lat":38.28630166,"lng":140.95997604,"weekday":"09:00-18:00","saturday":"09:00-18:00","sunday":"","holiday":"","closed":"日曜日、国民の祝日、12月２９日から１月３日までを除く","capacity":10,"id":"0455210856"},{"name":"めぐみ","nameKana":"めぐみ","corp":"特定非営利活動法人自閉症ピアリンクセンターここねっと","serviceTypes":["児童発達支援","放課後等デイサービス"],"ward":"仙台市","address":"宮城県仙台市若林区沖野七丁目３８−２８","tel":"022-393-5311","url":"http://www.coconet.or.jp/","lat":38.22633724,"lng":140.92176369,"weekday":"14:00-17:00","saturday":"10:00-15:00","sunday":"","holiday":"","closed":"日、年末年始","capacity":10,"id":"0455300749"},{"name":"みいんななかよし　もりせきのした","nameKana":"みいんななかよしもりせきのした","corp":"きらきらひかる株式会社","serviceTypes":["児童発達支援","放課後等デイサービス"],"ward":"名取市","address":"宮城県名取市杜せきのした５丁目３１番４号Ｄ棟","tel":"022-797-2940","url":"https://miinnanakayoshi.com","lat":38.17152,"lng":140.8919131,"weekday":"09:30-13:00","saturday":"","sunday":"","holiday":"","closed":"土日祝日、お盆、年末年始","capacity":10,"id":"0450700406"},{"name":"くろわーる療育園かぎとり","nameKana":"くろわーるりょういくえんかぎとり","corp":"社会福祉法人うえるかむ","serviceTypes":["児童発達支援","放課後等デイサービス"],"ward":"仙台市","address":"宮城県仙台市太白区山田新町84番地","tel":"022-797-6518","url":"http://www.welcome.or.jp/","lat":38.21626137,"lng":140.83415723,"weekday":"","saturday":"","sunday":"","holiday":"","closed":"日曜、年末年始","capacity":10,"id":"0455410886"},{"name":"くろわーる療育園　にしたが","nameKana":"くろわーるりょういくえんにしたが","corp":"社会福祉法人うえるかむ","serviceTypes":["児童発達支援","放課後等デイサービス"],"ward":"仙台市","address":"宮城県仙台市太白区西多賀1-15-28","tel":"022-395-8935","url":"","lat":38.22334443,"lng":140.85979867,"weekday":"","saturday":"","sunday":"","holiday":"","closed":"日曜、年末年始","capacity":10,"id":"0455410993"},{"name":"時のひかり","nameKana":"ときのひかり","corp":"特定非営利活動法人時のひかり","serviceTypes":["児童発達支援","放課後等デイサービス"],"ward":"仙台市","address":"宮城県仙台市太白区長町五丁目9番13号2階","tel":"022-248-5858","url":"http://tokinohikari.com","lat":38.22703298,"lng":140.88204466,"weekday":"09:00-18:00","saturday":"","sunday":"","holiday":"","closed":"土日・祝日","capacity":9,"id":"0455410779"},{"name":"ブライト仙台","nameKana":"ぶらいとせんだい","corp":"特定非営利活動法人時のひかり","serviceTypes":["児童発達支援","放課後等デイサービス"],"ward":"仙台市","address":"宮城県仙台市太白区長町南四丁目5番28号長町南パークホームズ104","tel":"022-797-6155","url":"https://bright-s.net/","lat":38.22181692,"lng":140.87420074,"weekday":"10:00-18:00","saturday":"","sunday":"","holiday":"","closed":"土・日・祝","capacity":10,"id":"0455410860"},{"name":"ｆａｃｉｌ","nameKana":"ふぁーしる","corp":"一般社団法人ｆａｃｉｌ","serviceTypes":["児童発達支援","放課後等デイサービス"],"ward":"仙台市","address":"宮城県仙台市太白区山田本町16番1号","tel":"022-226-8827","url":"http://hp.kaipoke.biz/uub","lat":38.21843037,"lng":140.82588585,"weekday":"09:00-18:00","saturday":"","sunday":"","holiday":"","closed":"土曜・日曜・祝日","capacity":5,"id":"0455410803"},{"name":"放課後等デイサービスココア（心愛）Ⅲ","nameKana":"ほうかごとうでいさーびすここあさん","corp":"特定非営利活動法人環","serviceTypes":["児童発達支援","放課後等デイサービス"],"ward":"名取市","address":"宮城県名取市愛島塩手字北野32番","tel":"022-302-5271","url":"","lat":38.16987721,"lng":140.8487999,"weekday":"","saturday":"","sunday":"","holiday":"","closed":"土曜・日曜・祝日","capacity":null,"id":"0450700505"},{"name":"ロビンズエッグ名取店","nameKana":"ろびんずえっぐなとりてん","corp":"合同会社千仁会","serviceTypes":["児童発達支援","放課後等デイサービス"],"ward":"名取市","address":"宮城県名取市上余田字千刈田866番1","tel":"022-354-8319","url":"http://www.robins-egg.jp/","lat":38.18354909,"lng":140.8864099,"weekday":"10:00-17:00","saturday":"10:00-17:00","sunday":"","holiday":"10:00-17:00","closed":"","capacity":10,"id":"0450700588"},{"name":"ロビンズエッグ1号店","nameKana":"ろびんずえっぐいちごうてん","corp":"合同会社千仁会","serviceTypes":["児童発達支援","放課後等デイサービス"],"ward":"仙台市","address":"宮城県仙台市太白区東中田三丁目1番1号キャロットⅡ1階","tel":"022-290-1220","url":"http://www.robinns-egg-r5.com","lat":38.22446934,"lng":140.87720056,"weekday":"14:00-17:00","saturday":"11:00-17:00","sunday":"","holiday":"11:00-17:00","closed":"","capacity":10,"id":"0455410910"},{"name":"児童発達支援・放課後等デイサービス　てくてく","nameKana":"じどうはったつしえんほうかごとうでいさーびすてくてく","corp":"株式会社526","serviceTypes":["児童発達支援","放課後等デイサービス"],"ward":"仙台市","address":"宮城県仙台市宮城野区宮千代3-1-9","tel":"090-6987-8384","url":"https://526sendai.my.canva.site","lat":38.25282084,"lng":140.91607378,"weekday":"10:00-19:00","saturday":"10:00-19:00","sunday":"","holiday":"","closed":"木曜日、日曜日、祝日","capacity":10,"id":"0455210849"},{"name":"アバンツァーレスポーツりふ","nameKana":"あばんつぁーれすぽーつりふ","corp":"株式会社ゼンシン","serviceTypes":["児童発達支援","放課後等デイサービス"],"ward":"宮城郡利府町","address":"宮城県宮城郡利府町花園２丁目２５番２","tel":"022-352-3447","url":"http://www.avanzare-sports.com","lat":38.34159065,"lng":140.97163568,"weekday":"10:00-14:00","saturday":"11:00-17:00","sunday":"","holiday":"","closed":"土曜・日曜・祝日・事業所が指定するお盆期間、年末年始期間、臨時休業日","capacity":10,"id":"0452630072"},{"name":"リッキーガーデン角田","nameKana":"りっきーがーでんかくだ","corp":"株式会社ミツイ","serviceTypes":["児童発達支援","放課後等デイサービス"],"ward":"角田市","address":"宮城県角田市横倉字卯ノ崎９４−１７","tel":"0224-63-4055","url":"https://rickey.support/","lat":37.98930806,"lng":140.77571723,"weekday":"10:00-17:30","saturday":"10:00-17:30","sunday":"","holiday":"10:00-17:30","closed":"１２月３０日から１月３日、土曜日、日曜日","capacity":10,"id":"0450800065"},{"name":"リッキーガーデン名取駅前","nameKana":"りっきーがーでんなとりえきまえ","corp":"株式会社ミツイ","serviceTypes":["児童発達支援","放課後等デイサービス"],"ward":"名取市","address":"宮城県名取市手倉田八幡４２８−１コンフォート1号館１階Ａ号室","tel":"022-281-8303","url":"https://rickey.garden/","lat":38.17304989,"lng":140.87921391,"weekday":"13:30-17:30","saturday":"","sunday":"","holiday":"09:30-15:00","closed":"12月30日〜1月3日、日曜日","capacity":10,"id":"0450700547"},{"name":"リッキーガーデン仙台長町南","nameKana":"りっきーがーでんせんだいながまちみなみ","corp":"株式会社ミツイ","serviceTypes":["児童発達支援","放課後等デイサービス"],"ward":"仙台市","address":"宮城県仙台市太白区長町南三丁目3番36号Kビルド2階202","tel":"022-796-9825","url":"https://rickey.garden/","lat":38.22360558,"lng":140.87641727,"weekday":"13:30-17:30","saturday":"09:30-15:00","sunday":"","holiday":"09:00-14:30","closed":"12月30日から1月3日までをのぞく日曜日","capacity":10,"id":"0455410761"},{"name":"リッキーガーデン仙台あすと長町","nameKana":"りっきーがーでんせんだいあすとながまち","corp":"株式会社ミツイ","serviceTypes":["児童発達支援","放課後等デイサービス"],"ward":"仙台市","address":"宮城県仙台市太白区郡山6-7-20DPL仙台長町1F","tel":"022-395-9843","url":"https://rickey.garden/","lat":38.21717891,"lng":140.88633337,"weekday":"13:30-17:30","saturday":"09:30-15:30","sunday":"","holiday":"09:30-15:30","closed":"","capacity":10,"id":"0455410548"},{"name":"放課後等デイサービスココア（心愛）Ⅱ","nameKana":"ほうかごとうでいさーびすここあつー","corp":"特定非営利活動法人　環","serviceTypes":["児童発達支援","放課後等デイサービス"],"ward":"仙台市","address":"宮城県仙台市太白区中田二丁目27番9号2階","tel":"022-393-7285","url":"","lat":38.20103638,"lng":140.88996148,"weekday":"10:00-16:00","saturday":"","sunday":"","holiday":"","closed":"","capacity":null,"id":"0455410613"},{"name":"放課後等デイサービス　ココア（心愛）","nameKana":"ほうかごとうでいさーびすここあ","corp":"特定非営利活動法人　環","serviceTypes":["児童発達支援","放課後等デイサービス"],"ward":"仙台市","address":"宮城県仙台市太白区中田二丁目２７番９号","tel":"0223934360","url":"https://tamaki-cocoa.studio.site/","lat":38.20103638,"lng":140.88996148,"weekday":"09:00-17:00","saturday":"09:00-17:00","sunday":"","holiday":"09:00-17:00","closed":"日曜日","capacity":5,"id":"0455410506"},{"name":"パッソン泉中央","nameKana":"ぱっそんいずみちゅうおう","corp":"株式会社ビアヒロ","serviceTypes":["児童発達支援","放課後等デイサービス"],"ward":"仙台市","address":"宮城県仙台市泉区泉中央四丁目１番地の３　セントレアカマＶ　Ｂ１０５号室","tel":"090-6629-2690","url":"https://beahero.jp/","lat":38.32083909,"lng":140.88332259,"weekday":"09:30-16:00","saturday":"10:00-16:00","sunday":"10:00-16:00","holiday":"10:00-16:00","closed":"毎週土日　祝日　毎月15日　夏季休業　年末年始休業","capacity":7,"id":"0455510339"},{"name":"児童発達支援・放課後等デイサービス　ぱれっと八乙女ルーム","nameKana":"じどうはったつしえんほうかごとうでいさーびすぱれっとやおとめるーむ","corp":"株式会社ｒｅａｒ−ｃｈｉｌｄ","serviceTypes":["児童発達支援","放課後等デイサービス"],"ward":"仙台市","address":"宮城県仙台市泉区八乙女一丁目11番地の11階","tel":"022-725-8642","url":"http://rear-child.com/","lat":38.31161032,"lng":140.89354668,"weekday":"09:30-17:30","saturday":"09:00-13:00","sunday":"","holiday":"09:30-17:00","closed":"日曜日、年末年始(12月29日〜1月3日)","capacity":10,"id":"0455510891"},{"name":"ぶれ・すと","nameKana":"ぶれすと","corp":"NPO法人UBUNTU","serviceTypes":["児童発達支援","放課後等デイサービス"],"ward":"仙台市","address":"宮城県仙台市泉区上谷刈字赤坂７番６号-","tel":"022-765-7339","url":"https://ubuntu-sendai.monster/","lat":38.31063344,"lng":140.86037317,"weekday":"14:30-17:00","saturday":"09:00-17:00","sunday":"","holiday":"09:00-17:00","closed":"水曜日・日曜日","capacity":7,"id":"0455510552"},{"name":"児童発達支援・放課後等デイサービス　ぐれいす岩沼","nameKana":"じどうはったつしえんほうかごとうでいさーびすぐれいすいわぬま","corp":"株式会社グレイス","serviceTypes":["児童発達支援","放課後等デイサービス"],"ward":"岩沼市","address":"宮城県岩沼市中央1-5-28","tel":"0223-23-0237","url":"http://www.gureisu.co.jp","lat":38.10620282,"lng":140.86645434,"weekday":"10:00-14:00","saturday":"","sunday":"","holiday":"10:00-14:00","closed":"土曜日、日曜日","capacity":10,"id":"0451100325"},{"name":"スパークランド名取","nameKana":"すぱーくらんどなとり","corp":"株式会社アオバヤホールディングス","serviceTypes":["児童発達支援","放課後等デイサービス"],"ward":"名取市","address":"宮城県名取市増田字柳田８５番地５号","tel":"022-797-3519","url":"http://www.aobaya.co.jp","lat":38.17173673,"lng":140.89320458,"weekday":"09:30-17:30","saturday":"09:30-17:30","sunday":"09:30-17:30","holiday":"09:30-17:30","closed":"水曜日 8月14日〜8月16日、12月31日〜1月3日は休業日。","capacity":10,"id":"0450700463"},{"name":"スパークランド仙台宮城野","nameKana":"すぱーくらんどせんだいみやぎの","corp":"株式会社アオバヤホールディングス","serviceTypes":["児童発達支援","放課後等デイサービス"],"ward":"仙台市","address":"宮城県仙台市宮城野区萩野町3丁目14-11階","tel":"022-781-9658","url":"http://www.aobaya.co.jp","lat":38.25787051,"lng":140.91665673,"weekday":"09:30-17:30","saturday":"09:30-17:30","sunday":"09:30-17:30","holiday":"09:30-17:30","closed":"水曜日","capacity":10,"id":"0455301267"},{"name":"スパークランド仙台泉","nameKana":"すぱーくらんどせんだいいずみ","corp":"株式会社アオバヤホールディングス","serviceTypes":["児童発達支援","放課後等デイサービス"],"ward":"仙台市","address":"宮城県仙台市泉区長命ケ丘五丁目1番地の10","tel":"022-725-4576","url":"http://www.aobaya.co.jp/","lat":38.31520229,"lng":140.83780826,"weekday":"10:00-17:30","saturday":"10:00-17:30","sunday":"10:00-17:30","holiday":"10:00-17:30","closed":"毎週水曜日","capacity":10,"id":"0455510776"},{"name":"あいの実クランベリー","nameKana":"あいのみくらんべりー","corp":"社会福祉法人あいの実","serviceTypes":["児童発達支援","放課後等デイサービス"],"ward":"仙台市","address":"宮城県仙台市泉区実沢字中山北100番地の2","tel":"022-785-9403","url":"https://www.ainomi.com/","lat":38.3043031,"lng":140.81429195,"weekday":"10:00-15:00","saturday":"10:00-15:00","sunday":"","holiday":"10:00-15:00","closed":"日曜日","capacity":5,"id":"0455510701"},{"name":"あいの実ラズベリー","nameKana":"あいのみらずべりー","corp":"社会福祉法人あいの実","serviceTypes":["児童発達支援","放課後等デイサービス"],"ward":"仙台市","address":"宮城県仙台市泉区北中山四丁目33番地の13","tel":"022-346-7825","url":"https://www.ainomi.com/","lat":38.31114384,"lng":140.8078449,"weekday":"10:00-17:00","saturday":"10:00-15:00","sunday":"","holiday":"10:00-15:00","closed":"日曜日","capacity":5,"id":"0455510727"},{"name":"児童発達支援・放課後等デイサービス　ぶっきらぼう","nameKana":"じどうはったつしえんほうかごとうでいさーびすぶっきらぼう","corp":"株式会社Ｎｅｋｏ","serviceTypes":["児童発達支援","放課後等デイサービス"],"ward":"仙台市","address":"宮城県仙台市泉区南光台二丁目9番55号","tel":"022-725-2480","url":"","lat":38.29230756,"lng":140.89270015,"weekday":"13:00-17:00","saturday":"","sunday":"","holiday":"10:00-16:00","closed":"","capacity":10,"id":"0455510768"},{"name":"虹色のたね","nameKana":"にじいろのたね","corp":"合同会社ＡＩＷＡ","serviceTypes":["児童発達支援","放課後等デイサービス"],"ward":"仙台市","address":"宮城県仙台市泉区上谷刈六丁目3番55号","tel":"022-771-5771","url":"","lat":38.31461493,"lng":140.88154233,"weekday":"10:00-18:00","saturday":"08:30-16:30","sunday":"","holiday":"08:30-16:30","closed":"日曜日、１２月３１日から１月３日","capacity":10,"id":"0455510784"},{"name":"虹色のたね　台原","nameKana":"にじいろのたねだいのはら","corp":"合同会社ＡＩＷＡ","serviceTypes":["児童発達支援","放課後等デイサービス"],"ward":"仙台市","address":"宮城県仙台市青葉区堤町1-5-22","tel":"022-343-1422","url":"","lat":38.28286041,"lng":140.87203146,"weekday":"","saturday":"","sunday":"","holiday":"","closed":"","capacity":null,"id":"0455111245"},{"name":"あるひ南光台","nameKana":"あるひなんこうだい","corp":"あるひ株式会社","serviceTypes":["児童発達支援","放課後等デイサービス"],"ward":"仙台市","address":"宮城県仙台市泉区南光台二丁目9番69号1F","tel":"022-344-9783","url":"https://aruhi-sendai.studio.site/","lat":38.29141875,"lng":140.89355852,"weekday":"10:00-17:00","saturday":"","sunday":"","holiday":"09:30-16:00","closed":"土曜、日曜","capacity":10,"id":"0455510859"},{"name":"児童発達支援事業所chouchou石巻","nameKana":"じどうはったつしえんじぎょうしょしゅしゅいしのまき","corp":"株式会社ライフピース","serviceTypes":["児童発達支援"],"ward":"石巻市","address":"宮城県石巻市鹿又字中山５","tel":"022-200-6377","url":"https://onelife-inc.com/facility/chouchou-石巻/","lat":38.50013138,"lng":141.24777927,"weekday":"09:00-15:00","saturday":"","sunday":"","holiday":"","closed":"土曜日・日曜日・国民の祝日・お盆・年末年始（会社カレンダーによる）","capacity":10,"id":"0450210257"},{"name":"あすとらいキャンドルハウス","nameKana":"あすとらいきゃんどるはうす","corp":"合同会社もも佳","serviceTypes":["児童発達支援","放課後等デイサービス"],"ward":"仙台市","address":"宮城県仙台市泉区高森四丁目2番地の196","tel":"022-765-0783","url":"https://www.momoka-miyagi.link","lat":38.33520295,"lng":140.84715338,"weekday":"13:00-19:00","saturday":"","sunday":"","holiday":"","closed":"土曜日、日曜日","capacity":10,"id":"0455510651"},{"name":"仙台市サンホーム","nameKana":"せんだいしさんほーむ","corp":"特定非営利活動法人グループゆう","serviceTypes":["児童発達支援"],"ward":"仙台市","address":"宮城県仙台市泉区将監八丁目９−１","tel":"022-373-1306","url":"https://www.g-yuu.com/","lat":38.33423444,"lng":140.87630896,"weekday":"09:30-13:30","saturday":"","sunday":"","holiday":"","closed":"土・日・祝・盆・年末年始","capacity":30,"id":"0455500868"},{"name":"運動療育と体験学習「ぴーすの杜」","nameKana":"うんどうりょういくとたいけんがくしゅうぴーすのもり","corp":"株式会社ぴーすの杜","serviceTypes":["児童発達支援","放課後等デイサービス"],"ward":"仙台市","address":"宮城県仙台市泉区北高森２番地の１","tel":"022-346-0901","url":"http://peace-mori.com/","lat":38.34601064,"lng":140.85727144,"weekday":"10:00-12:30","saturday":"10:00-16:00","sunday":"10:00-16:00","holiday":"10:00-16:00","closed":"土日祝日　お盆休み（8/14〜16）年末年始（12/29〜1/3）","capacity":10,"id":"0455510420"},{"name":"みんなはなまる","nameKana":"みんなはなまる","corp":"株式会社はなまる","serviceTypes":["児童発達支援"],"ward":"石巻市","address":"宮城県石巻市向陽町四丁目１番３号","tel":"0225-98-5351","url":"https://www.hanamal.me/","lat":38.45036593,"lng":141.27951208,"weekday":"","saturday":"","sunday":"","holiday":"","closed":"日曜日","capacity":25,"id":"0450210216"},{"name":"みんなはなまる中里教室","nameKana":"みんなはなまる","corp":"株式会社はなまる","serviceTypes":["児童発達支援","放課後等デイサービス"],"ward":"石巻市","address":"宮城県石巻市中里四丁目８−１２","tel":"0225-24-9167","url":"https://www.hanamal.me/","lat":38.44207847,"lng":141.29411999,"weekday":"","saturday":"","sunday":"","holiday":"","closed":"","capacity":null,"id":"0450210216"},{"name":"みんなはなまる松島教室","nameKana":"みんなはなまるまつしまきょうしつ","corp":"株式会社はなまる","serviceTypes":["児童発達支援","放課後等デイサービス"],"ward":"宮城郡松島町","address":"宮城県宮城郡松島町高城字三居山一４番２","tel":"022-290-4521","url":"","lat":38.39721182,"lng":141.06179583,"weekday":"09:00-13:00","saturday":"09:00-16:00","sunday":"","holiday":"09:00-13:00","closed":"日曜日","capacity":10,"id":"0452630122"},{"name":"運動療育と体験学習ふぁみりあ","nameKana":"うんどうりょういくとたいけんがくしゅうふぁみりあ","corp":"一般社団法人ふぁみりあ","serviceTypes":["児童発達支援"],"ward":"石巻市","address":"宮城県石巻市中里七丁目２−３ペントハウス中里B号","tel":"0225-98-5446","url":"https://www.kidsfamilia.net","lat":38.44425037,"lng":141.29175057,"weekday":"","saturday":"","sunday":"","holiday":"","closed":"","capacity":null,"id":"0450210240"},{"name":"ポップ石巻中里教室","nameKana":"ぽっぷいしのまきなかざときょうしつ","corp":"株式会社グロウアップウィズ","serviceTypes":["児童発達支援","放課後等デイサービス"],"ward":"石巻市","address":"宮城県石巻市東中里二丁目５番２−４号","tel":"0225-98-5142","url":"http://growup-with.com/gwrp/","lat":38.44016795,"lng":141.30697764,"weekday":"","saturday":"","sunday":"","holiday":"","closed":"","capacity":null,"id":"0450210224"},{"name":"ポッププラス","nameKana":"ぼっぷぷらす","corp":"株式会社グロウアップウィズ","serviceTypes":["児童発達支援","放課後等デイサービス"],"ward":"石巻市","address":"宮城県石巻市東中里二丁目５番２−４号","tel":"0225-90-9876","url":"http://growup-with.com/gwrp/","lat":38.44016795,"lng":141.30697764,"weekday":"","saturday":"","sunday":"","holiday":"","closed":"","capacity":null,"id":"0450210273"},{"name":"こらんだむの森","nameKana":"こらんだむのもり","corp":"一般社団法人豊結苑","serviceTypes":["児童発達支援","放課後等デイサービス"],"ward":"石巻市","address":"宮城県石巻市新館三丁目５−１２","tel":"0225287359","url":"https://houyuen.jp/","lat":38.42793182,"lng":141.26424457,"weekday":"09:00-13:00","saturday":"09:00-16:00","sunday":"","holiday":"","closed":"日曜日・祝日","capacity":10,"id":"0450210315"},{"name":"石巻市かもめ学園","nameKana":"いしのまきしかもめがくえん","corp":"石巻市","serviceTypes":["児童発達支援","放課後等デイサービス"],"ward":"石巻市","address":"宮城県石巻市向陽町三丁目１０番７号","tel":"0225-95-9566","url":"","lat":38.44897159,"lng":141.278365,"weekday":"09:30-13:30","saturday":"","sunday":"","holiday":"","closed":"土曜・日曜・祝日・その他（事業所にて指定した日）","capacity":10,"id":"0450200753"},{"name":"児童福祉サービスみらい","nameKana":"じどうふくしさーびすみらい","corp":"株式会社北上の郷","serviceTypes":["児童発達支援","放課後等デイサービス"],"ward":"石巻市","address":"宮城県石巻市中央２丁目９−６","tel":"0225-98-4189","url":"http://www.kitakaminosato.jp/","lat":38.43159673,"lng":141.30906389,"weekday":"09:00-13:30","saturday":"09:00-17:00","sunday":"","holiday":"09:00-17:00","closed":"土・日曜、お盆、年末年始","capacity":10,"id":"0450200803"},{"name":"青い鳥ことり","nameKana":"あおいとりことり","corp":"特定非営利活動法人夢みの里","serviceTypes":["児童発達支援"],"ward":"石巻市","address":"宮城県石巻市蛇田字北経塚１８番地１０","tel":"0225-98-5418","url":"http://npoyumeminosato.jimbo.com","lat":38.45329852,"lng":141.266024,"weekday":"09:00-15:00","saturday":"09:00-15:00","sunday":"","holiday":"","closed":"日曜日・祝日・第1・3土曜日・年末年始","capacity":10,"id":"0450210174"},{"name":"レインボー紙風船","nameKana":"れいんぼーかみふうせん","corp":"特定非営利活動法人夢みの里","serviceTypes":["児童発達支援","放課後等デイサービス"],"ward":"東松島市","address":"宮城県東松島市矢本字大溜８６−１","tel":"0225-25-4425","url":"http://npoyumeminosato.jimdofree.com","lat":38.42782537,"lng":141.21560729,"weekday":"09:00-13:00","saturday":"09:00-17:00","sunday":"","holiday":"","closed":"祝日　/　土曜日　/　日曜日　/　年末年始　/　お盆休み","capacity":10,"id":"0451400303"},{"name":"ステップメイトぱる","nameKana":"すてっぷめいとぱる","corp":"株式会社ココステップ","serviceTypes":["児童発達支援"],"ward":"石巻市","address":"宮城県石巻市清水町二丁目１−７","tel":"0225-25-5968","url":"http://stepmate-club.com/","lat":38.43924537,"lng":141.29250907,"weekday":"09:00-15:00","saturday":"","sunday":"","holiday":"","closed":"土・日・祝","capacity":10,"id":"0450210323"},{"name":"ま〜ぶる・び〜と","nameKana":"まーぶるびーと","corp":"まーぶる株式会社","serviceTypes":["児童発達支援"],"ward":"仙台市","address":"宮城県仙台市宮城野区田子字新入１０番地の１ＪＫビル２１　３０２号室","tel":"022-354-0704","url":"https://www.marble555.jp/","lat":38.28492959,"lng":140.9603622,"weekday":"09:15-16:30","saturday":"","sunday":"","holiday":"","closed":"土曜・日曜・祝日","capacity":10,"id":"0455210336"},{"name":"いっぽ","nameKana":"いっぽ","corp":"水梨かふぇ","serviceTypes":["児童発達支援","放課後等デイサービス","居宅訪問型児童発達支援"],"ward":"気仙沼市","address":"宮城県気仙沼市物倉山６番地　","tel":"0226-37-4585","url":"http://www.mizunashi-ippo.com/","lat":38.86339642,"lng":141.53299468,"weekday":"09:30-13:00","saturday":"09:30-13:00","sunday":"","holiday":"09:30-13:00","closed":"日曜日　及び12月30日〜１月３日","capacity":15,"id":"0450500525"},{"name":"気仙沼市マザーズホーム","nameKana":"けせんぬましまざーずほーむ","corp":"社会福祉法人気仙沼市社会福祉協議会","serviceTypes":["児童発達支援","放課後等デイサービス"],"ward":"気仙沼市","address":"宮城県気仙沼市松崎柳沢２１６番地８","tel":"0226-22-6683","url":"","lat":38.87632631,"lng":141.55063693,"weekday":"09:00-14:00","saturday":"09:00-16:00","sunday":"","holiday":"","closed":"土曜日・日曜日・祝祭日","capacity":15,"id":"0450500368"},{"name":"ほっぷ","nameKana":"ほっぷ","corp":"特定非営利活動法人セミナーレ","serviceTypes":["児童発達支援","放課後等デイサービス"],"ward":"気仙沼市","address":"宮城県気仙沼市本吉町登米沢２４番地１","tel":"0226-25-7710","url":"","lat":38.78933211,"lng":141.51020408,"weekday":"09:00-17:00","saturday":"09:00-17:00","sunday":"","holiday":"09:00-17:00","closed":"日曜日及び１２月３１日から１月２日まで","capacity":10,"id":"0450500459"},{"name":"白石市ひこうせん","nameKana":"しろいししひこうせん","corp":"白石市","serviceTypes":["児童発達支援","放課後等デイサービス"],"ward":"白石市","address":"宮城県白石市白石市本町２７番地ふれあいプラザ","tel":"0224-25-2172","url":"","lat":38.00143527,"lng":140.62250141,"weekday":"09:00-12:30","saturday":"","sunday":"","holiday":"","closed":"土、日、祝祭日　　年末年始","capacity":15,"id":"0450600242"},{"name":"らいとはうす名取","nameKana":"らいとはうすなとり","corp":"一般社団法人ライトハウス","serviceTypes":["児童発達支援","放課後等デイサービス"],"ward":"名取市","address":"宮城県名取市増田三丁目１０−２６１０１","tel":"022-775-9385","url":"http://www.light-house.work","lat":38.17287811,"lng":140.88941591,"weekday":"10:00-13:00","saturday":"09:00-13:00","sunday":"","holiday":"","closed":"土・日・祝","capacity":10,"id":"0450700422"},{"name":"なとり児童発達支援センター","nameKana":"なとりじどうはったつしえんせんたー","corp":"学校法人寿なとり学園","serviceTypes":["児童発達支援"],"ward":"名取市","address":"宮城県名取市増田一丁目１１番１６号","tel":"022-382-2735","url":"https://hattatsu-shien.natori.ed.jp/","lat":38.16865628,"lng":140.88815796,"weekday":"09:00-17:30","saturday":"09:00-12:30","sunday":"","holiday":"","closed":"日曜・祝日","capacity":32,"id":"0450700596"},{"name":"コペルプラス　多賀城教室","nameKana":"こぺるぷらすたがじょうきょうしつ","corp":"株式会社みらいの星光舎　","serviceTypes":["児童発達支援"],"ward":"多賀城市","address":"宮城県多賀城市八幡三丁目５-２１エクセスビル２階","tel":"022-352-4922","url":"https://copelplus.copel.co.jp/school/tagajo/","lat":38.29079225,"lng":141.00936333,"weekday":"","saturday":"","sunday":"","holiday":"","closed":"日曜、月曜、国民の祝日、8月13日から15日、12月29日から1月4日","capacity":10,"id":"0450917083"},{"name":"多賀城市児童発達支援センター太陽の家","nameKana":"たがじょうしじどうはったつしえんせんたーたいようのいえ","corp":"多賀城市","serviceTypes":["児童発達支援"],"ward":"多賀城市","address":"宮城県多賀城市伝上山一丁目１番３号","tel":"022-365-2752","url":"","lat":38.29681641,"lng":141.01036843,"weekday":"09:30-14:00","saturday":"","sunday":"","holiday":"","closed":"土・日曜日、祝日、12/29〜1/3まで","capacity":30,"id":"0450913033"},{"name":"児童発達支援・放課後等デイサービスばうむ","nameKana":"じどうはったつしえんほうかごとうでいさーびすばうむ","corp":"はびりす合同会社","serviceTypes":["児童発達支援","放課後等デイサービス"],"ward":"岩沼市","address":"宮城県岩沼市朝日一丁目1番70号　朝日陽だまり館1階西","tel":"0223-23-0340","url":"https://habirisbaum.wixsite.com./baum","lat":38.11722403,"lng":140.85925193,"weekday":"09:30-13:00","saturday":"09:30-17:30","sunday":"","holiday":"09:30-13:00","closed":"毎週日・月　　他年末年始5日　　ゴールデンウィーク3日　　お盆休み2日","capacity":null,"id":"0451100366"},{"name":"ギフト岩沼さとのもり","nameKana":"ぎふといわぬまさとのもり","corp":"株式会社Ｗｉｓｔｅｒｙ","serviceTypes":["児童発達支援","放課後等デイサービス"],"ward":"岩沼市","address":"宮城県岩沼市里の杜2-4-36","tel":"090-3223-8704","url":"https://wistery.co.jp","lat":38.10349223,"lng":140.8782173,"weekday":"09:00-17:00","saturday":"09:00-17:00","sunday":"","holiday":"","closed":"日曜・祝日など","capacity":5,"id":"0451100408"},{"name":"多機能型事業所ひだまりポッケ","nameKana":"たきのうがたじぎょうしょひだまりぽっけ","corp":"特定非営利活動法人アンソレイユ","serviceTypes":["児童発達支援","放課後等デイサービス"],"ward":"登米市","address":"宮城県登米市迫町北方字大洞118-99","tel":"0220-23-7855","url":"http://ひだまりポッケ.com","lat":38.69518763,"lng":141.16911869,"weekday":"09:00-14:00","saturday":"09:00-14:00","sunday":"","holiday":"09:00-14:00","closed":"土曜日、日曜日、１２月30日〜翌年１月３日","capacity":5,"id":"0451200562"},{"name":"多機能型事業所ひだまりポッケ大崎","nameKana":"たきのうがたじぎょうしょひだまりぽっけおおさき","corp":"特定非営利活動法人アンソレイユ","serviceTypes":["児童発達支援"],"ward":"大崎市","address":"宮城県大崎市古川穂波8丁目17番11号","tel":"0229-25-7082","url":"http://ひだまりポッケ.com","lat":38.56981795,"lng":140.93900933,"weekday":"09:30-14:00","saturday":"","sunday":"","holiday":"09:30-14:00","closed":"日曜日、12月２９日〜翌年１月３日","capacity":5,"id":"0451500805"},{"name":"パレットルーム・スマイル登米","nameKana":"ぱれっとるーむすまいるとめ","corp":"リーベ合同会社","serviceTypes":["児童発達支援","放課後等デイサービス"],"ward":"登米市","address":"宮城県登米市迫町佐沼字中江4-12-12","tel":"05088863110","url":"","lat":38.68926111,"lng":141.18649795,"weekday":"","saturday":"","sunday":"","holiday":"","closed":"","capacity":null,"id":"0451200596"},{"name":"運動特化型放課後等デイサービスJump","nameKana":"うんどうとっかがたほうかごとうでいさーびすじゃんぷ","corp":"株式会社ぽらりす","serviceTypes":["児童発達支援","放課後等デイサービス"],"ward":"登米市","address":"宮城県登米市迫町佐沼字中江三丁目５ー３","tel":"0220419052","url":"https://jump-polaris.localinfo.jp/","lat":38.68639764,"lng":141.18990614,"weekday":"14:30-17:30","saturday":"10:00-16:00","sunday":"","holiday":"10:00-16:00","closed":"","capacity":10,"id":"0451200570"},{"name":"児童発達支援センターこじか","nameKana":"じどうはったつしえんせんたーこじか","corp":"社会福祉法人　恵泉会","serviceTypes":["児童発達支援","放課後等デイサービス"],"ward":"登米市","address":"宮城県登米市中田町上沼字大柳１１７番地２","tel":"0220-34-7351","url":"","lat":38.7136521,"lng":141.23293769,"weekday":"08:30-14:30","saturday":"08:30-15:00","sunday":"","holiday":"08:30-15:00","closed":"土曜日、日曜日、祝日、12月29日〜1月3日","capacity":10,"id":"0451200406"},{"name":"おもちゃ箱　とめ","nameKana":"おもちゃばことめ","corp":"合同会社 i・n・g","serviceTypes":["児童発達支援"],"ward":"登米市","address":"宮城県登米市迫町佐沼字八幡１丁目２−８","tel":"0220-28-2840","url":"https://omochabako.net/tome.html","lat":38.69447778,"lng":141.19891331,"weekday":"09:00-12:00","saturday":"09:00-12:00","sunday":"","holiday":"","closed":"日曜日、8/13~14、12/30~1/3","capacity":10,"id":"0451200521"},{"name":"おもちゃ箱とめ　プラス","nameKana":"おもちゃばことめぷらす","corp":"合同会社 i・n・g","serviceTypes":["児童発達支援","放課後等デイサービス"],"ward":"登米市","address":"宮城県登米市迫町佐沼字八幡1丁目2-7","tel":"0220-23-8312","url":"","lat":38.69444447,"lng":141.1993355,"weekday":"","saturday":"","sunday":"","holiday":"","closed":"","capacity":null,"id":"0451200588"},{"name":"風和の郷","nameKana":"ふうなのさと","corp":"株式会社同仁","serviceTypes":["児童発達支援","放課後等デイサービス"],"ward":"栗原市","address":"宮城県栗原市鶯沢南郷下日照７５番地","tel":"0228-42-8512","url":"","lat":38.80705645,"lng":140.94497199,"weekday":"10:00-15:00","saturday":"","sunday":"","holiday":"10:00-15:00","closed":"土・日曜日　年末年始（12月29日〜1月3日）","capacity":20,"id":"0451300461"},{"name":"放課後等デイサービス　ウィズ・ユー栗原","nameKana":"ほうかごとうでいさーびすうぃずゆーくりはら","corp":"インターグロー合同会社","serviceTypes":["児童発達支援","放課後等デイサービス"],"ward":"栗原市","address":"宮城県栗原市志波姫伊豆野町北側4-9","tel":"0228247697","url":"https://www.withyou-kurihara.com","lat":38.77141613,"lng":141.0972173,"weekday":"10:00-14:00","saturday":"09:00-18:00","sunday":"","holiday":"09:00-18:00","closed":"日曜・年末年始　（12月30日〜1月3日）","capacity":10,"id":"0451300487"},{"name":"栗原市立はげまし学園","nameKana":"くりはらしりつはげましがくえん","corp":"栗原市","serviceTypes":["児童発達支援"],"ward":"栗原市","address":"宮城県栗原市築館藤木４番５３号","tel":"0228-22-1623","url":"","lat":38.73751564,"lng":141.01769699,"weekday":"10:00-15:00","saturday":"","sunday":"","holiday":"","closed":"土曜日・日曜日・祝日・年末年始（12月29日から1月3日）","capacity":10,"id":"0451300362"},{"name":"児童発達支援よしの","nameKana":"じどうはったつしえんよしの","corp":"社会福祉法人豊明会","serviceTypes":["児童発達支援"],"ward":"栗原市","address":"宮城県栗原市若柳字川北塚ノ根１３","tel":"0228-32-7033","url":"","lat":38.77426412,"lng":141.1308781,"weekday":"","saturday":"","sunday":"","holiday":"","closed":"","capacity":null,"id":"0451300412"},{"name":"児童発達支援きぼう","nameKana":"じどうはったつしえんきぼう","corp":"社会福祉法人豊明会","serviceTypes":["児童発達支援"],"ward":"栗原市","address":"宮城県栗原市金成金生11番地","tel":"0228-24-8921","url":"","lat":38.80979219,"lng":141.07945103,"weekday":"08:30-17:30","saturday":"","sunday":"","holiday":"08:30-15:00","closed":"土曜日、日曜日、8月14日〜16日、12月30日〜1月3日","capacity":10,"id":"0451300420"},{"name":"児童発達支援・放課後等デイサービス　ピース","nameKana":"じどうはったつしえんほうかごとうでいさーびすぴーす","corp":"一般社団法人　星樹会","serviceTypes":["児童発達支援","放課後等デイサービス"],"ward":"東松島市","address":"宮城県東松島市赤井字台５６−１","tel":"0225-90-9675","url":"https://ippannseiju.com/","lat":38.43177016,"lng":141.25734496,"weekday":"10:00-13:00","saturday":"10:00-15:00","sunday":"","holiday":"","closed":"土曜　日曜　祝日　年末年始","capacity":10,"id":"0451400311"},{"name":"Pomup","nameKana":"ぽむあっぷ","corp":"株式会社　ヌチユイ","serviceTypes":["児童発達支援","放課後等デイサービス"],"ward":"東松島市","address":"宮城県東松島市大塩字三ツ谷１１３番地１","tel":"0225246779","url":"https://pomlink.jp/","lat":38.45311296,"lng":141.17597107,"weekday":"09:00-12:30","saturday":"","sunday":"","holiday":"","closed":"土曜日、日曜日、祝日、その他法人が定めた日","capacity":null,"id":"0451400329"},{"name":"障害児デイケアセンターこどもの広場","nameKana":"しょうがいじでいけあせんたーこどものひろば","corp":"社会福祉法人矢本愛育会","serviceTypes":["児童発達支援","放課後等デイサービス"],"ward":"東松島市","address":"宮城県東松島市矢本字道地浦１３９−１","tel":"0225-84-3401","url":"","lat":38.41701247,"lng":141.19700707,"weekday":"08:30-17:30","saturday":"09:00-15:30","sunday":"","holiday":"","closed":"土曜日・日曜日、祝日・年末年始","capacity":24,"id":"0451400238"},{"name":"大崎広域ほなみ園","nameKana":"おおさきこういきほなみえん","corp":"大崎地域広域行政事務組合","serviceTypes":["児童発達支援"],"ward":"大崎市","address":"宮城県大崎市三本木南谷地字要害336番地1","tel":"0229-53-2050","url":"http://www.osakikoiki.jp/index_honami.html","lat":38.53311754,"lng":140.94148829,"weekday":"10:30-14:45","saturday":"","sunday":"","holiday":"","closed":"国民の祝日に関する法律に規定する休日，12月28日から翌年の1月4日まで等","capacity":30,"id":"0451500524"},{"name":"放課後ケアいちばん星☆","nameKana":"ほうかごけあいちばんぼし","corp":"特定非営利活動法人輝らら会","serviceTypes":["児童発達支援","放課後等デイサービス"],"ward":"大崎市","address":"宮城県大崎市古川飯川字熊野92-1","tel":"0229-87-3744","url":"http://blog.canpan.info/kirara-kai/","lat":38.57053082,"lng":140.91562238,"weekday":"09:00-17:00","saturday":"","sunday":"","holiday":"","closed":"土曜日、日曜日、祝日（年末・年始）","capacity":10,"id":"0451500508"},{"name":"みんなtoさんぽ　エスコート富谷","nameKana":"みんなとさんぽえすこーととみや","corp":"株式会社宮城児童福祉サービス","serviceTypes":["児童発達支援","放課後等デイサービス"],"ward":"富谷市","address":"宮城県富谷市富ケ丘一丁目27番20号エスコートタウン富谷E　１階","tel":"0227253430","url":"https://minnatosanpo.co.jp","lat":38.35981258,"lng":140.8726555,"weekday":"14:00-17:00","saturday":"10:00-17:00","sunday":"10:00-17:00","holiday":"10:00-17:00","closed":"5月3〜５日、8月13〜16日、12月29〜1月3日","capacity":10,"id":"0451600068"},{"name":"どんぐりはうす","nameKana":"どんぐりはうす","corp":"幸の樹","serviceTypes":["児童発達支援","放課後等デイサービス"],"ward":"柴田郡大河原町","address":"宮城県柴田郡大河原町新桜町２番地５","tel":"0224-86-5074","url":"","lat":38.06011113,"lng":140.73845005,"weekday":"","saturday":"","sunday":"","holiday":"","closed":"","capacity":null,"id":"0452220114"},{"name":"ふくのね　きりん","nameKana":"ふくのねきりん","corp":"一般社団法人ふくのね","serviceTypes":["児童発達支援","放課後等デイサービス"],"ward":"柴田郡大河原町","address":"宮城県柴田郡大河原町東２９","tel":"0224-87-6828","url":"http://fukunone.jp","lat":38.05654472,"lng":140.73754473,"weekday":"09:00-12:30","saturday":"","sunday":"","holiday":"09:30-15:00","closed":"土曜日・日曜日・祝日・年末年始","capacity":5,"id":"0452220130"},{"name":"柴田町障害児通園施設むつみ学園","nameKana":"しばたまちしょうがいじつうえんしせつむつみがくえん","corp":"柴田町","serviceTypes":["児童発達支援"],"ward":"柴田郡柴田町","address":"宮城県柴田郡柴田町大字富沢字青木町６−２","tel":"0224-58-6230","url":"","lat":38.10449857,"lng":140.81033335,"weekday":"09:00-13:00","saturday":"00:00-00:00","sunday":"00:00-00:00","holiday":"00:00-00:00","closed":"土日祝日","capacity":20,"id":"0452200355"},{"name":"ヒトツナ船岡教室","nameKana":"ひとつなふなおかきょうしつ","corp":"合同会社　いくえ","serviceTypes":["児童発達支援"],"ward":"柴田郡柴田町","address":"宮城県柴田郡柴田町本船迫字上町１−５","tel":"0224572414","url":"https://funaoka.hattatsu-hitotsuna.com/","lat":38.06777878,"lng":140.76906656,"weekday":"09:30-17:00","saturday":"","sunday":"","holiday":"","closed":"土曜日、日曜日、１２月３０日から１月３日及び８月１３日〜１５日までの期間","capacity":10,"id":"0452220122"},{"name":"カラーズパレット船岡","nameKana":"からーずぱれっとふなおか","corp":"株式会社ウィル","serviceTypes":["児童発達支援","放課後等デイサービス"],"ward":"柴田郡柴田町","address":"宮城県柴田郡柴田町船岡東一丁目８−１７","tel":"0224-51-9703","url":"https://www.instagram.com/colorspalettefunaoka","lat":38.05955194,"lng":140.77710235,"weekday":"09:00-13:00","saturday":"","sunday":"","holiday":"09:00-13:00","closed":"日曜、土曜、お盆、年末年始","capacity":10,"id":"0452220197"},{"name":"インクル","nameKana":"いんくる","corp":"株式会社ChillDog","serviceTypes":["児童発達支援","放課後等デイサービス","居宅訪問型児童発達支援"],"ward":"柴田郡川崎町","address":"宮城県柴田郡川崎町前川字堀切１３番地の１３","tel":"08060289211","url":"https://chilldog-incl.com","lat":38.17880234,"lng":140.63431111,"weekday":"10:00-18:00","saturday":"08:30-17:30","sunday":"","holiday":"","closed":"日曜日、国民の祝日、年末年始","capacity":10,"id":"0452220163"},{"name":"多機能型事業所　ひだまり","nameKana":"たきのうがたじぎょうしょひだまり","corp":"合同会社ENgaWA","serviceTypes":["児童発達支援","放課後等デイサービス"],"ward":"伊具郡丸森町","address":"宮城県伊具郡丸森町金山字表小路２３−２","tel":"05088823680","url":"https://www.hidamari-kaneyama.co.jp","lat":37.89656174,"lng":140.80043897,"weekday":"10:00-18:00","saturday":"","sunday":"","holiday":"10:00-16:00","closed":"土日","capacity":10,"id":"0452300015"},{"name":"このみ","nameKana":"このみ","corp":"一般社団法人　好","serviceTypes":["児童発達支援","放課後等デイサービス"],"ward":"亘理郡亘理町","address":"宮城県亘理郡亘理町狐塚１６９番地１","tel":"0223-36-7163","url":"https://www.konomi-houkago.com/","lat":38.03995639,"lng":140.86989096,"weekday":"09:30-13:00","saturday":"","sunday":"","holiday":"","closed":"土曜日・日曜日・祝日","capacity":5,"id":"0452405137"},{"name":"こぱんはうすさくら　名取教室","nameKana":"こぱんはうすさくらなとりきょうしつ","corp":"株式会社丸福山田屋","serviceTypes":["児童発達支援","放課後等デイサービス"],"ward":"名取市","address":"宮城県名取市飯野坂1−1−2","tel":"0223987837","url":"https://copain-sakura.com","lat":38.16688127,"lng":140.88371397,"weekday":"09:50-13:10","saturday":"09:50-13:10","sunday":"","holiday":"09:50-13:10","closed":"年末年始（12/31〜1/3）","capacity":10,"id":"0450700554"},{"name":"放課後等デイサービス　さんらいず","nameKana":"ほうかごとうでいさーびすさんらいず","corp":"一般社団法人さんらいず","serviceTypes":["児童発達支援"],"ward":"亘理郡山元町","address":"宮城県亘理郡山元町高瀬字合戦原113-37","tel":"0223230873","url":"http://www.sanraiz2021.com","lat":37.94185113,"lng":140.89496404,"weekday":"09:00-12:00","saturday":"","sunday":"","holiday":"","closed":"土曜、日曜、祝日、8月13日〜16日、年末年始12月29日〜1月3日","capacity":10,"id":"0452405160"},{"name":"グロース利府教室","nameKana":"ぐろーすりふきょうしつ","corp":"株式会社ＳＡＳＡＫＩ　ＨＯＬＤＩＮＧＳ","serviceTypes":["児童発達支援","放課後等デイサービス"],"ward":"宮城郡利府町","address":"宮城県宮城郡利府町中央1丁目8番1号","tel":"022-353-6644","url":"http://sasaki0309.com","lat":38.32947592,"lng":140.98369342,"weekday":"09:00-17:00","saturday":"09:00-17:00","sunday":"09:00-17:00","holiday":"09:00-17:00","closed":"日曜日","capacity":5,"id":"0452630106"},{"name":"グロース利府第２教室","nameKana":"ぐろーすりふだいにきょうしつ","corp":"株式会社ＳＡＳＡＫＩ　ＨＯＬＤＩＮＧＳ","serviceTypes":["児童発達支援","放課後等デイサービス"],"ward":"宮城郡利府町","address":"宮城県宮城郡利府町加瀬南野中沢43番地38号","tel":"022-353-6644","url":"http://sasaki0309.com","lat":38.32294083,"lng":140.99933414,"weekday":"09:00-13:00","saturday":"","sunday":"","holiday":"","closed":"土日祝","capacity":5,"id":"0452630114"},{"name":"つなぐ石巻","nameKana":"つなぐいしのまき","corp":"株式会社春幸会","serviceTypes":["児童発達支援","放課後等デイサービス"],"ward":"石巻市","address":"宮城県石巻市鹿又扇平１４０ー３","tel":"0225-90-4541","url":"http://syunkoukai-tunagu.com/","lat":38.48507769,"lng":141.25241289,"weekday":"09:30-12:00","saturday":"","sunday":"","holiday":"","closed":"土曜日、日曜日、祝日、夏季休業（３日間）、年末年始（12/30〜1/4）","capacity":5,"id":"0450210083"},{"name":"株式会社春幸会放課後等デイサービス　つなぐ利府","nameKana":"かぶしきがいしゃしゅんこうかいほうかごとうでいさーびすつなぐりふ","corp":"株式会社春幸会","serviceTypes":["児童発達支援","放課後等デイサービス"],"ward":"宮城郡利府町","address":"宮城県宮城郡利府町花園１−２１０−２","tel":"022-253-7573","url":"http://syunkoukai-tunagu.com/","lat":38.33372779,"lng":140.97339977,"weekday":"09:00-15:00","saturday":"","sunday":"","holiday":"","closed":"土曜日、日曜日、祝日、夏季休暇（３日間）、年末年始（12/30〜1/4）","capacity":5,"id":"0452630023"},{"name":"塩竈市ひまわり園","nameKana":"しおがましひまわりえん","corp":"認定ＮＰＯ法人さわおとの森","serviceTypes":["児童発達支援","放課後等デイサービス"],"ward":"塩竈市","address":"宮城県塩竈市藤倉二丁目２０番１","tel":"022-365-6811","url":"http://www.sawaoto.jp","lat":38.32830206,"lng":141.02617572,"weekday":"09:30-13:00","saturday":"","sunday":"","holiday":"","closed":"土、日曜日、祝日、１２月３０日から１月３日，その他臨時休園日","capacity":7,"id":"0450300256"},{"name":"利府こども発達センターどんぐり","nameKana":"りふこどもはったつせんたーどんぐり","corp":"認定ＮＰＯ法人さわおとの森","serviceTypes":["児童発達支援"],"ward":"宮城郡利府町","address":"宮城県宮城郡利府町利府字八幡崎６３番１","tel":"022-290-3567","url":"http://www.sawaoto.jp","lat":38.32874489,"lng":140.96990041,"weekday":"09:30-13:00","saturday":"","sunday":"","holiday":"","closed":"土曜日・日曜日・祝日・お盆３日間・１２月３０日〜１月３日","capacity":10,"id":"0452600273"},{"name":"こども発達センターあかいしの森　児童発達支援「むーとん」","nameKana":"こどもはったつせんたーあかいしのもりじどうはったつしえんむーとん","corp":"認定ＮＰＯ法人さわおとの森","serviceTypes":["児童発達支援"],"ward":"富谷市","address":"宮城県富谷市明石台７丁目２番地１の一部、２番地１５の一部","tel":"022-725-8770","url":"http://www.sawaoto.jp","lat":38.34691206,"lng":140.89982548,"weekday":"09:00-17:00","saturday":"","sunday":"","holiday":"","closed":"土曜日、日曜日、祝日、お盆の３日間、12月30日〜1月3日","capacity":20,"id":"0452700677"},{"name":"児童発達支援 放課後等デイサービス かけはし","nameKana":"じどうはったつしえんほうかごとうでいさーびすかけはし","corp":"株式会社haru hana","serviceTypes":["児童発達支援","放課後等デイサービス"],"ward":"大崎市","address":"宮城県大崎市古川境野宮字泥屋敷146-1","tel":"0229-25-4411","url":"https://www.houkagotoudeisa-bisu-kakehashi.com/","lat":38.55662093,"lng":140.96113013,"weekday":"15:00-17:00","saturday":"","sunday":"","holiday":"","closed":"土曜・日曜・祝日・お盆・年末年始","capacity":10,"id":"0451500862"},{"name":"POCCO大崎西","nameKana":"ぽこおおさきにし","corp":"特定非営利活動法人みーつ","serviceTypes":["児童発達支援","放課後等デイサービス"],"ward":"加美郡加美町","address":"宮城県加美郡加美町町裏八番21−2","tel":"0229-25-3287","url":"https://meets.lm-mk.com/","lat":38.56664909,"lng":140.85821443,"weekday":"09:00-13:00","saturday":"09:30-17:00","sunday":"","holiday":"","closed":"","capacity":10,"id":"0452800188"},{"name":"こばとにじ組","nameKana":"こばとにじぐみ","corp":"学校法人淑徳学園","serviceTypes":["児童発達支援"],"ward":"加美郡加美町","address":"宮城県加美郡加美町矢越４０５","tel":"0229873897","url":"https://niji.kobato.jp","lat":38.5754279,"lng":140.8582612,"weekday":"08:30-17:00","saturday":"","sunday":"","holiday":"","closed":"土曜日、日曜日、祝日","capacity":10,"id":"0452800220"},{"name":"児童発達支援事業所　こころん","nameKana":"じどうはったつしえんじぎょうしょこころん","corp":"一般社団法人こころん","serviceTypes":["児童発達支援"],"ward":"遠田郡美里町","address":"宮城県遠田郡美里町青生字新鳴瀬２０番地","tel":"0229-25-7101","url":"","lat":38.53424459,"lng":141.04764247,"weekday":"09:00-12:00","saturday":"","sunday":"","holiday":"","closed":"日曜日、祝日、夏季休暇、年末年始","capacity":10,"id":"0453100109"},{"name":"発達支援センター栄光まきびと園","nameKana":"はったつしえんせんたーえいこうまきびとえん","corp":"社会福祉法人牧人会","serviceTypes":["児童発達支援","放課後等デイサービス"],"ward":"石巻市","address":"宮城県石巻市大街道北２丁目１２番３号","tel":"0225904495","url":"http://www.makibito.com","lat":38.4334207,"lng":141.28379031,"weekday":"09:30-15:30","saturday":"","sunday":"","holiday":"","closed":"原則として土・日・祝日・年末年始　事業所カレンダーによる休園もあります。","capacity":10,"id":"0450210166"},{"name":"グローバルキッズメソッド96","nameKana":"ぐろーばるきっずめそっどきゅうじゅうろく","corp":"ハッピーホールディングス株式会社","serviceTypes":["児童発達支援"],"ward":"仙台市","address":"宮城県仙台市泉区市名坂字町51番地の1","tel":"022-342-0912","url":"https://gkids-park.com/","lat":38.32152262,"lng":140.88906918,"weekday":"","saturday":"","sunday":"","holiday":"","closed":"","capacity":null,"id":"0455510875"},{"name":"ハビー仙台教室","nameKana":"はびーせんだいきょうしつ","corp":"ウェルビー株式会社","serviceTypes":["児童発達支援","放課後等デイサービス"],"ward":"仙台市","address":"宮城県仙台市青葉区国分町三丁目9番1号庄子ビル3階","tel":"022-796-6592","url":"https://www.habii.jp/class/miyagi/sendai/","lat":38.26708393,"lng":140.86824424,"weekday":"09:45-17:30","saturday":"09:45-17:30","sunday":"09:45-17:30","holiday":"09:45-17:30","closed":"年末年始","capacity":10,"id":"0455110858"},{"name":"ハビー仙台長町南駅前教室","nameKana":"はびーせんだいながまちみなみえきまえきょうしつ","corp":"ウェルビー株式会社","serviceTypes":["児童発達支援","放課後等デイサービス"],"ward":"仙台市","address":"宮城県仙台市太白区長町南三丁目1番50号Bｏｎｄｓ＆Ｒ長町南3Ｆ","tel":"022-302-5897","url":"https://www.habii.jp/class/miyagi/sendainagamachiminamiekimae/","lat":38.22409713,"lng":140.87509236,"weekday":"09:45-17:30","saturday":"09:45-17:30","sunday":"09:45-17:30","holiday":"09:45-17:30","closed":"当社が定める年末年始休暇","capacity":10,"id":"0455410878"},{"name":"Pｌｕｓ+ｄａｙｓ仙台富沢校","nameKana":"ぷらすでいずせんだいとみざわこう","corp":"株式会社ＮＯＶＡキンダー","serviceTypes":["児童発達支援","放課後等デイサービス"],"ward":"仙台市","address":"宮城県仙台市太白区富沢西二丁目17番地の21","tel":"022-796-7231","url":"https://plusdays.jp/","lat":38.21381491,"lng":140.85521898,"weekday":"","saturday":"","sunday":"","holiday":"","closed":"","capacity":null,"id":"0455410951"},{"name":"Pｌｕｓ+ｄａｙｓ仙台柳生校","nameKana":"ぷらすでいずせんだいやなぎうこう","corp":"株式会社ＮＯＶＡキンダー","serviceTypes":["児童発達支援","放課後等デイサービス"],"ward":"仙台市","address":"宮城県仙台市太白区柳生2-10-2シャイン仙台柳生第1","tel":"022-796-5580","url":"https://plusdays.jp/schools/touhoku/miyagi/yagyu.html","lat":38.19312271,"lng":140.87311031,"weekday":"","saturday":"","sunday":"","holiday":"","closed":"","capacity":null,"id":"0455411041"},{"name":"ＬＩＴＡＬＩＣＯジュニア仙台五橋教室","nameKana":"りたりこじゅにあせんだいいつつばしきょうしつ","corp":"株式会社ＬＩＴＡＬＩＣＯパートナーズ","serviceTypes":["児童発達支援"],"ward":"仙台市","address":"宮城県仙台市青葉区五橋一丁目6番2号ＫＪビルディング7Ｆ","tel":"022-212-2351","url":"https://junior.litalico.jp/school/miyagi/sendaiitsutsubashi/","lat":38.2690755,"lng":140.8701717,"weekday":"10:00-18:30","saturday":"09:30-17:30","sunday":"09:30-17:30","holiday":"09:30-17:30","closed":"会社休業日（法人が定める日及び12/29〜1/3）","capacity":10,"id":"0455110957"},{"name":"LEIF仙台泉","nameKana":"りーふせんだいいずみ","corp":"リーフラス株式会社","serviceTypes":["児童発達支援","放課後等デイサービス"],"ward":"仙台市","address":"宮城県仙台市泉区泉中央1-30-10アネシス泉中央101","tel":"022-342-0281","url":"https://ryouiku.soccer/","lat":38.3213109,"lng":140.87654832,"weekday":"10:30-17:30","saturday":"10:00-16:00","sunday":"","holiday":"10:00-16:00","closed":"日曜日","capacity":10,"id":"0455510982"},{"name":"運動学習支援教室　そら・ふね　黒松","nameKana":"うんどうがくしゅうしえんきょうしつそらふねくろまつ","corp":"株式会社ウェルリソース","serviceTypes":["児童発達支援","放課後等デイサービス"],"ward":"仙台市","address":"宮城県仙台市泉区旭丘堤二丁目21番1号リーベンス黒松　Ａ101","tel":"022-344-7318","url":"http://www.sorafune-hokago.com","lat":38.30388082,"lng":140.88719735,"weekday":"","saturday":"","sunday":"","holiday":"","closed":"","capacity":10,"id":"0455510669"},{"name":"運動学習支援教室　そら・ふね　高砂","nameKana":"うんどうがくしゅうしえんきょうしつそらふねたかさご","corp":"株式会社ウェルリソース","serviceTypes":["児童発達支援","放課後等デイサービス"],"ward":"仙台市","address":"宮城県仙台市宮城野区高砂一丁目1番地の15高砂関弐番館102","tel":"022-290-9561","url":"http://www.sorafune-hokago.com","lat":38.27418981,"lng":140.97231209,"weekday":"10:30-17:00","saturday":"10:00-16:00","sunday":"","holiday":"10:00-16:00","closed":"日曜日・年末年始（12/30〜1/3）","capacity":10,"id":"0455210682"},{"name":"運動学習支援教室　そら・ふね　上桜木","nameKana":"うんどうがくしゅうしえんきょうしつそらふねかみさくらぎ","corp":"株式会社ウェルリソース","serviceTypes":["児童発達支援","放課後等デイサービス"],"ward":"富谷市","address":"宮城県富谷市上桜木1-37-1","tel":"022-347-4818","url":"https://www.well-resource.net","lat":38.36011271,"lng":140.87922151,"weekday":"10:00-17:00","saturday":"","sunday":"09:00-17:00","holiday":"09:00-17:00","closed":"土曜日、年末年始（12/30〜1/3）","capacity":10,"id":"0451600050"},{"name":"ＫＥＹ’Ｓ　２ｎｄ","nameKana":"きーずせかんど","corp":"株式会社KEY.","serviceTypes":["児童発達支援","放課後等デイサービス"],"ward":"大崎市","address":"宮城県大崎市古川上中目西８０","tel":"0229-29-9711","url":"https://www.key1202.co.jp","lat":38.57321905,"lng":140.89892105,"weekday":"09:00-18:00","saturday":"09:00-18:00","sunday":"","holiday":"09:00-18:00","closed":"日曜日","capacity":10,"id":"0451500722"},{"name":"ジェイスこどもラボネット","nameKana":"じぇいずこどもらぼいわぬま","corp":"公益社団法人青年海外協力協会","serviceTypes":["児童発達支援"],"ward":"岩沼市","address":"宮城県岩沼市中央４号3-1","tel":"0223-36-9851","url":"http://www/joca.or.jp","lat":38.11480778,"lng":140.86737898,"weekday":"09:00-13:00","saturday":"00:00-00:00","sunday":"00:00-00:00","holiday":"00:00-00:00","closed":"土日祝祭日・年末年始（12/29〜1/3）","capacity":5,"id":"0451100333"},{"name":"コペルプラス　名取教室","nameKana":"こぺるぷらすなとりきょうしつ","corp":"株式会社クラ・ゼミ","serviceTypes":["児童発達支援"],"ward":"名取市","address":"宮城県名取市杜せきのした２丁目２−１べレオ・MSS　１０２号室","tel":"022-399-8531","url":"https://copelplus.copel.co.jp/","lat":38.16667617,"lng":140.89388266,"weekday":"09:30-18:30","saturday":"09:30-18:30","sunday":"09:30-18:30","holiday":"09:30-18:30","closed":"毎週　火曜日　お盆8/13〜15　年末年始12/30〜1/3","capacity":10,"id":"0450700638"},{"name":"こどもサポート教室「クラ・ゼミ」仙台中野校","nameKana":"こどもさぽーときょうしつくらぜみせんだいなかのこう","corp":"株式会社クラ・ゼミ","serviceTypes":["児童発達支援","放課後等デイサービス"],"ward":"仙台市","address":"宮城県仙台市宮城野区中野一丁目4番地の9103","tel":"022-369-3616","url":"http://www.kurazemi.co.jp","lat":38.27068479,"lng":140.97601734,"weekday":"10:15-19:00","saturday":"10:15-19:00","sunday":"","holiday":"10:15-19:00","closed":"日曜日","capacity":10,"id":"0455210641"},{"name":"こどもサポート教室「クラ・ゼミ」仙台加茂校","nameKana":"こどもさぽーときょうしつくらぜみせんだいかもこう","corp":"株式会社クラ・ゼミ","serviceTypes":["児童発達支援","放課後等デイサービス"],"ward":"仙台市","address":"宮城県仙台市泉区加茂四丁目4番地の1","tel":"022-341-5323","url":"https://kurazemi.co.jp/","lat":38.3128192,"lng":140.85534854,"weekday":"09:15-18:00","saturday":"09:15-18:00","sunday":"","holiday":"09:15-18:00","closed":"日曜日","capacity":10,"id":"0455510800"},{"name":"こどもサポート教室「クラ・ゼミ」富谷校","nameKana":"こどもさぽーときょうしつくらぜみとみやこう","corp":"株式会社クラ・ゼミ","serviceTypes":["児童発達支援","放課後等デイサービス"],"ward":"仙台市","address":"宮城県仙台市泉区大沢一丁目5番地の1イオンタウン仙台泉大沢2階244区画","tel":"022-347-3225","url":"https://kurazemi.co.jp/","lat":38.35028318,"lng":140.88106617,"weekday":"10:15-19:00","saturday":"10:15-19:00","sunday":"","holiday":"10:15-19:00","closed":"日曜・年末年始・お盆・ＧＷ（年間スケジュール表に定める）","capacity":10,"id":"0455510883"},{"name":"コペルプラス　仙台愛子教室","nameKana":"こぺるぷらすせんだいあやしきょうしつ","corp":"株式会社クラ・ゼミ","serviceTypes":["児童発達支援","放課後等デイサービス"],"ward":"仙台市","address":"宮城県仙台市青葉区栗生4-5-1コナカ仙台愛子店内","tel":"022-738-8395","url":"https://copelplus.copel.co.jp/","lat":38.26555745,"lng":140.79104023,"weekday":"10:00-18:00","saturday":"10:00-18:00","sunday":"","holiday":"10:00-18:00","closed":"日曜日、月曜日、お盆、年末年始","capacity":10,"id":"0455111187"},{"name":"こどもサポート教室「クラ・ゼミ」仙台榴ヶ岡校","nameKana":"こどもさぽーときょうしつくらぜみせんだいつつじがおかこう","corp":"株式会社クラ・ゼミ","serviceTypes":["児童発達支援","放課後等デイサービス"],"ward":"仙台市","address":"宮城県仙台市宮城野区榴岡五丁目３番２１号コーポ小松１階","tel":"022-353-7330","url":"https://kurazemi.co.jp/","lat":38.25806366,"lng":140.8928672,"weekday":"10:15-19:00","saturday":"10:15-19:00","sunday":"","holiday":"10:15-19:00","closed":"日曜・年末年始・お盆・ＧＷ（年間スケジュール表に定める）","capacity":10,"id":"0455210401"},{"name":"こどもサポート教室「クラ・ゼミ」仙台富沢校","nameKana":"こどもさぽーときょうしつくらぜみせんだいとみざわこう","corp":"株式会社クラ・ゼミ","serviceTypes":["児童発達支援","放課後等デイサービス"],"ward":"仙台市","address":"宮城県仙台市太白区大野田5丁目28−1ボナール・ミキ　202号","tel":"022-796-5573","url":"https://kurazemi.co.jp/","lat":38.2181314,"lng":140.87528956,"weekday":"10:15-19:00","saturday":"10:15-19:00","sunday":"","holiday":"10:00-19:00","closed":"日曜・年末年始・お盆・ＧＷ（年間スケジュール表に定める）","capacity":10,"id":"0455410423"},{"name":"こどもサポート教室「クラ・ゼミ」仙台泉中央校","nameKana":"こどもさぽーときょうしつくらぜみせんだいいずみちゅうおうこう","corp":"株式会社クラ・ゼミ","serviceTypes":["児童発達支援","放課後等デイサービス"],"ward":"仙台市","address":"宮城県仙台市泉区泉中央三丁目１６番地の３氏家ビル２Ｆ","tel":"022-344-7331","url":"https://kurazemi.co.jp/","lat":38.32532747,"lng":140.8858778,"weekday":"10:15-19:00","saturday":"10:15-19:00","sunday":"","holiday":"10:15-19:00","closed":"日曜・年末年始・お盆・ＧＷ（年間スケジュール表に定める）","capacity":10,"id":"0455510461"},{"name":"児童発達支援・放課後等デイサービス　トレスポ南仙台","nameKana":"じどうはったつしえんほうかごとうでいさーびすとれすぽみなみせんだい","corp":"株式会社リアリノ","serviceTypes":["児童発達支援","放課後等デイサービス"],"ward":"仙台市","address":"宮城県仙台市太白区中田三丁目1番46号サキュービル2F","tel":"022-398-4514","url":"http://www.realinno.co.jp/","lat":38.19881978,"lng":140.88474249,"weekday":"10:00-18:00","saturday":"","sunday":"","holiday":"","closed":"土、日、祝","capacity":10,"id":"0455410852"},{"name":"あいぐらんアップ　花京院教室","nameKana":"あいぐらんあっぷかきょういんきょうしつ","corp":"株式会社アイグラン","serviceTypes":["児童発達支援"],"ward":"仙台市","address":"宮城県仙台市青葉区花京院二丁目2番71号フラワーシティinブラボン2階","tel":"022-748-5497","url":"https://aigran.co.jp/growth-support/list/growth-support-5518/","lat":38.2690755,"lng":140.87017166,"weekday":"10:00-18:00","saturday":"10:00-18:00","sunday":"10:00-18:00","holiday":"","closed":"月曜日、火曜日、国民の祝日、8月13日から15日、12月30日から1月3日","capacity":10,"id":"0455111062"},{"name":"オルタナプレイス八幡","nameKana":"おるたなぷれいすはちまん","corp":"株式会社オルタナウェイズ","serviceTypes":["放課後等デイサービス"],"ward":"仙台市","address":"宮城県仙台市青葉区八幡四丁目１番６号","tel":"022-343-9222","url":"https://alternaways.com","lat":38.27011063,"lng":140.84945458,"weekday":"12:00-18:30","saturday":"","sunday":"","holiday":"09:30-16:00","closed":"土・日　夏期・年末年始休暇期間","capacity":10,"id":"0455110809"},{"name":"デイサービスゆっ歩","nameKana":"でいさーびすゆっぽ","corp":"株式会社ロバの耳","serviceTypes":["放課後等デイサービス"],"ward":"仙台市","address":"宮城県仙台市青葉区桜ヶ丘１丁目6-7","tel":"022-346-6117","url":"https://to-walk.jp/?mode=f9","lat":38.29636021,"lng":140.84869206,"weekday":"09:30-17:30","saturday":"","sunday":"","holiday":"09:30-17:30","closed":"5月3日〜5日、8月13日〜15日、12月30日〜1月3日","capacity":10,"id":"0455110874"},{"name":"ポータルラボ","nameKana":"ぽーたるらぼ","corp":"特定非営利活動法人フレーム・ラボ","serviceTypes":["放課後等デイサービス"],"ward":"仙台市","address":"宮城県仙台市青葉区堤通雨宮町4番11号","tel":"022-344-7190","url":"http://www.framelaboweb.org/","lat":38.27744403,"lng":140.8678492,"weekday":"","saturday":"","sunday":"","holiday":"","closed":"","capacity":null,"id":"0455110916"},{"name":"放課後等デイサービス　ぷらう","nameKana":"ほうかごとうでいさーびすぷらう","corp":"特定非営利活動法人燈の会","serviceTypes":["放課後等デイサービス"],"ward":"仙台市","address":"宮城県仙台市青葉区桜ケ丘一丁目5番18号","tel":"022-725-5169","url":"https://peraichi.com/landing_pages/view/tomoshibinokai","lat":38.29634353,"lng":140.84824211,"weekday":"14:00-17:00","saturday":"","sunday":"","holiday":"","closed":"土曜、日曜、お盆期間、年末年始、その他法人が定めた日","capacity":10,"id":"0455110924"},{"name":"放課後等デイサービス　ウィズ・ユー泉中央","nameKana":"ほうかごとうでいさーびすうぃずゆーいずみちゅうおう","corp":"株式会社qualia","serviceTypes":["放課後等デイサービス"],"ward":"仙台市","address":"宮城県仙台市泉区泉中央三丁目19番地の1リシュ・ルーブルST　1F","tel":"022-341-8157","url":"","lat":38.32656062,"lng":140.88575835,"weekday":"","saturday":"","sunday":"","holiday":"","closed":"","capacity":null,"id":"0455510719"},{"name":"発達支援トレーニングジム「しゃ〜れ」","nameKana":"はったつしえんとれーにんぐじむしゃーれ","corp":"社会福祉法人想伝舎","serviceTypes":["放課後等デイサービス"],"ward":"仙台市","address":"宮城県仙台市青葉区大町二丁目6番27号岡元ビル3階","tel":"022-263-1402","url":"https://soudenshaschale.com/","lat":38.26010123,"lng":140.86808911,"weekday":"11:00-19:00","saturday":"10:15-15:30","sunday":"","holiday":"10:15-15:30","closed":"木日","capacity":10,"id":"0455111054"},{"name":"放課後等デイサービス　ウィズ・ユー富谷","nameKana":"ほうかごとうでいさーびすうぃずゆーとみや","corp":"株式会社qualia","serviceTypes":["放課後等デイサービス"],"ward":"富谷市","address":"宮城県富谷市鷹乃杜一丁目11番1号","tel":"022-341-7194","url":"https://www.with-ac.com/shisetu/tomiya/","lat":38.36440652,"lng":140.87205535,"weekday":"","saturday":"","sunday":"","holiday":"","closed":"","capacity":null,"id":"0451600076"},{"name":"ココモ　ヴォスクオーレ","nameKana":"ぉすくおーれ","corp":"一般社団法人スポーツプロジェクト東北","serviceTypes":["放課後等デイサービス"],"ward":"仙台市","address":"宮城県仙台市泉区北中山一丁目1番地の16","tel":"022-725-8130","url":"https://www.co-co-mo.co/","lat":38.31672965,"lng":140.81967928,"weekday":"14:00-17:00","saturday":"","sunday":"","holiday":"","closed":"祝日、8月13日から８月16日、12月29から１月3日。","capacity":10,"id":"0455510834"},{"name":"Ｊｆｆ　ヴォスクオーレ","nameKana":"�ぉすくおーれ","corp":"一般社団法人スポーツプロジェクト東北","serviceTypes":["放課後等デイサービス"],"ward":"仙台市","address":"宮城県仙台市青葉区北山一丁目5番13号","tel":"022-707-2279","url":"https://andyoujff.com/","lat":38.28135692,"lng":140.85778385,"weekday":"14:00-17:00","saturday":"","sunday":"","holiday":"","closed":"土曜日、祝日、8月13日から８月16日、12月29から１月3日。","capacity":10,"id":"0455111070"},{"name":"あるく　ヴォスクオーレ","nameKana":"ぉすくおーれ","corp":"一般社団法人スポーツプロジェクト東北","serviceTypes":["放課後等デイサービス"],"ward":"仙台市","address":"宮城県仙台市泉区長命ケ丘三丁目31番地の10","tel":"022-725-5607","url":"https://www.co-co-mo.co/","lat":38.30790864,"lng":140.84087524,"weekday":"14:00-17:00","saturday":"10:00-15:00","sunday":"","holiday":"","closed":"祝日、8月13日から８月16日、12月29から１月3日。","capacity":10,"id":"0455510826"},{"name":"放課後等デイサービス　リュミエール仙台","nameKana":"ほうかごとうでいさーびすりゅみえーるせんだい","corp":"一般社団法人リュミエール仙台","serviceTypes":["放課後等デイサービス"],"ward":"仙台市","address":"宮城県仙台市青葉区旭ケ丘一丁目42番55号グリーンロードビル105","tel":"080-4075-5582","url":"","lat":38.28880755,"lng":140.8793019,"weekday":"","saturday":"","sunday":"","holiday":"","closed":"","capacity":10,"id":"0455111112"},{"name":"ゆいまーる","nameKana":"ゆいまーる","corp":"株式会社糸＆吉","serviceTypes":["放課後等デイサービス"],"ward":"仙台市","address":"宮城県仙台市青葉区荒巻神明町16-52","tel":"022-343-6830","url":"","lat":38.28719253,"lng":140.86094148,"weekday":"09:00-17:00","saturday":"","sunday":"","holiday":"","closed":"","capacity":10,"id":"0455111195"},{"name":"たからばこ","nameKana":"たからばこ","corp":"合同会社れかん","serviceTypes":["放課後等デイサービス"],"ward":"仙台市","address":"宮城県仙台市青葉区旭ケ丘3-6-11","tel":"080-8256-2877","url":"","lat":38.29594886,"lng":140.88901949,"weekday":"14:30-19:30","saturday":"","sunday":"","holiday":"09:00-17:30","closed":"土曜日、日曜日","capacity":10,"id":"0455111203"},{"name":"きあーろ","nameKana":"きあーろ","corp":"Ｆｅｌｉｃｉｅｌｏ株式会社","serviceTypes":["放課後等デイサービス"],"ward":"仙台市","address":"宮城県仙台市青葉区落合6-13-15","tel":"022-398-3026","url":"https://felicielo.com","lat":38.26971225,"lng":140.78387382,"weekday":"13:30-17:30","saturday":"10:00-16:00","sunday":"","holiday":"","closed":"日祝、年末年始","capacity":10,"id":"0455111229"},{"name":"放課後等デイサービス　ピノキオ角田","nameKana":"ほうかごとうでいさーびすぴのきおかくだ","corp":"株式会社ＫＥＹＡＫＩ","serviceTypes":["放課後等デイサービス"],"ward":"角田市","address":"宮城県角田市角田字柳町36番26","tel":"0224-66-3524","url":"","lat":37.98262554,"lng":140.77595919,"weekday":"","saturday":"","sunday":"","holiday":"","closed":"","capacity":null,"id":"0450800081"},{"name":"HIYOKO MUSIC増田教室","nameKana":"ひよこみゅーじっくますだきょうしつ","corp":"株式会社ひよこグループ","serviceTypes":["放課後等デイサービス"],"ward":"名取市","address":"宮城県名取市増田２丁目１-１１","tel":"022-748-6853","url":"https://hiyoko.group","lat":38.16971438,"lng":140.88552753,"weekday":"14:00-17:00","saturday":"14:00-17:00","sunday":"","holiday":"14:00-17:00","closed":"日曜日","capacity":10,"id":"0450700620"},{"name":"HIYOKO　STUDY亘理教室","nameKana":"ひよこすたでいわたりきょうしつ","corp":"株式会社ひよこグループ","serviceTypes":["放課後等デイサービス"],"ward":"亘理郡亘理町","address":"宮城県亘理郡亘理町吉田字宮前４０","tel":"0223-36-8112","url":"","lat":38.01163728,"lng":140.85783721,"weekday":"10:00-17:00","saturday":"10:00-17:00","sunday":"","holiday":"10:00-17:00","closed":"日曜日","capacity":10,"id":"0452405202"},{"name":"HIYOKO STUDY松ヶ丘教室","nameKana":"ひよこすたでぃまつがおかきょうしつ","corp":"株式会社ひよこグループ","serviceTypes":["放課後等デイサービス"],"ward":"岩沼市","address":"宮城県岩沼市松ケ丘1-11-9","tel":"0223237028","url":"http://hiyoko.group","lat":38.11230743,"lng":140.85090537,"weekday":"10:00-17:00","saturday":"10:00-17:00","sunday":"","holiday":"10:00-17:00","closed":"","capacity":10,"id":"0451100432"},{"name":"HIYOKO STUDY栗生教室","nameKana":"ひよこすたでぃくりうきょうしつ","corp":"株式会社ひよこグループ","serviceTypes":["放課後等デイサービス"],"ward":"仙台市","address":"宮城県仙台市青葉区栗生5-8-10ロワールＴＮ1Ｆ","tel":"022-724-7475","url":"https://hiyoko.group","lat":38.26619068,"lng":140.79031525,"weekday":"12:30-18:30","saturday":"08:30-15:30","sunday":"","holiday":"08:30-15:30","closed":"日曜日、年末年始（12/29~1/3)","capacity":10,"id":"0455111153"},{"name":"ＡｎｄＹｏｕ　なとり","nameKana":"あんどゆうなとり","corp":"一般社団法人悠優会","serviceTypes":["放課後等デイサービス"],"ward":"名取市","address":"宮城県名取市手倉田字八幡１８２−１","tel":"022-797-2399","url":"https://www.andyou-n.com","lat":38.17066131,"lng":140.88038064,"weekday":"14:00-17:00","saturday":"10:00-15:00","sunday":"","holiday":"","closed":"12月29日から1月3日、8月13日から8月16日、土曜日、日曜日、祝日","capacity":10,"id":"0450700273"},{"name":"放課後等デイサービス　ファイン","nameKana":"ほうかごとうでいさあびすふあいん","corp":"株式会社テンダーカラー","serviceTypes":["放課後等デイサービス"],"ward":"富谷市","address":"宮城県富谷市あけの平３丁目１５−９","tel":"0223469663","url":"http://houkago-fine.com/","lat":38.37617489,"lng":140.87976516,"weekday":"","saturday":"","sunday":"","holiday":"","closed":"なし","capacity":10,"id":"0452700701"},{"name":"放課後等デイサービスぶれいんはーと","nameKana":"ほうかごとうでいさーびすぶれいんはーと","corp":"特定非営利活動法人ぶれいんはーと","serviceTypes":["放課後等デイサービス"],"ward":"塩竈市","address":"宮城県塩竈市旭町２０番１１号","tel":"022-349-4280","url":"http://s10170786000001.c1.hpms1.jp/","lat":38.31231488,"lng":141.02226604,"weekday":"13:00-19:00","saturday":"13:00-19:00","sunday":"","holiday":"","closed":"日祝日","capacity":10,"id":"0450300298"},{"name":"And　You　わくわくハウス","nameKana":"あんどゆうわくわくはうす","corp":"一般社団法人悠優会","serviceTypes":["放課後等デイサービス"],"ward":"仙台市","address":"宮城県仙台市太白区柳生四丁目4番地の12　Y4ビル　3F","tel":"022-797-2399","url":"","lat":38.1960918,"lng":140.86581071,"weekday":"14:00-17:00","saturday":"10:00-15:00","sunday":"","holiday":"","closed":"12月29日から1月3日、8月13日から8月16日、日曜日、祝日","capacity":null,"id":"0455410605"},{"name":"And　You　せんだい","nameKana":"あんどゆうせんだい","corp":"一般社団法人悠優会","serviceTypes":["放課後等デイサービス"],"ward":"仙台市","address":"宮城県仙台市泉区長命ケ丘四丁目31番地の16","tel":"022-344-8465","url":"http://andyou-y.com","lat":38.3116193,"lng":140.83300619,"weekday":"14:00-17:00","saturday":"10:00-15:00","sunday":"","holiday":"","closed":"12月29日から1月3日、8月13日から8月16日、土曜日、日曜日、祝日","capacity":10,"id":"0455510602"},{"name":"Ａｎｄ　Ｙｏｕ　フレンドパーク　みなみせんだい","nameKana":"あんどゆうふれんどぱーくみなみせんだい","corp":"一般社団法人悠優会","serviceTypes":["放課後等デイサービス"],"ward":"仙台市","address":"宮城県仙台市太白区中田七丁目1番1号","tel":"022-797-2399","url":"http://andyou-y.com","lat":38.19180657,"lng":140.88520117,"weekday":"14:00-17:00","saturday":"10:00-15:00","sunday":"","holiday":"","closed":"12月29日から1月3日、8月13日から8月16日、日曜日、祝日","capacity":10,"id":"0455410647"},{"name":"Ａｎｄ　Ｙｏｕ　スポーツパーク","nameKana":"あんどゆうすぽーつぱーく","corp":"一般社団法人悠優会","serviceTypes":["放課後等デイサービス"],"ward":"仙台市","address":"宮城県仙台市青葉区東勝山3丁目5-6","tel":"022-344-8465","url":"https://www.andyou-n.com/","lat":38.29639415,"lng":140.86183491,"weekday":"14:00-17:00","saturday":"10:00-15:00","sunday":"","holiday":"","closed":"12月29日から１月３日、8月13日から8月16日、日曜日、祝日","capacity":10,"id":"0455110437"},{"name":"Ａｎｄ　Ｙｏｕ　クッキングハウス","nameKana":"あんどゆうくっきんぐはうす","corp":"一般社団法人悠優会","serviceTypes":["放課後等デイサービス"],"ward":"仙台市","address":"宮城県仙台市青葉区東勝山三丁目３２番１０号","tel":"022-344-8465","url":"https://www.andyou-n.com/","lat":38.29976047,"lng":140.86393154,"weekday":"14:00-17:00","saturday":"10:00-15:00","sunday":"","holiday":"","closed":"12月29日から1月3日、8月13日から8月16日、日曜日、祝日","capacity":10,"id":"0455110460"},{"name":"Ａｎｄ　Ｙｏｕ　ぽけっと","nameKana":"あんどゆうぽけっと","corp":"一般社団法人悠優会","serviceTypes":["放課後等デイサービス"],"ward":"仙台市","address":"宮城県仙台市若林区南小泉一丁目９番１６号","tel":"022-796-0292","url":"https://www.andyou-n.com/","lat":38.2413406,"lng":140.90082028,"weekday":"14:00-17:00","saturday":"10:00-15:00","sunday":"","holiday":"","closed":"12月29日から1月3日、8月13日から8月16日、日曜日、祝日","capacity":10,"id":"0455301010"},{"name":"Ａｎｄ　Ｙｏｕ　楽楽","nameKana":"あんどゆうらら","corp":"一般社団法人悠優会","serviceTypes":["放課後等デイサービス"],"ward":"仙台市","address":"宮城県仙台市太白区西中田七丁目６番３号","tel":"022-796-0292","url":"https://www.andyou-n.com/","lat":38.193995,"lng":140.87716829,"weekday":"14:00-17:00","saturday":"10:00-15:00","sunday":"","holiday":"","closed":"12月29日から1月３日、8月13日から8月16日、日曜日、祝日","capacity":10,"id":"0455410480"},{"name":"Ａｎｄ　Ｙｏｕ　フレンドパーク","nameKana":"あんどゆうふれんどぱーく","corp":"一般社団法人悠優会","serviceTypes":["放課後等デイサービス"],"ward":"仙台市","address":"宮城県仙台市泉区北中山4-36-7","tel":"022-344-8465","url":"https://www.andyou-n.com/","lat":38.31197706,"lng":140.80690329,"weekday":"14:00-17:00","saturday":"10:00-15:00","sunday":"","holiday":"","closed":"12月29日から1月3日、8月13日から8月16日、土曜日、日曜日、祝日","capacity":10,"id":"0455500959"},{"name":"チャレンジアカデミー愛子","nameKana":"ちゃれんじあかでみーあやし","corp":"株式会社秀賀会","serviceTypes":["放課後等デイサービス"],"ward":"仙台市","address":"宮城県仙台市青葉区愛子東一丁目6番19号","tel":"070-5373-6716","url":"http://www.c-aka.com/","lat":38.27280885,"lng":140.77789633,"weekday":"","saturday":"","sunday":"","holiday":"","closed":"毎週土曜、日曜日","capacity":10,"id":"0455110866"},{"name":"チャレンジアカデミー愛子Part.2","nameKana":"ちゃれんじあかでみーあやしぱーとつー","corp":"株式会社秀賀会","serviceTypes":["放課後等デイサービス"],"ward":"仙台市","address":"宮城県仙台市青葉区下愛子字町19番地の31階","tel":"070-5373-6716","url":"","lat":38.27108366,"lng":140.76431124,"weekday":"","saturday":"","sunday":"","holiday":"","closed":"","capacity":null,"id":"0455110999"},{"name":"チャレンジアカデミー秋保","nameKana":"ちゃれんじあかでみーあきう","corp":"株式会社秀賀会","serviceTypes":["放課後等デイサービス"],"ward":"仙台市","address":"宮城県仙台市太白区秋保町湯元除4-37","tel":"080-3522-8833","url":"","lat":38.22060219,"lng":140.73573288,"weekday":"","saturday":"","sunday":"","holiday":"","closed":"","capacity":null,"id":"0455411033"},{"name":"チャレンジアカデミー台原","nameKana":"ちゃれんじあかでみーだいのはら","corp":"株式会社秀賀会","serviceTypes":["放課後等デイサービス"],"ward":"仙台市","address":"宮城県仙台市青葉区台原１丁目7-40","tel":"070-6998-6427","url":"http://c-aka.com/","lat":38.28249106,"lng":140.87315076,"weekday":"09:00-17:00","saturday":"","sunday":"","holiday":"","closed":"","capacity":null,"id":"0455110445"},{"name":"チャレンジアカデミー北四番丁","nameKana":"ちゃれんじあかでみーきたよばんちょう","corp":"株式会社秀賀会","serviceTypes":["放課後等デイサービス"],"ward":"仙台市","address":"宮城県仙台市青葉区二日町１３番２６号　ネオハイツ勾当台２０１号","tel":"070-5372-0643","url":"http://c-aka.com/","lat":38.27147799,"lng":140.86887444,"weekday":"09:00-17:00","saturday":"","sunday":"","holiday":"","closed":"","capacity":10,"id":"0455110478"},{"name":"デイサービスＮＡＫＡＧＡＷＡ","nameKana":"でいさーびすなかがわ","corp":"株式会社中川","serviceTypes":["放課後等デイサービス"],"ward":"仙台市","address":"宮城県仙台市宮城野区鉄砲町中3番地の4プラザ和光ビル1階","tel":"022-299-2510","url":"http://www.nakagawa-d.co.jp","lat":38.2640046,"lng":140.88881991,"weekday":"08:00-18:00","saturday":"","sunday":"","holiday":"08:00-18:00","closed":"","capacity":10,"id":"0455210534"},{"name":"ぱーとなーくらぶ","nameKana":"ぱーとなーくらぶ","corp":"社会福祉法人幸生会","serviceTypes":["放課後等デイサービス"],"ward":"仙台市","address":"宮城県仙台市青葉区栗生２丁目１０−１０","tel":"070-5598-9801","url":"https://www.f-kouseikai.or.jp","lat":38.26884887,"lng":140.79627035,"weekday":"13:00-17:30","saturday":"","sunday":"","holiday":"","closed":"土日祝日","capacity":10,"id":"0455101477"},{"name":"おりーぶ太白","nameKana":"おりーぶたいはく","corp":"社会福祉法人仙台市手をつなぐ育成会","serviceTypes":["放課後等デイサービス"],"ward":"仙台市","address":"宮城県仙台市太白区土手内一丁目21番5号","tel":"022-398-5815","url":"https://www.sendaishi-ikuseikai.or.jp","lat":38.22623295,"lng":140.86050962,"weekday":"08:00-18:00","saturday":"08:00-18:00","sunday":"","holiday":"","closed":"年末年始、お盆期間、日曜日、国民の祝日に関する法律に規定する日","capacity":10,"id":"0455410571"},{"name":"おりーぶ鈎取","nameKana":"おりーぶかぎとり","corp":"社会福祉法人仙台市手をつなぐ育成会","serviceTypes":["放課後等デイサービス"],"ward":"仙台市","address":"宮城県仙台市太白区鈎取2丁目4番２号","tel":"022-244-0950","url":"https://www.sendaishi-ikuseikai.or.jp","lat":38.22385796,"lng":140.84482531,"weekday":"13:00-17:00","saturday":"10:00-16:00","sunday":"","holiday":"","closed":"年末年始、8月13日〜16日、日曜日、国民の祝日に関する法律に規定する日","capacity":10,"id":"0455401208"},{"name":"せんだんの杜遊杜家","nameKana":"せんだんのもりゆうとや","corp":"社会福祉法人東北福祉会","serviceTypes":["放課後等デイサービス"],"ward":"仙台市","address":"宮城県仙台市青葉区仙台市青葉区国見ケ丘六丁目１４９番地１","tel":"022-279-2750","url":"https://www.sendan.or.jp/mori","lat":38.2690755,"lng":140.87017166,"weekday":"14:00-17:00","saturday":"","sunday":"","holiday":"","closed":"土曜日、日曜日、国民の祝日及び１２月２９日〜１月３日","capacity":20,"id":"0455101618"},{"name":"せんだんの杜　国見ヶ丘の家","nameKana":"せんだんのもりくにみがおかのいえ","corp":"社会福祉法人東北福祉会","serviceTypes":["放課後等デイサービス"],"ward":"仙台市","address":"宮城県仙台市青葉区国見ケ丘七丁目１２３番地２８","tel":"022-208-5960","url":"http://www.sendan.or.jp","lat":38.29085771,"lng":140.83357164,"weekday":"10:00-17:00","saturday":"","sunday":"","holiday":"","closed":"土曜日、日曜日、祝祭日、年末年始（12月29日から１月3日）","capacity":10,"id":"0455110700"},{"name":"みつばち","nameKana":"みつばち","corp":"社会福祉法人　陽光福祉会","serviceTypes":["放課後等デイサービス"],"ward":"仙台市","address":"宮城県仙台市青葉区芋沢字横前１番地の１","tel":"022-394-1480","url":"http://www.yokofuku.or.jp/mitsubachi/","lat":38.29276957,"lng":140.75945508,"weekday":"09:30-15:30","saturday":"","sunday":"","holiday":"","closed":"土曜、日曜、祝日、12/29〜1/3、3/31","capacity":2,"id":"0455101642"},{"name":"ぱるけ中山","nameKana":"ぱるけなかやま","corp":"特定非営利活動法人アフタースクールぱるけ","serviceTypes":["放課後等デイサービス"],"ward":"仙台市","address":"宮城県仙台市青葉区中山四丁目１番32号","tel":"022-725-6685","url":"http://paruke.com/","lat":38.29085796,"lng":140.84349852,"weekday":"","saturday":"","sunday":"","holiday":"","closed":"土日祝日　盆休み　年末年始","capacity":10,"id":"0455101410"},{"name":"ぱるけ南仙台","nameKana":"ぱるけみなみせんだい","corp":"特定非営利活動法人アフタースクールぱるけ","serviceTypes":["放課後等デイサービス"],"ward":"仙台市","address":"宮城県仙台市太白区西中田五丁目１８番３号2階建て","tel":"022-741-2397","url":"http://paruke.com/","lat":38.1955004,"lng":140.87595996,"weekday":"10:30-18:00","saturday":"","sunday":"","holiday":"","closed":"土、日　祝日、正月休み、お盆休み","capacity":10,"id":"0455401083"},{"name":"ぱるけ西中田","nameKana":"ぱるけにしなかた","corp":"特定非営利活動法人アフタースクールぱるけ","serviceTypes":["放課後等デイサービス"],"ward":"仙台市","address":"宮城県仙台市太白区柳生二丁目９番地の２−２ーＦ","tel":"022-707-4187","url":"http://paruke.com/","lat":38.19368102,"lng":140.87334359,"weekday":"10:30-18:00","saturday":"","sunday":"","holiday":"","closed":"土日祝日","capacity":10,"id":"0455401182"},{"name":"るーぷ","nameKana":"るーぷ","corp":"特定非営利活動法人桑の木","serviceTypes":["放課後等デイサービス"],"ward":"仙台市","address":"宮城県仙台市宮城野区松岡町１０−７大倉ビル３Ｆ","tel":"022-295-4730","url":"","lat":38.27387123,"lng":140.91461119,"weekday":"","saturday":"","sunday":"","holiday":"","closed":"","capacity":null,"id":"0455210252"},{"name":"ぽらりす","nameKana":"ぽらりす","corp":"株式会社満天の星","serviceTypes":["放課後等デイサービス"],"ward":"仙台市","address":"宮城県仙台市青葉区赤坂一丁目11番地の９","tel":"022-724-7656","url":"http://mantennohosi.com/","lat":38.29354147,"lng":140.74939743,"weekday":"09:00-17:30","saturday":"09:00-16:00","sunday":"","holiday":"","closed":"日曜日　祝日　年末年始","capacity":10,"id":"0455110791"},{"name":"ぷりずむ","nameKana":"ぷりずむ","corp":"株式会社満天の星","serviceTypes":["放課後等デイサービス"],"ward":"仙台市","address":"宮城県仙台市青葉区高野原４丁目１３番地の３０","tel":"022-796-8172","url":"http://mantennohosi.com/","lat":38.29001979,"lng":140.75398339,"weekday":"09:00-17:30","saturday":"09:00-16:00","sunday":"","holiday":"","closed":"日曜日　祝日　年末年始","capacity":10,"id":"0455110635"},{"name":"太陽の子　泉中央","nameKana":"たいようのこいずみちゅうおう","corp":"東北福祉ビジネス株式会社","serviceTypes":["放課後等デイサービス"],"ward":"仙台市","address":"宮城県仙台市泉区泉中央二丁目15番地の５セントレアカマⅢ　１階","tel":"022-346-7125","url":"https://www.t-welfare.com","lat":38.32979326,"lng":140.87812289,"weekday":"11:30-17:30","saturday":"10:00-16:00","sunday":"10:00-16:00","holiday":"10:00-16:00","closed":"３６５日営業","capacity":10,"id":"0455510545"},{"name":"太陽の子　鶴ケ谷","nameKana":"たいようのこつるがや","corp":"東北福祉ビジネス株式会社","serviceTypes":["放課後等デイサービス"],"ward":"仙台市","address":"宮城県仙台市宮城野区鶴ケ谷二丁目８番地の７鶴ケ谷ビル２階鶴ケ谷ビル２階","tel":"022-355-6888","url":"https://www.t-welfare.com","lat":38.29063551,"lng":140.91350739,"weekday":"11:30-17:30","saturday":"10:00-16:00","sunday":"10:00-16:00","holiday":"10:00-16:00","closed":"なし","capacity":10,"id":"0455210419"},{"name":"ＹＭＣＡみらい","nameKana":"わいえむしーえーみらい","corp":"特定非営利活動法人仙台ＹＭＣＡファミリーセンター","serviceTypes":["放課後等デイサービス"],"ward":"仙台市","address":"宮城県仙台市青葉区立町９番７号仙台ＹＭＣＡ会館","tel":"022-222-7645","url":"https://sendai-ymca.or.jp/day","lat":38.26249805,"lng":140.86333117,"weekday":"10:00-18:00","saturday":"08:30-18:00","sunday":"","holiday":"","closed":"日曜日、祝日","capacity":10,"id":"0455110452"},{"name":"ＹＭＣＡきぼう","nameKana":"わいえむしーえーきぼう","corp":"特定非営利活動法人仙台ＹＭＣＡファミリーセンター","serviceTypes":["放課後等デイサービス"],"ward":"仙台市","address":"宮城県仙台市青葉区立町９番１０号桜ヶ岡ハイツ１０２号室","tel":"022-222-7645","url":"https://sendai-ymca.or.jp/day","lat":38.26224529,"lng":140.86310899,"weekday":"10:00-18:00","saturday":"","sunday":"","holiday":"","closed":"土曜日、日曜日、祝日、お盆休み、年末年始","capacity":10,"id":"0455110650"},{"name":"カラットプラス","nameKana":"からっとぷらす","corp":"ドリームクライム株式会社","serviceTypes":["放課後等デイサービス"],"ward":"仙台市","address":"宮城県仙台市青葉区子平町1番15号グレイスハイツ子平町102","tel":"022-346-9766","url":"http://karat-kunimi.com","lat":38.2690755,"lng":140.87017166,"weekday":"","saturday":"","sunday":"","holiday":"","closed":"","capacity":null,"id":"0455111013"},{"name":"放課後等デイサービス「kibidango」","nameKana":"ほうかごとうでいさーびすきびだんご","corp":"株式会社kibidango","serviceTypes":["放課後等デイサービス"],"ward":"仙台市","address":"宮城県仙台市青葉区吉成1丁目24-3Ｙ’ｓ吉成ビル","tel":"022-725-4754","url":"https://kibidango-group.co.jp/","lat":38.29184356,"lng":140.82170323,"weekday":"13:30-17:30","saturday":"09:00-15:00","sunday":"","holiday":"","closed":"日曜、祝日、お盆、年末年始","capacity":40,"id":"0455110619"},{"name":"こどもみらいアイビー","nameKana":"こどもみらいあいびー","corp":"合同会社ａｎｅｍｏｓ","serviceTypes":["放課後等デイサービス"],"ward":"仙台市","address":"宮城県仙台市宮城野区福室七丁目4番11号エイユープラザ101","tel":"022-765-5226","url":"https://ivy2019-08.com/","lat":38.2821474,"lng":140.97303945,"weekday":"13:15-17:15","saturday":"10:00-16:00","sunday":"","holiday":"10:00-16:00","closed":"日曜日、8月１４日〜１５日、12月31日〜1月3日","capacity":10,"id":"0455210567"},{"name":"manabyCampus船岡","nameKana":"まなびーきゃんぱすふなおか","corp":"株式会社manaby","serviceTypes":["放課後等デイサービス"],"ward":"柴田郡柴田町","address":"宮城県柴田郡柴田町船岡東3丁目11-3アネックス船岡A","tel":"0224878575","url":"https://manaby.co.jp/","lat":38.05262169,"lng":140.77181146,"weekday":"13:00-17:00","saturday":"10:00-16:00","sunday":"","holiday":"10:00-16:00","closed":"日曜日および年末年始、お盆、ゴールデンウィーク等","capacity":10,"id":"0452220155"},{"name":"manabyCampus角田","nameKana":"まなびーきゃんぱすかくだ","corp":"株式会社manaby","serviceTypes":["放課後等デイサービス"],"ward":"角田市","address":"宮城県角田市佐倉字上土浮69-1","tel":"0224519892","url":"https://manaby.co.jp/","lat":37.99513843,"lng":140.78865489,"weekday":"13:00-17:00","saturday":"10:00-16:00","sunday":"","holiday":"10:00-16:00","closed":"日曜日および年末年始、お盆、ゴールデンウィーク等","capacity":10,"id":"0450800073"},{"name":"manabyCampus柴田","nameKana":"まなびーきゃんぱすしばた","corp":"株式会社manaby","serviceTypes":["放課後等デイサービス"],"ward":"柴田郡柴田町","address":"宮城県柴田郡柴田町船岡新栄３丁目４２−５","tel":"0224-86-9900","url":"https://campus.manaby.co.jp","lat":38.05298595,"lng":140.7801635,"weekday":"13:00-17:00","saturday":"10:00-16:00","sunday":"","holiday":"10:00-16:00","closed":"日曜日および年末年始、お盆、ゴールデンウィーク等","capacity":10,"id":"0452220189"},{"name":"ふぉ〜り〜ふ中野","nameKana":"ふぉーりーふなかの","corp":"株式会社Ｈ＆Ｓ　ＪＡＰＡＮ","serviceTypes":["放課後等デイサービス"],"ward":"仙台市","address":"宮城県仙台市宮城野区中野三丁目2番地の21","tel":"022-766-9846","url":"https://fourleaf20191101.wixsite.com/website","lat":38.27145482,"lng":140.98681074,"weekday":"","saturday":"","sunday":"","holiday":"","closed":"","capacity":null,"id":"0455210583"},{"name":"放課後等デイサービス　Ｂｒｉｄｇｅ鶴ヶ谷","nameKana":"ほうかごとうでいさーびすぶりっじつるがや","corp":"有限会社ＡＫＩ","serviceTypes":["放課後等デイサービス"],"ward":"仙台市","address":"宮城県仙台市宮城野区鶴ケ谷東四丁目21番地の1101","tel":"022-352-5497","url":"http://bridge-sendai.net","lat":38.29611592,"lng":140.92881958,"weekday":"13:30-17:00","saturday":"10:00-16:00","sunday":"","holiday":"10:00-16:00","closed":"日曜日。年末年始。事業所が指定した休み。","capacity":5,"id":"0455210765"},{"name":"にじのわ松森","nameKana":"にじのわまつもり","corp":"一般社団法人宮城県手をつなぐ育成会","serviceTypes":["放課後等デイサービス"],"ward":"仙台市","address":"宮城県仙台市泉区市名坂字楢町201-1　Ｃ","tel":"022-725-6850","url":"https://miyagi-ikuseikai.jp/","lat":38.3158184,"lng":140.90274575,"weekday":"13:00-17:00","saturday":"10:00-16:00","sunday":"","holiday":"10:00-16:00","closed":"日曜日","capacity":10,"id":"0455510941"},{"name":"放課後等デイサービス　てくてく","nameKana":"ほうかごとうでいさーびすてくてく","corp":"社会福祉法人宮城厚生福祉会","serviceTypes":["放課後等デイサービス"],"ward":"大崎市","address":"宮城県大崎市古川福沼２丁目１８番２７号","tel":"0229-21-8607","url":"","lat":38.58100957,"lng":140.97702444,"weekday":"13:00-17:00","saturday":"10:00-17:00","sunday":"","holiday":"","closed":"日祝日","capacity":20,"id":"0451500680"},{"name":"にじのわ歌津","nameKana":"にじのわうたつ","corp":"一般社団宮城県手をつなぐ育成会","serviceTypes":["放課後等デイサービス"],"ward":"本吉郡南三陸町","address":"宮城県本吉郡南三陸町歌津字田表３６−１","tel":"0226-25-9951","url":"https://miyagi-ikuseikai.jp/","lat":38.71889929,"lng":141.50719465,"weekday":"13:00-17:00","saturday":"10:00-16:00","sunday":"","holiday":"10:00-16:00","closed":"日曜日","capacity":10,"id":"0453600058"},{"name":"放課後等デイサービス　かなめ・叶夢","nameKana":"ほうかごとうでいさーびすかなめ","corp":"一般社団法人かなめ・叶夢","serviceTypes":["放課後等デイサービス"],"ward":"仙台市","address":"宮城県仙台市宮城野区鶴ヶ谷６丁目25−6","tel":"022-354-1321","url":"","lat":38.29134139,"lng":140.92596456,"weekday":"13:00-17:00","saturday":"10:00-15:00","sunday":"","holiday":"10:00-15:00","closed":"日曜日　8月１３日から１５日　　１２月３１日から１月２日","capacity":10,"id":"0455210278"},{"name":"放課後等デイサービスひなぎく","nameKana":"ほうかごとうでいさーびすひなぎく","corp":"特定非営利活動法人彩り","serviceTypes":["放課後等デイサービス"],"ward":"仙台市","address":"宮城県仙台市青葉区中山二丁目１９番２２号","tel":"022-341-6704","url":"","lat":38.28770564,"lng":140.8461374,"weekday":"","saturday":"","sunday":"","holiday":"","closed":"","capacity":null,"id":"0455110734"},{"name":"放課後等デイサービスるぴなす","nameKana":"ほうかごとうでいさーびするぴなす","corp":"特定非営利活動法人彩り","serviceTypes":["放課後等デイサービス"],"ward":"仙台市","address":"宮城県仙台市宮城野区鶴ケ谷４丁目２８番地の２","tel":"022-349-4284","url":"","lat":38.29380434,"lng":140.90813545,"weekday":"","saturday":"","sunday":"","holiday":"","closed":"","capacity":null,"id":"0455210468"},{"name":"特定非営利活動法人コスモスクラブぽかぽかの家","nameKana":"とくていひえいりかつどうほうじんこすもすくらぶぽかぽかのいえ","corp":"特定非営利活動法人コスモスクラブ","serviceTypes":["放課後等デイサービス"],"ward":"仙台市","address":"宮城県仙台市青葉区小松島三丁目３−１２","tel":"022-718-6556","url":"","lat":38.28232791,"lng":140.88716273,"weekday":"","saturday":"","sunday":"","holiday":"","closed":"","capacity":null,"id":"0455101634"},{"name":"特定非営利活動法人コスモスクラブつるがや","nameKana":"とくていひえいりかつどうほうじんこすもすくらぶつるがや","corp":"特定非営利活動法人コスモスクラブ","serviceTypes":["放課後等デイサービス"],"ward":"仙台市","address":"宮城県仙台市宮城野区鶴ケ谷３−１７","tel":"022-251-7333","url":"","lat":38.29167134,"lng":140.90984656,"weekday":"","saturday":"","sunday":"","holiday":"","closed":"","capacity":null,"id":"0455200931"},{"name":"特定非営利活動法人コスモスクラブどんぐり","nameKana":"とくていひえいりかつどうほうじんこすもすくらぶどんぐり","corp":"特定非営利活動法人コスモスクラブ","serviceTypes":["放課後等デイサービス"],"ward":"仙台市","address":"宮城県仙台市宮城野区岩切字入山８３−９２","tel":"022-251-7333","url":"","lat":38.30971525,"lng":140.94575086,"weekday":"","saturday":"","sunday":"","holiday":"","closed":"","capacity":null,"id":"0455200998"},{"name":"特定非営利活動法人コスモスクラブにこにこの家","nameKana":"とくていひえいりかつどうほうじんこすもすくらぶにこにこのいえ","corp":"特定非営利活動法人コスモスクラブ","serviceTypes":["放課後等デイサービス"],"ward":"仙台市","address":"宮城県仙台市宮城野区鶴ケ谷東四丁目17−31","tel":"022-252-9331","url":"","lat":38.29572421,"lng":140.92612263,"weekday":"","saturday":"","sunday":"","holiday":"","closed":"","capacity":null,"id":"0455201038"},{"name":"みらい宮城野","nameKana":"みらいみやぎの","corp":"株式会社グローブ","serviceTypes":["放課後等デイサービス"],"ward":"仙台市","address":"宮城県仙台市宮城野区福室一丁目8番20号","tel":"022-357-0345","url":"https://globe-dsjp.com","lat":38.2703398,"lng":140.96786522,"weekday":"13:00-17:00","saturday":"10:00-15:00","sunday":"","holiday":"10:00-15:00","closed":"日曜日","capacity":10,"id":"0455210542"},{"name":"るふれ宮城野","nameKana":"るふれみやぎの","corp":"株式会社グローブ","serviceTypes":["放課後等デイサービス"],"ward":"仙台市","address":"宮城県仙台市宮城野区鶴巻一丁目22番50号　103","tel":"022-762-6346","url":"https://globe-dsjp.com","lat":38.26143772,"lng":140.96722951,"weekday":"13:00-17:00","saturday":"10:00-15:00","sunday":"","holiday":"10:00-15:00","closed":"日曜日","capacity":10,"id":"0455210658"},{"name":"みいる宮城野","nameKana":"みいるみやぎの","corp":"株式会社グローブ","serviceTypes":["放課後等デイサービス"],"ward":"仙台市","address":"宮城県仙台市宮城野区出花1-15-8","tel":"022-354-1466","url":"https://globe-dsjp.com","lat":38.27649596,"lng":140.98649399,"weekday":"13:00-17:00","saturday":"09:00-15:00","sunday":"","holiday":"09:00-15:00","closed":"日曜日","capacity":10,"id":"0455210864"},{"name":"児童デイサービス　アニマートせんだいＯｐｅｒａ","nameKana":"じどうでいさーびすあにまーとせんだいおぺら","corp":"株式会社マグネッツ","serviceTypes":["放課後等デイサービス"],"ward":"仙台市","address":"宮城県仙台市宮城野区福室３丁目１６-２２福室三丁目事務所１０１","tel":"022-352-1916","url":"http://www.animato-nanbu.com","lat":38.27560608,"lng":140.96853729,"weekday":"14:00-18:00","saturday":"","sunday":"","holiday":"","closed":"土曜日、日曜日、祝日、年末年始休暇（12/29〜1/3）","capacity":10,"id":"0455210716"},{"name":"児童デイサービス・アニマートせんだいみやぎの","nameKana":"じどうでいさーびすあにまーとせんだいみやぎの","corp":"株式会社マグネッツ","serviceTypes":["放課後等デイサービス"],"ward":"仙台市","address":"宮城県仙台市宮城野区福室三丁目１６番２２号福室三丁目事務所１０２","tel":"022-253-7595","url":"http://www.animato-nanbu.com/","lat":38.27560608,"lng":140.96853728,"weekday":"10:00-18:00","saturday":"00:00-00:00","sunday":"00:00-00:00","holiday":"00:00-00:00","closed":"土曜、日曜、祝日、年末年始12/29〜1/3","capacity":10,"id":"0455210385"},{"name":"アクティブ・ぽーと","nameKana":"あくてぃぶぽーと","corp":"特定非営利活動法人アクティブ","serviceTypes":["放課後等デイサービス"],"ward":"仙台市","address":"宮城県仙台市若林区蒲町１１−２１","tel":"022-762-7112","url":"http://activeport.web.fc2.com/index.html","lat":38.24682977,"lng":140.92958686,"weekday":"14:00-17:30","saturday":"10:00-15:00","sunday":"","holiday":"","closed":"日曜日、祝日、水曜日","capacity":10,"id":"0455300764"},{"name":"ぞうさんの家　清水沼","nameKana":"ぞうさんのいえしみずぬま","corp":"特定非営利活動法人ぞうさんの家","serviceTypes":["放課後等デイサービス"],"ward":"仙台市","address":"宮城県仙台市宮城野区小田原二丁目2番25号第2飯田コーポ106号室","tel":"022-766-8905","url":"http://zousannoie.jimdo.com","lat":38.26442988,"lng":140.89546087,"weekday":"11:00-18:00","saturday":"","sunday":"","holiday":"","closed":"","capacity":10,"id":"0455210575"},{"name":"ぞうさんの家小田原","nameKana":"ぞうさんのいえおだわら","corp":"特定非営利活動法人ぞうさんの家","serviceTypes":["放課後等デイサービス"],"ward":"仙台市","address":"宮城県仙台市宮城野区小田原三丁目４番２５号","tel":"022-355-8065","url":"http://zousannoie.jimdo.com","lat":38.2666352,"lng":140.89494962,"weekday":"11:00-18:00","saturday":"","sunday":"","holiday":"","closed":"土・日・国民の祝日","capacity":10,"id":"0455210393"},{"name":"アスノバ","nameKana":"あすのば","corp":"株式会社未来企画","serviceTypes":["放課後等デイサービス"],"ward":"仙台市","address":"宮城県仙台市若林区荒井東一丁目8番地の4Ｇ号室","tel":"022-762-8586","url":"https://asunoba.com/","lat":38.23938035,"lng":140.95100249,"weekday":"11:30-17:30","saturday":"10:30-16:30","sunday":"","holiday":"","closed":"日曜、祝日","capacity":10,"id":"0455301200"},{"name":"アスノバ　福ちゃんの家","nameKana":"あすのばふくちゃんのいえ","corp":"株式会社未来企画","serviceTypes":["放課後等デイサービス"],"ward":"仙台市","address":"宮城県仙台市若林区荒井七丁目4番地の1","tel":"022-352-7296","url":"https://asunoba.com/","lat":38.23891098,"lng":140.94520012,"weekday":"11:30-17:30","saturday":"10:30-16:30","sunday":"","holiday":"10:30-16:30","closed":"日曜日　１２月３０日〜１月３日","capacity":10,"id":"0455301325"},{"name":"放課後等デイサービスＭＯＫＳＨＡ","nameKana":"ほうかごとうでいさーびすもーくしゃ","corp":"ジェイタス株式会社","serviceTypes":["放課後等デイサービス"],"ward":"仙台市","address":"宮城県仙台市宮城野区幸町二丁目11番2号ノーブル幸町101","tel":"022-354-7086","url":"https://jeitas.com","lat":38.27344847,"lng":140.89620722,"weekday":"13:30-17:30","saturday":"","sunday":"","holiday":"","closed":"土曜日、日曜日、祝日、お盆期間、年末年始","capacity":10,"id":"0455210757"},{"name":"ふれんず","nameKana":"ふれんず","corp":"特定非営利活動法人　自閉症ピアリンクセンターここねっと","serviceTypes":["放課後等デイサービス"],"ward":"富谷市","address":"宮城県富谷市富ケ丘２−１１−１２長澤整形外科クリニック２F","tel":"022-343-5477","url":"http://www.coconet.or.jp/","lat":38.36367034,"lng":140.86656983,"weekday":"14:00-17:00","saturday":"10:00-15:00","sunday":"","holiday":"","closed":"日、国民の祝日、年末年始","capacity":10,"id":"0452700545"},{"name":"CoCo＋","nameKana":"ここぷらす","corp":"株式会社JINプロジェクト","serviceTypes":["放課後等デイサービス"],"ward":"名取市","address":"宮城県名取市大手町四丁目１８番１０号","tel":"070-1160-0161","url":"http://tayutaedomosizumaz.wixsite.com/jinproject","lat":38.1672949,"lng":140.8778505,"weekday":"14:00-17:00","saturday":"10:00-16:00","sunday":"","holiday":"10:00-16:00","closed":"日曜日","capacity":10,"id":"0450700521"},{"name":"パルリンクス","nameKana":"ぱるりんくす","corp":"株式会社JINプロジェクト","serviceTypes":["放課後等デイサービス"],"ward":"多賀城市","address":"宮城県多賀城市高橋5丁目11-6","tel":"07011602113","url":"https://tayutaedomosizumaz.wixsite.com/jinproject","lat":38.28540595,"lng":140.98350779,"weekday":"14:00-17:00","saturday":"","sunday":"","holiday":"10:00-15:00","closed":"土曜日、日曜日","capacity":10,"id":"0450917091"},