[{"name":"児童発達支援・放課後等デイサービス　すまいるみっけ","nameKana":"じどうはったつしえんほうかごとうでいさーびすすまいるみっけ","corp":"株式会社ナナＳ","serviceTypes":["児童発達支援","放課後等デイサービス"],"ward":"秋田市","address":"秋田県秋田市秋田市秋田市広面字蓮沼21-5","tel":"018-827-7709","url":"http://www.mikke-7s.co.jp","lat":39.72469164,"lng":140.14297114,"weekday":"09:00-18:00","saturday":"","sunday":"","holiday":"09:00-18:00","closed":"５月５日、８月１２日から８月１５日まで、１２月２８日から１月３日","capacity":10,"id":"0550160071"},{"name":"多機能型ケアベースにのに","nameKana":"たきのうがたけあべーすにのに","corp":"特定非営利活動法人にこっと秋田","serviceTypes":["児童発達支援","放課後等デイサービス"],"ward":"秋田市","address":"秋田県秋田市牛島西２丁目３−１８","tel":"018-838-6125","url":"https://nicotto-akita.sakuraweb.com/","lat":39.69358325,"lng":140.12018891,"weekday":"09:00-17:00","saturday":"09:00-17:00","sunday":"","holiday":"09:00-17:00","closed":"日曜日及び年末年始","capacity":5,"id":"0550111181"},{"name":"自閉症スペクトラム特化多機能型事業所Kokua","nameKana":"じへいしょうすぺくとらむとっかたきのうがたじぎょうしょこくあ","corp":"株式会社ＯＨＡＮＡ","serviceTypes":["児童発達支援","放課後等デイサービス"],"ward":"秋田市","address":"秋田県秋田市御野場新町三丁目13番5号","tel":"018-893-6850","url":"https://ohana-japan.co.jp","lat":39.66867249,"lng":140.12147032,"weekday":"09:00-18:00","saturday":"","sunday":"","holiday":"","closed":"土日祝日","capacity":10,"id":"0550160261"},{"name":"児童発達支援・放課後等デイサービス じゃんぷ","nameKana":"じどうはったつしえんほうかごとうでいさーびすじゃんぷ","corp":"つなぐ和株式会社","serviceTypes":["児童発達支援"],"ward":"秋田市","address":"秋田県秋田市広面字釣瓶町３５−２","tel":"0188385655","url":"http://www.tsunaguwa.co.jp","lat":39.7211784,"lng":140.15242319,"weekday":"09:30-17:00","saturday":"","sunday":"","holiday":"09:30-14:30","closed":"土日、5月5日、8月12日〜8月15日、12月28日〜1月3日","capacity":10,"id":"0550160063"},{"name":"運動学習支援教室ふれんず山王教室","nameKana":"うんどうがくしゅうしえんきょうしつふれんずさんのうきょうしつ","corp":"清三屋商事株式会社","serviceTypes":["児童発達支援","放課後等デイサービス"],"ward":"秋田市","address":"秋田県秋田市山王五丁目１４番２号山王土地ビル１Ｆ","tel":"018-838-1204","url":"","lat":39.71546371,"lng":140.10628055,"weekday":"","saturday":"","sunday":"","holiday":"","closed":"","capacity":null,"id":"0550160097"},{"name":"運動学習支援教室ふれんず秋田南教室","nameKana":"うんどうがくしゅうしえんきょうしつふれんずあきたみなみきょうしつ","corp":"清三屋商事株式会社","serviceTypes":["児童発達支援","放課後等デイサービス"],"ward":"秋田市","address":"秋田県秋田市卸町五丁目１番６号","tel":"0188530133","url":"","lat":39.69571858,"lng":140.10602887,"weekday":"","saturday":"","sunday":"","holiday":"","closed":"","capacity":null,"id":"0550160162"},{"name":"にじいろキッズ","nameKana":"にじいろきっず","corp":"株式会社サンエスコミュニティ","serviceTypes":["児童発達支援"],"ward":"秋田市","address":"秋田県秋田市東通仲町４番１号秋田拠点センターアルヴェ３F　Ｃ−２","tel":"018-838-4600","url":"https://nijiiro-kids-akita.com/","lat":39.71480079,"lng":140.13481709,"weekday":"09:30-17:30","saturday":"09:00-17:00","sunday":"","holiday":"","closed":"日曜日、月曜日、祝日","capacity":10,"id":"0550160246"},{"name":"児童発達支援とっとこ・放課後デイサービス（第３みなとっ子）","nameKana":"じどうはったつしえんとっとこほうかごでいさーびすだいさんみなとっこ","corp":"合同会社放課後児童園青い鳥","serviceTypes":["児童発達支援","放課後等デイサービス"],"ward":"秋田市","address":"秋田県秋田市土崎港東一丁目２-４１","tel":"018-874-8245","url":"","lat":39.74931166,"lng":140.07603124,"weekday":"","saturday":"","sunday":"","holiday":"","closed":"","capacity":null,"id":"0550160279"},{"name":"児童発達支援・放課後等デイサービスＬｉｎｏ","nameKana":"じどうはったつしえんほうかごとうでいさーびすりの","corp":"合同会社Ｌｉｎｏ","serviceTypes":["児童発達支援","放課後等デイサービス"],"ward":"秋田市","address":"秋田県秋田市東通六丁目１番２８号　１Ｆ","tel":"018-853-7105","url":"","lat":39.71384255,"lng":140.13403946,"weekday":"10:00-19:00","saturday":"10:00-19:00","sunday":"","holiday":"10:00-19:00","closed":"日曜日・月曜日","capacity":10,"id":"0550160287"},{"name":"児童発達支援・放課後等デイサービス事業所のびのび","nameKana":"じどうはったつしえんほうかごとうでいさーびすじぎょうしょのびのび","corp":"社会福祉法人　秋田県社会福祉事業団","serviceTypes":["児童発達支援","放課後等デイサービス"],"ward":"由利本荘市","address":"秋田県由利本荘市二番堰２５番１","tel":"0184-25-7077","url":"http://www.fukinoto.or.jp/yurihonjo","lat":39.37762749,"lng":140.05447993,"weekday":"09:30-12:00","saturday":"09:00-12:00","sunday":"","holiday":"","closed":"日、祝日、12月29日〜31日、1月2日〜3日","capacity":10,"id":"0550500011"},{"name":"amity","nameKana":"あみてぃー","corp":"アイル","serviceTypes":["児童発達支援","放課後等デイサービス"],"ward":"秋田市","address":"秋田県秋田市保戸野桜町15-39","tel":"018-866-1121","url":"https://www.ailu-ark.jp/","lat":39.73267612,"lng":140.12080334,"weekday":"10:00-18:00","saturday":"10:00-18:00","sunday":"","holiday":"","closed":"日曜、祝日等","capacity":5,"id":"0550160105"},{"name":"児童発達支援らじわん","nameKana":"じどうはったつしえんらじわん","corp":"株式会社　りは・ぽっと","serviceTypes":["児童発達支援"],"ward":"秋田市","address":"秋田県秋田市泉南三丁目２７番２０号","tel":"0188075090","url":"http://www.rehapot.com","lat":39.72901797,"lng":140.11295979,"weekday":"09:00-15:00","saturday":"","sunday":"","holiday":"09:00-15:00","closed":"土・日・8/13・12/30〜1/3","capacity":10,"id":"0550160220"},{"name":"発達支援ＢＯＸ　らじあぼ","nameKana":"はったつしえんぼっくすらじあぼ","corp":"株式会社　りは・ぽっと","serviceTypes":["児童発達支援"],"ward":"秋田市","address":"秋田県秋田市手形字西谷地１８８−１　西村ビル　東棟","tel":"018-838-7403","url":"http://www.rehapot.com","lat":39.71807816,"lng":140.13321701,"weekday":"09:00-17:00","saturday":"","sunday":"","holiday":"09:00-17:00","closed":"土日・8/13・12/30〜1/3","capacity":10,"id":"0550111082"},{"name":"子ども発達支援センター　オリブ園","nameKana":"こどもはったつしえんせんたーおりぶえん","corp":"社会福祉法人　グリーンローズ","serviceTypes":["児童発達支援"],"ward":"秋田市","address":"秋田県秋田市新屋表町８−５子ども発達支援センター　オリブ園","tel":"018-828-7750","url":"http://www.olive.kodomo-sekai.jp","lat":39.68034744,"lng":140.08450402,"weekday":"08:40-18:40","saturday":"08:40-14:40","sunday":"","holiday":"","closed":"日曜日 土曜日月2回 祭日 創立記念日(6月10日) 12月29日~1月3日","capacity":20,"id":"0550110357"},{"name":"あきた児童デイサービスセンター","nameKana":"あきたじどうでいさーびすせんたー","corp":"株式会社　こうせい","serviceTypes":["児童発達支援","放課後等デイサービス"],"ward":"秋田市","address":"秋田県秋田市楢山川口境１３−８","tel":"018-893-6795","url":"http://akitajidou.net","lat":39.70298469,"lng":140.1124502,"weekday":"08:30-17:30","saturday":"08:30-17:30","sunday":"","holiday":"08:30-17:30","closed":"日曜日、８月１３日、１２月２９日〜１月３日","capacity":11,"id":"0550110688"},{"name":"児童発達支援・放課後等デイサービスらーそ","nameKana":"じどうはったつしえんほうかごとうでいさーびすらーそ","corp":"医療法人ソレイユ","serviceTypes":["児童発達支援","放課後等デイサービス"],"ward":"秋田市","address":"秋田県秋田市外旭川八柳2丁目5番40号","tel":"018-838-5817","url":"https://la-so.jp.net","lat":39.74723776,"lng":140.10080712,"weekday":"09:00-13:00","saturday":"","sunday":"","holiday":"","closed":"土日祝日","capacity":10,"id":"0550111165"},{"name":"秋田県立医療療育センター","nameKana":"あきたけんりついりょうりょういくせんたー","corp":"地方独立行政法人　秋田県立療育機構","serviceTypes":["児童発達支援"],"ward":"秋田市","address":"秋田県秋田市南ケ丘一丁目１番２号","tel":"018-826-2401","url":"http://www.airc.or.jp/","lat":39.69012107,"lng":140.15990166,"weekday":"09:00-15:00","saturday":"","sunday":"","holiday":"","closed":"土日祝日、12月29日から1月3日まで。","capacity":70,"id":"0550110373"},{"name":"能代地域生活支援センター","nameKana":"のしろちいきせいかつしえんせんたー","corp":"社会福祉法人　能代ふくし会","serviceTypes":["児童発達支援","放課後等デイサービス"],"ward":"能代市","address":"秋田県能代市鰄渕字古川反40番地1","tel":"0185-58-5670","url":"http://www.noshirofukushikai.com","lat":40.21215001,"lng":140.0266235,"weekday":"08:30-17:30","saturday":"","sunday":"","holiday":"","closed":"土曜日、日曜日、祝日、年末年始","capacity":10,"id":"0550210017"},{"name":"放課後等デイサービス　キッズスポーツ","nameKana":"ほうかごとうでいさーびすきっずすぽーつ","corp":"社会福祉法人　ひらか福祉会","serviceTypes":["児童発達支援"],"ward":"横手市","address":"秋田県横手市婦気大堤字婦気前２６９−１","tel":"0182-23-6576","url":"http://www.flh1.net","lat":39.30213489,"lng":140.5493902,"weekday":"10:30-12:00","saturday":"","sunday":"","holiday":"10:30-12:00","closed":"土・日曜日","capacity":10,"id":"0550300081"},{"name":"やさしい森のポロ","nameKana":"やさしいもりのぽろ","corp":"医療法人阿部耳鼻咽喉科医院","serviceTypes":["児童発達支援"],"ward":"湯沢市","address":"秋田県湯沢市稲庭町字下川原１５８−３","tel":"0182423341","url":"https://www.abejibika.com/poro","lat":39.11529463,"lng":140.56831758,"weekday":"","saturday":"","sunday":"","holiday":"","closed":"","capacity":null,"id":"0550700132"},{"name":"児童発達支援・放課後等デイサービス支援事業所　ブリエ十文字","nameKana":"じどうはったつしえんほうかごとうでいさーびすしえんじぎょうしょぶりえじゅうもんじ","corp":"社会福祉法人　アヴェク・トワ","serviceTypes":["児童発達支援","放課後等デイサービス"],"ward":"横手市","address":"秋田県横手市十文字町梨木字羽場下１０番地１１５","tel":"0182-23-6300","url":"http://www.avec-toi-jumonji.net/","lat":39.23400874,"lng":140.52761086,"weekday":"09:00-16:00","saturday":"09:00-16:00","sunday":"","holiday":"","closed":"日曜日・祝祭日及び年末年始　（12月31日〜1月3日）","capacity":10,"id":"0550300057"},{"name":"モモの家","nameKana":"もものいえ","corp":"横手市","serviceTypes":["児童発達支援"],"ward":"横手市","address":"秋田県横手市横山町１−１","tel":"0182-33-7777","url":"http://family-care-service.com","lat":39.30451295,"lng":140.5636574,"weekday":"09:00-16:00","saturday":"","sunday":"","holiday":"","closed":"12月29日から翌年1月3日までと、土曜日及び日曜日、国民の祝日","capacity":10,"id":"0550310163"},{"name":"多機能型事業所　のっぽ","nameKana":"たきのうがたじぎょうしょのっぽ","corp":"合同会社ライズ","serviceTypes":["児童発達支援"],"ward":"大館市","address":"秋田県大館市東台１丁目４番２９号","tel":"0186597665","url":"","lat":40.26810231,"lng":140.57234812,"weekday":"09:30-16:30","saturday":"10:00-16:00","sunday":"","holiday":"10:00-16:00","closed":"不定休","capacity":null,"id":"0550400113"},{"name":"児童発達支援・放課後等デイサービスふぁみーゆ","nameKana":"じどうはったつしえんほうかごとうでーさーびすふぁみーゆ","corp":"有限会社ファミリーケアサービス","serviceTypes":["児童発達支援","放課後等デイサービス"],"ward":"大館市","address":"秋田県大館市代野２３３番地１４","tel":"0186-45-2700","url":"","lat":40.28792769,"lng":140.57089455,"weekday":"09:30-17:30","saturday":"","sunday":"","holiday":"","closed":"","capacity":10,"id":"0550400121"},{"name":"児童発達支援・放課後等デイサービスふぁみーゆ","nameKana":"じどうはったつしえんほうかごとうでいさーびすふぁみーゆ","corp":"株式会社　乳井石油商会","serviceTypes":["児童発達支援"],"ward":"大館市","address":"秋田県大館市字代野２３３番１４　","tel":"0186-99-0107","url":"https://kp-odate.com","lat":40.28792491,"lng":140.57089177,"weekday":"09:00-13:00","saturday":"09:00-15:00","sunday":"","holiday":"","closed":"","capacity":10,"id":"0550400030"},{"name":"大館市児童発達支援センターひまわり","nameKana":"おおだてしじどうはったつしえんせんたーひまわり","corp":"大館市","serviceTypes":["児童発達支援"],"ward":"大館市","address":"秋田県大館市花岡町字前田１８１−５","tel":"0186-42-1160","url":"https://www.city.odate.lg.jp/kosodate/guide/birth/ikuji","lat":40.32531473,"lng":140.55503903,"weekday":"09:00-14:00","saturday":"","sunday":"","holiday":"","closed":"土日及び国民の祝日、12月29日〜1月3日","capacity":15,"id":"0550410690"},{"name":"クローバー田町","nameKana":"くろーばーたまち","corp":"株式会社　信みらくる","serviceTypes":["児童発達支援","放課後等デイサービス"],"ward":"湯沢市","address":"秋田県湯沢市田町2丁目１番１５号","tel":"0183567041","url":"","lat":39.15972091,"lng":140.49186628,"weekday":"","saturday":"","sunday":"","holiday":"","closed":"","capacity":null,"id":"0550700124"},{"name":"クローバー十文字","nameKana":"くろーばーじゅうもんじ","corp":"株式会社　信みらくる","serviceTypes":["児童発達支援"],"ward":"横手市","address":"秋田県横手市十文字町梨木字海道下８７番地","tel":"090-6457-3287","url":"","lat":39.23237557,"lng":140.5245693,"weekday":"","saturday":"","sunday":"","holiday":"","closed":"","capacity":null,"id":"0550300149"},{"name":"児童通所多機能型事業所　とぅいんくる","nameKana":"しょうがいじつうしょしえんたきのうがたじぎょうしょとぅいんくる","corp":"社会福祉法人　花輪ふくし会","serviceTypes":["児童発達支援"],"ward":"鹿角市","address":"秋田県鹿角市花輪字上花輪１３９−１児童通所多機能型事業所　とぅいんくる","tel":"0186-22-4083","url":"http://a-hanawafukushikai.jp/","lat":40.18716402,"lng":140.78886163,"weekday":"09:00-14:00","saturday":"","sunday":"","holiday":"09:00-14:00","closed":"日曜日。","capacity":20,"id":"0550910418"},{"name":"smile＋WAKABA","nameKana":"すまいるぷらすわかば","corp":"社会福祉法人　愛生会","serviceTypes":["児童発達支援","放課後等デイサービス"],"ward":"鹿角市","address":"秋田県鹿角市十和田大湯字上ノ湯６１番地３","tel":"0186-37-4157","url":"https://www.aiseikai.or.jp/","lat":40.29528536,"lng":140.82867425,"weekday":"09:00-14:30","saturday":"","sunday":"","holiday":"","closed":"土曜・日曜・祝日・学校長期休暇(8/13.14.15　12/29を除く　)","capacity":10,"id":"0550900039"},{"name":"はなえみ幼稚舎　あみこ","nameKana":"はなえみようちしゃあみこ","corp":"あきた企画合同会社","serviceTypes":["児童発達支援"],"ward":"由利本荘市","address":"秋田県由利本荘市岩渕下７１−１中央線富士ビル２階","tel":"090-1064-0684","url":"https://www.akitahanaemi.com","lat":39.39210976,"lng":140.05137791,"weekday":"07:00-19:00","saturday":"07:00-19:00","sunday":"","holiday":"","closed":"日曜日、祝日","capacity":null,"id":"0550500102"},{"name":"はなえみ学舎みなみ","nameKana":"はなえみがくしゃみなみ","corp":"あきた企画合同会社","serviceTypes":["児童発達支援","放課後等デイサービス"],"ward":"由利本荘市","address":"秋田県由利本荘市給人町40-2第２MKビル２階","tel":"09010640684","url":"","lat":39.38832698,"lng":140.04342394,"weekday":"09:00-18:00","saturday":"08:00-16:45","sunday":"","holiday":"","closed":"日曜日・祝日・１２月３０日〜１月４日・８月１３日〜１５日","capacity":10,"id":"0550500136"},{"name":"チャイルドステーション　ゆうゆう","nameKana":"ちゃいるどすてーしょんゆうゆう","corp":"特定非営利活動法人　男鹿潟上南秋教育会館","serviceTypes":["児童発達支援"],"ward":"潟上市","address":"秋田県潟上市飯田川飯塚字深田16","tel":"018-827-7560","url":"https://childstationyuyu.sakura.ne.jp/","lat":39.89791443,"lng":140.0805301,"weekday":"10:00-13:20","saturday":"","sunday":"","holiday":"","closed":"日曜日、祝日","capacity":10,"id":"0551000037"},{"name":"こどもかがやきセンターかのん","nameKana":"こどもかがやきせんたーかのん","corp":"社会福祉法人水交会","serviceTypes":["児童発達支援","放課後等デイサービス"],"ward":"大仙市","address":"秋田県大仙市角間川町字八幡前２８５−１","tel":"0187-65-2003","url":"https://www.suikoukai.or.jp","lat":39.40009825,"lng":140.48254544,"weekday":"09:00-17:00","saturday":"","sunday":"","holiday":"","closed":"土曜(第2以外)、日曜、祝日、12月29日〜1月3日","capacity":10,"id":"0550800015"},{"name":"みらいずジュニア花館","nameKana":"みらいずじゅにあはなだて","corp":"株式会社　あけぼのミライズ","serviceTypes":["児童発達支援","放課後等デイサービス"],"ward":"大仙市","address":"秋田県大仙市若竹町23-57","tel":"0187-73-7546","url":"https://main.a-miraizu.co.jp/","lat":39.46894418,"lng":140.4689643,"weekday":"10:30-12:30","saturday":"10:30-12:30","sunday":"","holiday":"","closed":"日曜日、祝日、8月最終土曜日、12月30日〜1月3日","capacity":10,"id":"0550800049"},{"name":"みらいずジュニア大曲","nameKana":"みらいずじゅにあおおまがり","corp":"株式会社　あけぼのミライズ","serviceTypes":["児童発達支援","放課後等デイサービス"],"ward":"大仙市","address":"秋田県大仙市大曲川原町4-10-4","tel":"0187-73-5885","url":"http://main.a-miraizu.co.jp/","lat":39.4589757,"lng":140.47310056,"weekday":"10:30-12:30","saturday":"10:30-12:30","sunday":"","holiday":"","closed":"日曜日、祝日、8月最終土曜日、12月30日〜1月3日","capacity":10,"id":"0550800098"},{"name":"みらいずジュニア横手","nameKana":"みらいずじゅにあよこて","corp":"株式会社　あけぼのミライズ","serviceTypes":["児童発達支援","放課後等デイサービス"],"ward":"横手市","address":"秋田県横手市朝倉町３番４５号","tel":"0182-23-7808","url":"https://main.a-miraizu.co.jp/","lat":39.3221105,"lng":140.56024828,"weekday":"10:30-12:30","saturday":"10:30-12:30","sunday":"","holiday":"","closed":"日曜日・祝日、8月最終土曜日、12月30日〜1月3日","capacity":10,"id":"0550300099"},{"name":"みらいずカレッジ","nameKana":"みらいずかれっじ","corp":"株式会社　あけぼのミライズ","serviceTypes":["児童発達支援","放課後等デイサービス"],"ward":"大仙市","address":"秋田県大仙市大曲通町４番６号　","tel":"0187-73-5755","url":"","lat":39.46448922,"lng":140.48048536,"weekday":"14:00-18:00","saturday":"09:30-16:00","sunday":"","holiday":"","closed":"日・祝日休み　　12月30〜1月3日","capacity":10,"id":"0550800106"},{"name":"みらいずジュニア美郷","nameKana":"みらいずじゅにあみさと","corp":"株式会社　あけぼのミライズ","serviceTypes":["児童発達支援","放課後等デイサービス"],"ward":"仙北郡美郷町","address":"秋田県仙北郡美郷町六郷字白山１７３番地","tel":"0187-73-7373","url":"https://main.a-miraizu.co.jp/","lat":39.41782328,"lng":140.54186607,"weekday":"14:00-18:00","saturday":"09:30-16:00","sunday":"","holiday":"","closed":"日曜日・祝日　12月30日〜１月３日","capacity":10,"id":"0552600025"},{"name":"みらいずカレッジ横手","nameKana":"みらいずかれっじよこて","corp":"株式会社　あけぼのミライズ","serviceTypes":["児童発達支援","放課後等デイサービス"],"ward":"横手市","address":"秋田県横手市横手町字四ノ口５１","tel":"0187-73-7755","url":"","lat":39.31383351,"lng":140.55042247,"weekday":"14:00-18:00","saturday":"09:30-16:00","sunday":"","holiday":"","closed":"土・日・祝日 12月30日〜1月3日","capacity":10,"id":"0550300156"},{"name":"もろびこども園","nameKana":"もろびこどもえん","corp":"北秋田市","serviceTypes":["児童発達支援","放課後等デイサービス"],"ward":"北秋田市","address":"秋田県北秋田市脇神字高村岱１１０−４","tel":"0186623444","url":"","lat":40.20970063,"lng":140.38396318,"weekday":"08:30-17:30","saturday":"08:30-17:30","sunday":"","holiday":"","closed":"日曜日、祝日、12月29日から1月3日","capacity":10,"id":"0551100027"},{"name":"児童発達支援・放課後等デイサービス　ぱれっと","nameKana":"じどうはったつしえんほうかごとうでいさーびすぱれっと","corp":"特定非営利活動法人キャンバス","serviceTypes":["児童発達支援","放課後等デイサービス"],"ward":"にかほ市","address":"秋田県にかほ市平沢字八森３１番地１にかほ市総合福祉交流センター「スマイル」内","tel":"0184-74-9172","url":"https://palette-nikaho.studio.site/","lat":39.29232214,"lng":139.95792909,"weekday":"13:30-17:30","saturday":"","sunday":"","holiday":"","closed":"土・日曜日、祝祭日、年末年始(12/29〜1/3）","capacity":10,"id":"0551300049"},{"name":"児童発達支援・放課後等デイサービス　すてっぷ","nameKana":"じどうはったつしえんほうかごとうでいさーびすすてっぷ","corp":"すてっぷ合同会社","serviceTypes":["児童発達支援","放課後等デイサービス"],"ward":"仙北市","address":"秋田県仙北市角館町小勝田下村１番地１５","tel":"0187-49-6361","url":"","lat":39.59980879,"lng":140.55378855,"weekday":"10:00-17:00","saturday":"10:00-17:00","sunday":"","holiday":"10:00-17:00","closed":"土曜日、日曜日、祝日","capacity":5,"id":"0551200041"},{"name":"クローバーの森","nameKana":"くろーばーのもり","corp":"社会福祉法人たつの子会","serviceTypes":["児童発達支援","放課後等デイサービス"],"ward":"山本郡三種町","address":"秋田県山本郡三種町浜田字村下３４３−１","tel":"0185-85-2030","url":"","lat":40.10204507,"lng":139.99251004,"weekday":"09:00-17:30","saturday":"","sunday":"","holiday":"","closed":"","capacity":10,"id":"0552200024"},{"name":"こどもサポート教室「クラ・ゼミ」大曲校","nameKana":"こどもさぽーときょうしつくらぜみおおまがりこう","corp":"株式会社クラ・ゼミ","serviceTypes":["児童発達支援","放課後等デイサービス"],"ward":"大仙市","address":"秋田県大仙市大曲栄町１３番４６−１５","tel":"0187-73-7644","url":"https://kirari-kodomo.com/","lat":39.45418464,"lng":140.4793139,"weekday":"10:00-19:00","saturday":"09:00-18:00","sunday":"","holiday":"10:00-19:00","closed":"毎週日曜日・ゴールデンウイーク、お盆、年末年始","capacity":10,"id":"0550800114"},{"name":"こどもサポート教室「クラ・ゼミ」秋田駅東校","nameKana":"こどもさぽーときょうしつくらぜみあきたえきひがしこう","corp":"株式会社クラ・ゼミ","serviceTypes":["児童発達支援","放課後等デイサービス"],"ward":"秋田市","address":"秋田県秋田市手形字西谷地７０４番１センティースマンション１０４号","tel":"0188387758","url":"https://kirari-kodomo.com/","lat":39.71740883,"lng":140.13450861,"weekday":"10:00-19:00","saturday":"10:00-19:00","sunday":"","holiday":"10:00-19:00","closed":"日曜・年末年始・お盆・ＧＷ（年間スケジュール表に定める）","capacity":10,"id":"0550111215"},{"name":"こどもサポート教室「クラ・ゼミ」秋田大町校","nameKana":"こどもさぽーときょうしつくらぜみあきたおおまちこう","corp":"株式会社クラ・ゼミ","serviceTypes":["児童発達支援","放課後等デイサービス"],"ward":"秋田市","address":"秋田県秋田市大町一丁目４番４号","tel":"018-827-6760","url":"https://kirari-kodomo.com/around/around-220/","lat":39.71992739,"lng":140.11534345,"weekday":"10:00-19:00","saturday":"10:00-19:00","sunday":"","holiday":"10:00-19:00","closed":"毎週日曜日・ゴールデンウイーク、お盆、年末年始","capacity":10,"id":"0550160022"},{"name":"アーク","nameKana":"あーく","corp":"アーク合同会社","serviceTypes":["放課後等デイサービス"],"ward":"秋田市","address":"秋田県秋田市保戸野八丁24番38号","tel":"070-2263-7755","url":"","lat":39.73283723,"lng":140.12144495,"weekday":"10:00-16:00","saturday":"","sunday":"","holiday":"","closed":"土曜、日曜","capacity":10,"id":"0550160048"},{"name":"児童発達支援・放課後等デイサービス じゃんぷ","nameKana":"じどうはったつしえんほうかごとうでいさーびすじゃんぷ","corp":"つなぐ和株式会社","serviceTypes":["放課後等デイサービス"],"ward":"秋田市","address":"秋田県秋田市広面字釣瓶町３５−２","tel":"018-838-5220","url":"http://www.tsunaguwa.co.jp","lat":39.7211784,"lng":140.15242319,"weekday":"09:30-17:30","saturday":"","sunday":"","holiday":"09:30-15:30","closed":"土日、5月5日、8月12日〜8月15日、12月28日〜1月3日","capacity":10,"id":"0550160063"},{"name":"就労準備型放課後等デイサービス　ふれんずの樹","nameKana":"しゅうろうじゅんびがたほうかごとうでいさーびすふれんずのき","corp":"清三屋商事株式会社","serviceTypes":["放課後等デイサービス"],"ward":"秋田市","address":"秋田県秋田市山王五丁目９番１１号山王ガーデンビル２Ｆ","tel":"018-827-4231","url":"","lat":39.71544704,"lng":140.10575837,"weekday":"","saturday":"","sunday":"","holiday":"","closed":"","capacity":null,"id":"0550160303"},{"name":"TOYOキッズデイサービス","nameKana":"とよきっずでいさーびす","corp":"リッチロールレボリューション株式会社","serviceTypes":["放課後等デイサービス"],"ward":"秋田市","address":"秋田県秋田市大住二丁目３番９号","tel":"018-827-3995","url":"","lat":39.69221947,"lng":140.11910571,"weekday":"13:30-17:30","saturday":"09:00-17:00","sunday":"","holiday":"09:00-17:00","closed":"日曜日","capacity":10,"id":"0550160204"},{"name":"放課後等デイサービス　Second Raum","nameKana":"ほうかごとうでいさーびすせかんどらうむ","corp":"特定非営利活動法人秋田たすけあいネットあゆむ","serviceTypes":["放課後等デイサービス"],"ward":"秋田市","address":"秋田県秋田市手形字中台７２番地３","tel":"018-827-3906","url":"https://blog.goo.ne.jp/akitatasukeai","lat":39.73806209,"lng":140.13356289,"weekday":"10:00-17:00","saturday":"","sunday":"","holiday":"","closed":"土日祝日　","capacity":10,"id":"0550160196"},{"name":"放課後等デイサービスえるぶ","nameKana":"ほうかごとうでいさーびすえるぶ","corp":"特定非営利活動法人秋田たすけあいネットあゆむ","serviceTypes":["放課後等デイサービス"],"ward":"秋田市","address":"秋田県秋田市泉北一丁目１７番２６号","tel":"018-838-1345","url":"https://blog.goo.ne.jp/akitatasukeai","lat":39.73436703,"lng":140.10228541,"weekday":"10:00-17:00","saturday":"","sunday":"","holiday":"","closed":"土日祝日","capacity":10,"id":"0550160295"},{"name":"にじいろキッズ","nameKana":"にじいろきっず","corp":"株式会社サンエスコミュニティ","serviceTypes":["放課後等デイサービス"],"ward":"秋田市","address":"秋田県秋田市東通仲町４番１号　秋田拠点センターアルヴェ３F　C−２","tel":"838-4600","url":"https://nijiiro-kids-akita.com/","lat":39.71581724,"lng":140.13146732,"weekday":"09:30-17:30","saturday":"09:00-17:00","sunday":"","holiday":"","closed":"","capacity":10,"id":"0550160246"},{"name":"放課後等デイサービスぱすてる","nameKana":"ほうかごとうでいさーびすぱすてる","corp":"株式会社グラデーション","serviceTypes":["放課後等デイサービス"],"ward":"秋田市","address":"秋田県秋田市将軍野南一丁目１０番７７号","tel":"018-827-6182","url":"https://pastelg2023.wixsite.com/pastel","lat":39.74621218,"lng":140.0815532,"weekday":"13:00-18:00","saturday":"09:00-17:00","sunday":"","holiday":"09:00-17:00","closed":"日曜日、お盆8/13〜15、年末年始12/30〜1/3","capacity":10,"id":"0550160253"},{"name":"就労準備型　放課後等デイサービス　じぶんいろ","nameKana":"しゅうろうじゅんびがたほうかごとうでいさーびすじぶんいろ","corp":"株式会社よつばと雅","serviceTypes":["放課後等デイサービス"],"ward":"秋田市","address":"秋田県秋田市八橋本町四丁目１番１６号アーバンハウス八橋Ⅰ","tel":"018-893-5347","url":"https://yotubatomiyabi.net/","lat":39.72392645,"lng":140.09821127,"weekday":"14:00-18:00","saturday":"10:00-16:00","sunday":"","holiday":"","closed":"日曜日、祝日","capacity":10,"id":"0550160311"},{"name":"療育支援エフ　秋田泉教室","nameKana":"りょういくしえんえふあきたいずみきょうしつ","corp":"合同会社Ｍネクスト","serviceTypes":["放課後等デイサービス"],"ward":"秋田市","address":"秋田県秋田市泉南三丁目６番２４号","tel":"018-838-4210","url":"https://ryoikushien-f.jp","lat":39.72988455,"lng":140.11324861,"weekday":"14:00-18:00","saturday":"10:00-17:00","sunday":"","holiday":"10:00-17:00","closed":"日曜、お盆（社内規定）、年末年始（12/30〜1/3）","capacity":10,"id":"0550160329"},{"name":"放課後等デイサービスわんだふる","nameKana":"ほうかごとうでいさーびすわんだふる","corp":"ワンダふる合同会社","serviceTypes":["放課後等デイサービス"],"ward":"秋田市","address":"秋田県秋田市外旭川字水口４７番地４","tel":"050-1254-9679","url":"https://wandafulu8888.com/","lat":39.74082206,"lng":140.10906785,"weekday":"11:00-18:00","saturday":"11:00-18:00","sunday":"11:00-18:00","holiday":"11:00-18:00","closed":"日曜日、年末年始","capacity":10,"id":"0550160121"},{"name":"放課後等デイサービス事業所　ぐんぐん","nameKana":"ほうかごとうでいさーびすじぎょうしょぐんぐん","corp":"社会福祉法人　秋田県社会福祉事業団","serviceTypes":["放課後等デイサービス"],"ward":"由利本荘市","address":"秋田県由利本荘市花畑町2丁目28番地","tel":"0184-74-8020","url":"http://www.fukinoto.or.jp/yurihonjo","lat":39.3879601,"lng":140.05755767,"weekday":"13:30-17:15","saturday":"","sunday":"","holiday":"","closed":"土、日、祝日、12月29日〜31日、1月２日〜3日","capacity":10,"id":"0550500045"},{"name":"放課後等デイサービス事業所　さくらっこ","nameKana":"ほうかごとうでいさーびすじぎょうしょさくらっこ","corp":"社会福祉法人　秋田県社会福祉事業団","serviceTypes":["放課後等デイサービス"],"ward":"横手市","address":"秋田県横手市赤坂字仁坂１０５","tel":"0182-32-6085","url":"http://www.fukinoto.or.jp/azakura","lat":39.29744374,"lng":140.54956839,"weekday":"13:00-18:00","saturday":"","sunday":"","holiday":"","closed":"土、日、祝日、12月29日〜31日、1月2日〜3日","capacity":15,"id":"0550300024"},{"name":"湯沢雄勝広域市町村圏組合やまばと園放課後等デイサービス事業所","nameKana":"ゆざわおがちこういきしちょうそんけんくみあいやまばとえんほうかごとうでいさーびすじぎょうしょ","corp":"社会福祉法人　秋田県社会福祉事業団","serviceTypes":["放課後等デイサービス"],"ward":"湯沢市","address":"秋田県湯沢市川連町字久保７番地２号","tel":"0183-56-6800","url":"http://www.fukinoto.or.jp/yamabato","lat":39.15002404,"lng":140.56049438,"weekday":"08:30-17:15","saturday":"","sunday":"","holiday":"","closed":"土、日、祝日、8月13日〜8月15日、12月29日〜31日、1月2日〜3日","capacity":10,"id":"0550710388"},{"name":"児童デイサービス　ルピナス潟上","nameKana":"じどうでいさーびするぴなすかたがみ","corp":"株式会社　ライブ","serviceTypes":["放課後等デイサービス"],"ward":"潟上市","address":"秋田県潟上市天王字北野２３７−１３","tel":"018-838-1147","url":"","lat":39.83705973,"lng":140.02703168,"weekday":"13:30-17:30","saturday":"09:30-16:30","sunday":"","holiday":"09:30-16:30","closed":"日曜日・8/13・12/31〜1/3","capacity":10,"id":"0551000045"},{"name":"はなびら","nameKana":"はなびら","corp":"株式会社　こうせい","serviceTypes":["放課後等デイサービス"],"ward":"大仙市","address":"秋田県大仙市高梨字水里１５５−１","tel":"0187888330","url":"https://akitajidou.net/","lat":39.46095384,"lng":140.49895268,"weekday":"08:30-17:30","saturday":"08:30-17:30","sunday":"","holiday":"08:30-17:30","closed":"日曜日、8/13、8月最終土曜日、12/30〜1/3","capacity":10,"id":"0550800148"},{"name":"あきた児童デイサービス大曲店","nameKana":"あきたじどうでいさーびすおおまがりてん","corp":"株式会社　こうせい","serviceTypes":["放課後等デイサービス"],"ward":"大仙市","address":"秋田県大仙市大曲西根字瀬下６０−１","tel":"0187-73-6882","url":"http://akitajidou.net","lat":39.44808782,"lng":140.4623107,"weekday":"08:30-17:30","saturday":"08:30-17:30","sunday":"","holiday":"08:30-17:30","closed":"日曜日、8月13日、8月最終土曜日、12月30日〜1月3日","capacity":10,"id":"0550800031"},{"name":"秋田聖徳会多機能型支援センター第二聖和","nameKana":"あきたしょうとくかいたきのうがたしえんせんたーだいにせいわ","corp":"社会福祉法人　秋田聖徳会","serviceTypes":["放課後等デイサービス"],"ward":"秋田市","address":"秋田県秋田市外旭川字野村２０番１号","tel":"018-874-9617","url":"http://www.akita-shoutokukai.jp/","lat":39.74317401,"lng":140.09223026,"weekday":"09:00-17:00","saturday":"09:00-17:00","sunday":"","holiday":"09:00-17:00","closed":"日曜、年末年始（１２月３０日〜１月３日）","capacity":5,"id":"0550111223"},{"name":"放課後等デイサービスらじぴあ","nameKana":"ほうかごとうでいさーびすらじぴあ","corp":"株式会社　りは・ぽっと","serviceTypes":["放課後等デイサービス"],"ward":"秋田市","address":"秋田県秋田市仁井田本町三丁目6番32号","tel":"018-811-4316","url":"http://www.rehapot.com","lat":39.67626067,"lng":140.12930817,"weekday":"09:30-17:30","saturday":"","sunday":"","holiday":"09:30-17:30","closed":"土・日・8/13、年末年始（12/30〜1/3）","capacity":10,"id":"0550160055"},{"name":"発達支援ＢＯＸらじあぼ","nameKana":"はったつしえんぼっくすらじあぼ","corp":"株式会社　りは・ぽっと","serviceTypes":["放課後等デイサービス"],"ward":"秋田市","address":"秋田県秋田市手形字西谷地１８８−１　西村ビル　東棟","tel":"018-838-7403","url":"http://rehapot.com","lat":39.71807816,"lng":140.13321701,"weekday":"09:00-17:00","saturday":"","sunday":"","holiday":"09:00-17:00","closed":"土日・8/13・12/30〜1/3","capacity":10,"id":"0550111082"},{"name":"放課後等デイサービスインクル","nameKana":"ほうかごとうでいさーびすいんくる","corp":"社会福祉法人　グリーンローズ","serviceTypes":["放課後等デイサービス"],"ward":"秋田市","address":"秋田県秋田市新屋表町８−１９放課後等デイサービスインクル","tel":"018-828-0140","url":"http://www.kodomo.sekai.jp","lat":39.68009192,"lng":140.08453736,"weekday":"08:40-18:40","saturday":"08:40-14:40","sunday":"","holiday":"","closed":"日曜日 土曜日月2回 ８月１３日〜８月１５日 12月29日~1月3日","capacity":10,"id":"0550110605"},{"name":"放課後等デイサービス　インクル２","nameKana":"ほうかごとうでいさーびすいんくるつー","corp":"社会福祉法人　グリーンローズ","serviceTypes":["放課後等デイサービス"],"ward":"秋田市","address":"秋田県秋田市新屋扇町７番３４号放課後等デイサービス　インクル２","tel":"018-828-0140","url":"http://www.olive.kodomo-sekai.jp","lat":39.67873655,"lng":140.08452634,"weekday":"08:40-18:40","saturday":"08:40-12:40","sunday":"","holiday":"","closed":"日曜日 土曜日月2回 ８月１３日〜８月１５日 12月29日~1月3日","capacity":10,"id":"0550111066"},{"name":"あきた児童デイサービス２号店","nameKana":"あきたじどうでいさーびすにごうてん","corp":"株式会社　こうせい","serviceTypes":["放課後等デイサービス"],"ward":"秋田市","address":"秋田県秋田市外旭川字水口１２０−２","tel":"018-893-5679","url":"http://akitajidou.net","lat":39.74020557,"lng":140.11248702,"weekday":"08:30-17:30","saturday":"08:30-17:30","sunday":"","holiday":"08:30-17:30","closed":"日曜日、8月13日、12月29日〜1月3日","capacity":10,"id":"0550110704"},{"name":"あきた児童デイサービス３号店","nameKana":"あきたじどうでいさーびすさんごうてん","corp":"株式会社　こうせい","serviceTypes":["放課後等デイサービス"],"ward":"秋田市","address":"秋田県秋田市手形西谷地１３４番１号","tel":"018-893-6809","url":"http://akitajidou.net","lat":39.71929754,"lng":140.13530284,"weekday":"08:30-17:30","saturday":"08:30-17:30","sunday":"","holiday":"08:30-17:30","closed":"日曜日、８月１３日、１２月２９日〜１月３日","capacity":10,"id":"0550110993"},{"name":"児童デイサービス若竹","nameKana":"じどうでいさーびすわかたけ","corp":"社会福祉法人　秋田県厚生協会","serviceTypes":["放課後等デイサービス"],"ward":"秋田市","address":"秋田県秋田市御所野地蔵田二丁目１５番１","tel":"018-838-0427","url":"https://www.akitaken-kouseikyoukai.jp/","lat":39.66407966,"lng":140.15364528,"weekday":"13:30-17:30","saturday":"08:30-16:30","sunday":"","holiday":"","closed":"土曜日（第1･3のみ営業）･日曜日・祝日","capacity":10,"id":"0550110332"},{"name":"児童デイサービスたけのこ","nameKana":"じどうでいさーびすたけのこ","corp":"社会福祉法人　秋田県厚生協会","serviceTypes":["放課後等デイサービス"],"ward":"秋田市","address":"秋田県秋田市新屋比内町７−４","tel":"018-853-8848","url":"http://www.akitaken-kouseikyoukai.jp/","lat":39.67625889,"lng":140.07731614,"weekday":"13:30-17:30","saturday":"08:30-16:30","sunday":"","holiday":"","closed":"土曜日（第2･4のみ営業）･日曜日・祝日\t\t\t\t\t\t\t\t\t\t\t\t\t\t\t\t\t\t\t\t","capacity":10,"id":"0550110746"},{"name":"児童デイサービスばんぶう","nameKana":"じどうでいさーびすばんぶう","corp":"社会福祉法人　秋田県厚生協会","serviceTypes":["放課後等デイサービス"],"ward":"秋田市","address":"秋田県秋田市土崎港南二丁目２−５１","tel":"018-827-3351","url":"https://www.akitaken-kouseikyoukai.jp/","lat":39.74521761,"lng":140.0741455,"weekday":"13:30-17:30","saturday":"","sunday":"","holiday":"","closed":"土日・祝日","capacity":10,"id":"0550110886"},{"name":"児童デイサービス　ルピナス","nameKana":"じどうでいさーびするぴなす","corp":"株式会社　ライブ","serviceTypes":["放課後等デイサービス"],"ward":"秋田市","address":"秋田県秋田市御野場新町四丁目１０番８号","tel":"018-827-6742","url":"http://www.lupinus-child.jp","lat":39.66781993,"lng":140.12458395,"weekday":"13:30-17:30","saturday":"09:30-16:30","sunday":"","holiday":"09:30-16:30","closed":"日曜日","capacity":10,"id":"0550110928"},{"name":"児童デイサービス　ルピナス浜田","nameKana":"じどうでいさーびするぴなすはまだ","corp":"株式会社　ライブ","serviceTypes":["放課後等デイサービス"],"ward":"秋田市","address":"秋田県秋田市浜田字元中村４番地５","tel":"018-838-4905","url":"http://www.lupinus-child.jp","lat":39.67650588,"lng":140.07023353,"weekday":"13:00-17:30","saturday":"","sunday":"","holiday":"","closed":"土曜日・日曜日・祝日","capacity":10,"id":"0550111041"},{"name":"竹生寮放課後等デイサービス事業所","nameKana":"たけおいりょうほうかごとうでいさーびすじぎょうしょ","corp":"社会福祉法人　秋田育明会","serviceTypes":["放課後等デイサービス"],"ward":"秋田市","address":"秋田県秋田市柳田字竹生１６８番地竹生寮","tel":"018-834-2577","url":"https://akita-ikumeikai.com/","lat":39.73197197,"lng":140.16287153,"weekday":"12:30-17:30","saturday":"","sunday":"","holiday":"","closed":"土曜日、日曜日、祝祭日、年末年始(12月29日から1月1日)","capacity":10,"id":"0550111009"},{"name":"セカンドハウス　そう","nameKana":"せかんどはうすそう","corp":"ホプシー　有限会社","serviceTypes":["放課後等デイサービス"],"ward":"秋田市","address":"秋田県秋田市土崎港北一丁目１２番２４号","tel":"080-8223-1987","url":"","lat":39.76142152,"lng":140.07766657,"weekday":"10:30-17:30","saturday":"10:00-17:00","sunday":"","holiday":"","closed":"日曜日、祝祭日、８月１３日〜８月１５日、１２月２９日〜１月３日","capacity":10,"id":"0550160238"},{"name":"サポートスペース　そう","nameKana":"さぽーとすぺーすそう","corp":"ホプシー　有限会社","serviceTypes":["放課後等デイサービス"],"ward":"秋田市","address":"秋田県秋田市外旭川字三千刈１５７−５","tel":"018-838-7484","url":"https://hoopsii.com/","lat":39.7384665,"lng":140.10033537,"weekday":"10:00-17:30","saturday":"09:30-17:00","sunday":"","holiday":"","closed":"日曜日、祝祭日、８月１３日〜８月１５日、１２月２９日〜１月３日","capacity":10,"id":"0550111017"},{"name":"あおぞらキッズ放課後等デイサービス八橋","nameKana":"あおぞらきっずほうかごとうでいさーびすやばせ","corp":"株式会社　あおぞら","serviceTypes":["放課後等デイサービス"],"ward":"秋田市","address":"秋田県秋田市八橋新川向9番24号","tel":"018-853-0296","url":"https://aozoragroup.jp","lat":39.7284483,"lng":140.10342173,"weekday":"13:00-18:00","saturday":"08:30-18:00","sunday":"","holiday":"08:30-18:00","closed":"お盆、正月","capacity":10,"id":"0550160089"},{"name":"あおぞらキッズ放課後等デイサービス手形","nameKana":"あおぞらきっずほうかごとうでいさーびすてがた","corp":"株式会社　あおぞら","serviceTypes":["放課後等デイサービス"],"ward":"秋田市","address":"秋田県秋田市手形字西谷地１７４番地１","tel":"0188535955","url":"","lat":39.71989187,"lng":140.13383072,"weekday":"13:00-17:30","saturday":"09:00-17:30","sunday":"","holiday":"09:00-17:30","closed":"日曜日","capacity":10,"id":"0550160212"},{"name":"あおぞらキッズ放課後等デイサービス","nameKana":"あおぞらきっずほうかごとうでいさーびす","corp":"株式会社　あおぞら","serviceTypes":["放課後等デイサービス"],"ward":"秋田市","address":"秋田県秋田市広面字板橋添２６−６","tel":"018-874-7251","url":"https://aozoragroup.jp/company/","lat":39.71888674,"lng":140.1441853,"weekday":"13:00-17:30","saturday":"09:00-17:30","sunday":"","holiday":"09:00-17:30","closed":"お盆、正月","capacity":10,"id":"0550111025"},{"name":"放課後等デイサービス　ネクストハピネス","nameKana":"ほうかごとうでいさーびすねくすとはぴねす","corp":"株式会社ないがい","serviceTypes":["放課後等デイサービス"],"ward":"秋田市","address":"秋田県秋田市八橋田五郎二丁目２番２４号","tel":"018-838-1571","url":"","lat":39.72728153,"lng":140.09532244,"weekday":"09:00-13:00","saturday":"","sunday":"","holiday":"","closed":"日曜・祝日・お盆・正月","capacity":10,"id":"0550160030"},{"name":"放課後等デイサービス　ハピネス","nameKana":"ほうかごとうでいさーびすはぴねす","corp":"株式会社ないがい","serviceTypes":["放課後等デイサービス"],"ward":"秋田市","address":"秋田県秋田市八橋イサノ２丁目８−２５HM八橋101","tel":"018-827-3897","url":"http://sahopiya.tendon.bz","lat":39.7199242,"lng":140.1035694,"weekday":"13:00-17:00","saturday":"08:30-16:30","sunday":"","holiday":"","closed":"祝日・日曜日","capacity":10,"id":"0550111058"},{"name":"児童デイサービス　七彩　ぷらす","nameKana":"じどうでいさーびすなないろぷらす","corp":"合同会社　ハーモニー","serviceTypes":["放課後等デイサービス"],"ward":"秋田市","address":"秋田県秋田市金足追分字海老穴２７１番１０号","tel":"018-853-1870","url":"https://nanairo-harmony.com","lat":39.80938008,"lng":140.05711243,"weekday":"13:30-18:30","saturday":"08:30-17:30","sunday":"","holiday":"08:30-17:30","closed":"日曜日、８月13日、12月31日〜1月3日","capacity":10,"id":"0550111231"},{"name":"児童デイサービス　七彩","nameKana":"じどうでいさーびすなないろ","corp":"合同会社　ハーモニー","serviceTypes":["放課後等デイサービス"],"ward":"秋田市","address":"秋田県秋田市土崎港相染町字大谷地６−７","tel":"018-893-6877","url":"https://nanairo-harmony.com","lat":39.7723617,"lng":140.06744447,"weekday":"13:30-18:30","saturday":"08:30-17:30","sunday":"","holiday":"08:30-17:30","closed":"日曜日、８月13日、12月31日〜1月3日","capacity":10,"id":"0550111124"},{"name":"放課後デイサービス太陽","nameKana":"ほうかごでいさーびすたいよう","corp":"株式会社プロフェクト・バランス","serviceTypes":["放課後等デイサービス"],"ward":"秋田市","address":"秋田県秋田市高陽青柳町８番２４号","tel":"018-893-6900","url":"","lat":39.72382109,"lng":140.10463577,"weekday":"14:00-18:00","saturday":"09:00-18:00","sunday":"","holiday":"","closed":"日曜日、祝日","capacity":10,"id":"0550111132"},{"name":"放課後等デイサービス事業所　ここはれ〜心晴〜","nameKana":"ほうかごでいさーびすじぎょうしょここはれ","corp":"合同会社　トゥルース","serviceTypes":["放課後等デイサービス"],"ward":"能代市","address":"秋田県能代市能代町字中川原１３番地１","tel":"0185-74-7671","url":"","lat":40.21215,"lng":140.0266235,"weekday":"09:00-18:00","saturday":"","sunday":"","holiday":"","closed":"土曜日、日曜日、祝日、祭日","capacity":null,"id":"0550200075"},{"name":"サンすまいる・しののめ","nameKana":"さんすまいるしののめ","corp":"社会福祉法人　能代ふくし会","serviceTypes":["放課後等デイサービス"],"ward":"能代市","address":"秋田県能代市真壁地字トトメキ沢389番地１","tel":"0185745356","url":"http://www.noshirofukushikai.com","lat":40.22932408,"lng":140.05789214,"weekday":"09:30-18:00","saturday":"","sunday":"","holiday":"","closed":"土曜日、日曜日、祝日、年末年始","capacity":10,"id":"0550200083"},{"name":"指定障害福祉サービス事業所　ねむの木苑","nameKana":"していしょうがいふくしさーびすじぎょうしょねむのきえん","corp":"社会福祉法人　能代ふくし会","serviceTypes":["放課後等デイサービス"],"ward":"能代市","address":"秋田県能代市落合字古釜谷地26番地","tel":"0185-52-9057","url":"http://www.noshirofukushikai.com","lat":40.23041179,"lng":140.01834006,"weekday":"09:30-18:00","saturday":"10:00-17:00","sunday":"","holiday":"","closed":"土曜日、日曜日、祝日、年末年始","capacity":10,"id":"0550210025"},{"name":"尚生こども園","nameKana":"しょうきこどもえん","corp":"合同会社　尚生","serviceTypes":["放課後等デイサービス"],"ward":"能代市","address":"秋田県能代市鳳凰岱101−1","tel":"0185-74-6101","url":"https://syouki39.co.jp","lat":40.19726017,"lng":140.01512844,"weekday":"12:00-18:00","saturday":"","sunday":"","holiday":"","closed":"土曜、日曜、祝日、８月13日、８月14日、12月29日から１月3日","capacity":10,"id":"0550200042"},{"name":"放課後等デイサービスキッズスポーツ","nameKana":"ほうかごとうでいさーびすきっずすぽーつ","corp":"社会福祉法人　ひらか福祉会","serviceTypes":["放課後等デイサービス"],"ward":"横手市","address":"秋田県横手市婦気大堤字婦気前２６９−１","tel":"0182-23-6576","url":"http://www.flh1.net","lat":39.30213489,"lng":140.5493902,"weekday":"14:30-16:30","saturday":"10:00-16:00","sunday":"","holiday":"10:00-18:00","closed":"日曜日","capacity":10,"id":"0550300081"},{"name":"放課後等デイサービスキッズスポーツFine!","nameKana":"ほうかごとうでいさーびすきっずすぽーつふぁいん","corp":"社会福祉法人　ひらか福祉会","serviceTypes":["放課後等デイサービス"],"ward":"横手市","address":"秋田県横手市婦気大堤字婦気前２７４−１","tel":"0182-23-7577","url":"http://www.flh1.net/","lat":39.3137841,"lng":140.5666479,"weekday":"14:30-19:00","saturday":"","sunday":"","holiday":"09:00-17:00","closed":"土曜日、日曜日","capacity":10,"id":"0550300107"},{"name":"放課後等デイサービス「kibidango3」","nameKana":"ほうかごとうでいさーびすきびだんごすりー","corp":"株式会社kibidango秋田","serviceTypes":["放課後等デイサービス"],"ward":"湯沢市","address":"秋田県湯沢市田町2丁目1番1５号","tel":"0183-56-7392","url":"https://kazushiba0207.wixsite.com/-kibidango3","lat":39.15972091,"lng":140.49186628,"weekday":"","saturday":"","sunday":"","holiday":"","closed":"","capacity":null,"id":"0550700108"},{"name":"nicoすてっぷ","nameKana":"にこすてっぷ","corp":"株式会社オクシュープラス","serviceTypes":["放課後等デイサービス"],"ward":"秋田市","address":"秋田県秋田市土崎港南二丁目１番１９号","tel":"018-826-9050","url":"https://nico-step.com/","lat":39.74452321,"lng":140.0730484,"weekday":"10:00-17:30","saturday":"10:00-16:00","sunday":"","holiday":"","closed":"日、祝祭日、8月13〜15、12月29〜1月3日,第１・第３・第５土曜日","capacity":10,"id":"0550160147"},{"name":"放課後デイGranny秋田","nameKana":"ほうかごでいぐらにーあきた","corp":"株式会社オーリエンス","serviceTypes":["放課後等デイサービス"],"ward":"秋田市","address":"秋田県秋田市仁井田緑町５番８号","tel":"0188274076","url":"","lat":39.68981713,"lng":140.12319991,"weekday":"14:00-17:00","saturday":"10:00-16:00","sunday":"","holiday":"10:00-16:00","closed":"日曜日、年末年始","capacity":7,"id":"0550160188"},{"name":"イオ平鹿","nameKana":"いおひらか","corp":"シャイニングワンスターズ株式会社","serviceTypes":["放課後等デイサービス"],"ward":"横手市","address":"秋田県横手市平鹿町中吉田字竹原８４番地","tel":"0182-23-7492","url":"http://kiyokawanosato.com/","lat":39.26462672,"lng":140.48836076,"weekday":"11:30-18:00","saturday":"","sunday":"","holiday":"10:30-18:00","closed":"土日　12/29〜1/3","capacity":10,"id":"0550300123"},{"name":"イオ平和","nameKana":"いおへいわ","corp":"シャイニングワンスターズ株式会社","serviceTypes":["放課後等デイサービス"],"ward":"横手市","address":"秋田県横手市平和町１１−５","tel":"0182-23-6585","url":"http://kiyokawanosato.com/","lat":39.30732697,"lng":140.57432482,"weekday":"14:30-17:30","saturday":"","sunday":"","holiday":"10:00-17:00","closed":"土曜、日曜、12月29日から1月3日まで","capacity":10,"id":"0550300032"},{"name":"わんぱく広場","nameKana":"わんぱくひろば","corp":"学校法人　大館ホテヤ学園","serviceTypes":["放課後等デイサービス"],"ward":"大館市","address":"秋田県大館市片山町1丁目3番10号","tel":"0186-59-7510","url":"http://www.hoteyagakuen.com/","lat":40.2729622,"lng":140.54841129,"weekday":"09:30-17:30","saturday":"09:30-17:30","sunday":"","holiday":"09:30-17:30","closed":"日曜日、8月13日〜8月15日、12月30日〜1月3日","capacity":10,"id":"0550400055"},{"name":"放課後等デイサービス　くらLabo","nameKana":"ほうかごとうでいさーびすくららぼ","corp":"医療法人石塚医院","serviceTypes":["放課後等デイサービス"],"ward":"大館市","address":"秋田県大館市向町23","tel":"0187578733","url":"","lat":40.26932966,"lng":140.56195459,"weekday":"14:00-17:00","saturday":"10:00-15:00","sunday":"","holiday":"10:00-15:00","closed":"","capacity":10,"id":"0550400105"},{"name":"多機能型事業所のっぽ","nameKana":"たきのうがたじぎょうしょのっぽ","corp":"合同会社ライズ","serviceTypes":["放課後等デイサービス"],"ward":"大館市","address":"秋田県大館市東台一丁目4-29","tel":"0186597665","url":"","lat":40.26810231,"lng":140.57234812,"weekday":"10:00-16:30","saturday":"10:00-15:30","sunday":"","holiday":"10:00-15:30","closed":"日曜日","capacity":5,"id":"0550400113"},{"name":"なかよしとっと","nameKana":"なかよしとっと","corp":"特定非営利活動法人共生センターとっと工房","serviceTypes":["放課後等デイサービス"],"ward":"大館市","address":"秋田県大館市比内町扇田字長岡７０−３","tel":"0186-57-8171","url":"","lat":40.21989747,"lng":140.58199947,"weekday":"13:30-17:00","saturday":"08:30-17:00","sunday":"","holiday":"","closed":"日曜日、祝祭日　8/13〜8/16  12/29〜1/3","capacity":10,"id":"0550410849"},{"name":"放課後等デイサービス　一心堂　２号店","nameKana":"ほうかごとうでいさーびすいっしんどうにごうてん","corp":"有限会社トータルケア一心堂","serviceTypes":["放課後等デイサービス"],"ward":"大館市","address":"秋田県大館市東台2丁目10-9なし","tel":"0186-57-8199","url":"","lat":40.27017714,"lng":140.57532556,"weekday":"13:00-18:00","saturday":"09:00-18:00","sunday":"","holiday":"09:00-18:00","closed":"①日曜日　②夏季：８月13日〜８月16日　③冬季：12月30日〜1月3日","capacity":10,"id":"0550400048"},{"name":"放課後等デイサービス一心堂３号店","nameKana":"ほうかごとうでいさーびすいっしんどうさんごうてん","corp":"有限会社トータルケア一心堂","serviceTypes":["放課後等デイサービス"],"ward":"大館市","address":"秋田県大館市大館市東台2丁目3-38","tel":"0186-59-7725","url":"","lat":40.2714045,"lng":140.5642848,"weekday":"13:00-18:30","saturday":"09:00-18:00","sunday":"","holiday":"09:00-18:00","closed":"①日曜日　②夏季：８月13日〜８月16日　③冬季：12月30日〜1月3日","capacity":10,"id":"0550400097"},{"name":"放課後等デイサービス　一心堂","nameKana":"ほうかごとうでいさーびすいっしんどう","corp":"有限会社トータルケア一心堂","serviceTypes":["放課後等デイサービス"],"ward":"大館市","address":"秋田県大館市東台２丁目１−６０なし","tel":"0186-44-4575","url":"http://www.isshin-do.com/nurs/index.html","lat":40.27012991,"lng":140.5750367,"weekday":"09:30-18:00","saturday":"09:00-18:00","sunday":"","holiday":"09:00-18:00","closed":"①日曜日　②夏季：８月13日〜８月16日　③冬季：12月30日〜1月3日","capacity":10,"id":"0550400022"},{"name":"放課後等デイサービスふぁみーゆ","nameKana":"ほうかごとうでいさーびすふぁみーゆ","corp":"株式会社　乳井石油商会","serviceTypes":["放課後等デイサービス"],"ward":"大館市","address":"秋田県大館市代野２３３番地１４　","tel":"0186-99-0107","url":"http://kp-odate.com/","lat":40.28791658,"lng":140.57089732,"weekday":"10:00-17:30","saturday":"10:00-16:30","sunday":"","holiday":"10:00-16:30","closed":"日曜日、 8月13日〜15日、  12月29日〜1月3日","capacity":10,"id":"0550400030"},{"name":"ビスコーサ","nameKana":"びすこーさ","corp":"特定非営利活動法人サポートセンター・ビーイング","serviceTypes":["放課後等デイサービス"],"ward":"湯沢市","address":"秋田県湯沢市小野字東水口205番地2","tel":"0183-56-7310","url":"https://being-aoihana.org/","lat":39.08009819,"lng":140.46639436,"weekday":"09:30-17:30","saturday":"09:30-17:30","sunday":"","holiday":"","closed":"土,日,祭日,8月13,14,15日,12月29,30,31日,1月1,2,3日","capacity":10,"id":"0550700058"},{"name":"通所支援事業所　なないろ","nameKana":"つうしょしえんじぎょうしょなないろ","corp":"社会福祉法人　湯沢市社会福祉協議会","serviceTypes":["放課後等デイサービス"],"ward":"湯沢市","address":"秋田県湯沢市古館町４番１０号通所支援事業所　なないろ","tel":"0183-56-7716","url":"https://www.yushakyo.or.jp","lat":39.17131127,"lng":140.48897736,"weekday":"07:30-18:30","saturday":"00:00-00:00","sunday":"00:00-00:00","holiday":"00:00-00:00","closed":"土、日、祝祭日、12月29日〜1月3日","capacity":10,"id":"0550700082"},{"name":"放課後等デイサービス　さくらんぼ","nameKana":"ほうかごとうでいさーびすさくらんぼ","corp":"特定非営利活動法人　湯雄福祉会","serviceTypes":["放課後等デイサービス"],"ward":"湯沢市","address":"秋田県湯沢市愛宕町2丁目２番４２号グリーンハイツ","tel":"0183558980","url":"","lat":39.15066636,"lng":140.4910471,"weekday":"","saturday":"","sunday":"","holiday":"","closed":"","capacity":null,"id":"0550700116"},{"name":"放課後等デイサービスぷらむ","nameKana":"ほうかごとうでいさーびすぷらむ","corp":"特定非営利活動法人　湯雄福祉会","serviceTypes":["放課後等デイサービス"],"ward":"雄勝郡羽後町","address":"秋田県雄勝郡羽後町南西馬音内１６８番地１号","tel":"0183567815","url":"","lat":39.1955255,"lng":140.40871491,"weekday":"","saturday":"","sunday":"","holiday":"","closed":"","capacity":null,"id":"0552800021"},{"name":"複合施設　ぱあとなあ","nameKana":"ふくごうしせつぱあとなあ","corp":"社会福祉法人　雄勝なごみ会","serviceTypes":["放課後等デイサービス"],"ward":"湯沢市","address":"秋田県湯沢市両神15番地1","tel":"0183-72-8107","url":"https://ogachi-nagomi.net/","lat":39.16969177,"lng":140.48078906,"weekday":"","saturday":"","sunday":"","holiday":"","closed":"","capacity":null,"id":"0550700066"},{"name":"多機能型事業所　かざぐるま","nameKana":"たきのうがたじぎょうしょかざぐるま","corp":"社会福祉法人　雄勝なごみ会","serviceTypes":["放課後等デイサービス"],"ward":"湯沢市","address":"秋田県湯沢市字両神１７番地１","tel":"0183-72-1616","url":"http://www.ogachi-nagomi.net/","lat":39.17025283,"lng":140.48081128,"weekday":"08:30-18:00","saturday":"08:30-18:00","sunday":"","holiday":"","closed":"国民の祝日に関する法律に規定する休日、1月2日〜3日、12月29日〜31日","capacity":10,"id":"0550700017"},{"name":"放課後等デイサービスぱすてる","nameKana":"ほうかごとうでいさーびすぱすてる","corp":"社会福祉法人　花輪ふくし会","serviceTypes":["放課後等デイサービス"],"ward":"大館市","address":"秋田県大館市泉町５番５号多機能型事業所ぱすてる","tel":"0186-59-4580","url":"http://a-hanawafukushikai.jp/","lat":40.26513844,"lng":140.55988829,"weekday":"19:00-18:00","saturday":"09:00-16:00","sunday":"09:00-16:00","holiday":"09:00-16:00","closed":"土日祝日","capacity":7,"id":"0550400089"},{"name":"障害児通所支援多機能型事業所「とぅいんくる」","nameKana":"しょうがいじつうしょしえんたきのうがたじぎょうしょとぅいんくる","corp":"社会福祉法人　花輪ふくし会","serviceTypes":["放課後等デイサービス"],"ward":"鹿角市","address":"秋田県鹿角市花輪字上花輪１３９−１児童通所事業所　とぅいんくる","tel":"0186-22-4083","url":"http://a-hanawafukushikai.jp/","lat":40.18716402,"lng":140.78886163,"weekday":"09:00-18:00","saturday":"09:00-18:00","sunday":"09:00-18:00","holiday":"09:00-18:00","closed":"日曜日","capacity":15,"id":"0550910418"},{"name":"はなえみ学舎","nameKana":"はなえみがくしゃ","corp":"あきた企画合同会社","serviceTypes":["放課後等デイサービス"],"ward":"由利本荘市","address":"秋田県由利本荘市八幡下１５９番地生駒ビル２階","tel":"090-1064-0684","url":"https://akitahanaemi.wixsite.com/mysite","lat":39.39207361,"lng":140.05334978,"weekday":"07:00-19:00","saturday":"07:00-19:00","sunday":"","holiday":"","closed":"日曜日、祝日","capacity":10,"id":"0550500052"},{"name":"はなえみ学舎さくらキャンパス","nameKana":"はなえみがくしゃさくらきゃんぱす","corp":"あきた企画合同会社","serviceTypes":["放課後等デイサービス"],"ward":"由利本荘市","address":"秋田県由利本荘市八幡下１５８番地１","tel":"090-1064-0684","url":"https://akitahanaemi.wixsite.com/mysite","lat":39.39198751,"lng":140.05316371,"weekday":"","saturday":"","sunday":"","holiday":"","closed":"","capacity":null,"id":"0550500078"},{"name":"はなえみ学舎　みくらまちキャンパス","nameKana":"はなえみがくしゃみくらまちきゃんぱす","corp":"あきた企画合同会社","serviceTypes":["放課後等デイサービス"],"ward":"由利本荘市","address":"秋田県由利本荘市美倉町４４−２　ハイネスビル２階","tel":"08034391568","url":"","lat":39.38997392,"lng":140.0517698,"weekday":"10:00-18:45","saturday":"08:30-16:45","sunday":"","holiday":"","closed":"日曜、祝日","capacity":10,"id":"0550500086"},{"name":"はなえみ学舎あみこ","nameKana":"はなえみがくしゃあみこ","corp":"あきた企画合同会社","serviceTypes":["放課後等デイサービス"],"ward":"由利本荘市","address":"秋田県由利本荘市岩渕下７１−１中央線富士ビル２階","tel":"090-1064-0684","url":"https://www.akitahanaemi.com","lat":39.39210976,"lng":140.05137791,"weekday":"14:00-17:00","saturday":"09:00-15:00","sunday":"","holiday":"","closed":"日曜日、祝日","capacity":10,"id":"0550500102"},{"name":"チャイルドステーションゆうゆう","nameKana":"ちゃいるどすてーしょんゆうゆう","corp":"特定非営利活動法人　男鹿潟上南秋教育会館","serviceTypes":["放課後等デイサービス"],"ward":"潟上市","address":"秋田県潟上市飯田川飯塚字深田16","tel":"0188277560","url":"https://childstationyuyu.sakura.ne.jp/","lat":39.89791443,"lng":140.0805301,"weekday":"13:30-17:30","saturday":"10:00-16:30","sunday":"","holiday":"","closed":"日曜日、祝日、1月1~3日、8月13~15日","capacity":10,"id":"0551000037"},{"name":"まじっくハウス","nameKana":"まじっくはうす","corp":"株式会社　Ｋ＆Ｋ","serviceTypes":["放課後等デイサービス"],"ward":"潟上市","address":"秋田県潟上市天王字追分西５３−２６","tel":"018-853-1576","url":"","lat":39.82047213,"lng":140.0372381,"weekday":"13:30-17:30","saturday":"10:00-17:00","sunday":"","holiday":"10:00-17:00","closed":"日曜日・お盆・年末年始・ＧＷ","capacity":10,"id":"0551000011"},{"name":"放課後等デイサービス　ふぁみりぃ","nameKana":"ほうかごとうでいさーびすふあみりい","corp":"有限会社　ふぁみりぃ","serviceTypes":["放課後等デイサービス"],"ward":"大仙市","address":"秋田県大仙市四ツ屋字上古道７９番地放課後等デイサービスふぁみりぃ","tel":"0187-88-8616","url":"http://www.family-g.jp/index.html","lat":39.49719948,"lng":140.50134793,"weekday":"09:00-17:30","saturday":"09:00-17:30","sunday":"","holiday":"","closed":"日曜日、祝日、８月13日，8月第最終土曜日、12月29日〜1月3日","capacity":10,"id":"0550800023"},{"name":"北秋田市障がい児・者地域生活支援拠点「あいライン」指定放課後等デイサービス事業所","nameKana":"きたあきたししょうがいじしゃちいきせいかつしえんきょてんあいらいんしていほうかごとうでいさーびすじぎょうしょ","corp":"社会福祉法人　秋田県民生協会","serviceTypes":["放課後等デイサービス"],"ward":"北秋田市","address":"秋田県北秋田市新田目字大野８２番地２無し","tel":"0186-67-6607","url":"https://aki-minsei.jp/","lat":40.15934721,"lng":140.32807857,"weekday":"13:30-15:30","saturday":"","sunday":"","holiday":"","closed":"土日、祝日","capacity":10,"id":"0551100043"},{"name":"放課後デイたんぽぽ","nameKana":"ほうかごでいたんぽぽ","corp":"有限会社たんぽぽ","serviceTypes":["放課後等デイサービス"],"ward":"仙北市","address":"秋田県仙北市角館町勝楽133-1","tel":"0187-49-7052","url":"","lat":39.58659416,"lng":140.56524353,"weekday":"09:00-17:00","saturday":"09:00-17:00","sunday":"","holiday":"09:00-17:00","closed":"日曜日　他（臨時休業日あり）","capacity":10,"id":"0551200017"},{"name":"放課後等デイサービス事業所　あるく","nameKana":"ほうかごとうでいさーびすじぎょうしょあるく","corp":"株式会社　アルク","serviceTypes":["放課後等デイサービス"],"ward":"仙北市","address":"秋田県仙北市角館町田町上丁69-1角館児童館内","tel":"08052985750","url":"http://alk-sakura.co.jp/aruku-top.html","lat":39.5916296,"lng":140.56699591,"weekday":"12:00-17:30","saturday":"09:00-17:00","sunday":"","holiday":"09:00-17:00","closed":"日曜日　8/13〜16　12/28〜1/3 他（臨時休業日あり）","capacity":10,"id":"0550800056"},{"name":"さわやか愛の家　さくら館","nameKana":"さわやかあいのいえさくらかん","corp":"株式会社　さわやか倶楽部","serviceTypes":["放課後等デイサービス"],"ward":"秋田市","address":"秋田県秋田市御所野堤台1丁目6番88号","tel":"018-892-6636","url":"https://sawayakaclub.jp/ainoie-sakura","lat":39.66844616,"lng":140.16735489,"weekday":"14:30-17:30","saturday":"10:30-15:30","sunday":"","holiday":"10:30-15:30","closed":"日曜日,年末年始（12/31〜1/3）、お盆（8/13〜15）、GW","capacity":10,"id":"0550111173"}]