[{"name":"コペルプラス館林教室","nameKana":"こぺるぷらすたてばやしきょうしつ","corp":"合同会社ジュイール","serviceTypes":["児童発達支援"],"ward":"館林市","address":"群馬県館林市堀工町1900-133アークノダ2階","tel":"0276-55-2711","url":"","lat":36.22501374,"lng":139.52230835,"weekday":"","saturday":"","sunday":"","holiday":"","closed":"","capacity":null,"id":"1050700333"},{"name":"こどもサークル駒形つなぐ園","nameKana":"こどもさーくるこまがたつなぐえん","corp":"株式会社サシノベルテ","serviceTypes":["児童発達支援"],"ward":"前橋市","address":"群馬県前橋市駒形町１３８０番地１１","tel":"027-266-2600","url":"http://sashinoberute.co.jp/","lat":36.34561019,"lng":139.14422427,"weekday":"09:00-17:00","saturday":"09:00-17:00","sunday":"","holiday":"09:00-17:00","closed":"日曜日、年末年始（12月31日〜1月3日）","capacity":28,"id":"1050100963"},{"name":"こどもサークル大友","nameKana":"こどもさーくるおおども","corp":"株式会社サシノベルテ","serviceTypes":["児童発達支援","放課後等デイサービス"],"ward":"前橋市","address":"群馬県前橋市大友町三丁目１番地１２","tel":"027-251-1000","url":"http://sashinoberute.co.jp/","lat":36.3877947,"lng":139.0451183,"weekday":"09:30-17:30","saturday":"09:00-15:00","sunday":"","holiday":"09:00-15:00","closed":"日曜日、年末年始（12月31日〜1月3日）","capacity":10,"id":"1050101003"},{"name":"こどもサークル大胡","nameKana":"こどもさーくるおおご","corp":"株式会社サシノベルテ","serviceTypes":["児童発達支援"],"ward":"前橋市","address":"群馬県前橋市堀越町３５２−６","tel":"027-283-4500","url":"http://sashinoberute.co.jp/","lat":36.41145282,"lng":139.14723611,"weekday":"11:30-17:30","saturday":"09:00-15:00","sunday":"","holiday":"09:00-15:00","closed":"日曜日、年末年始（12月31日〜1月3日）","capacity":10,"id":"1050101029"},{"name":"こどもサークル住吉","nameKana":"こどもさーくるすみよし","corp":"株式会社サシノベルテ","serviceTypes":["児童発達支援"],"ward":"前橋市","address":"群馬県前橋市住吉町二丁目１０番２１号","tel":"027-260-6600","url":"http://sashinoberute.co.jp/","lat":36.39711089,"lng":139.07051556,"weekday":"09:00-15:00","saturday":"09:00-15:00","sunday":"","holiday":"09:00-15:00","closed":"日曜日、年末年始（12月31日〜1月3日）","capacity":10,"id":"1050101037"},{"name":"こどもサークル上小出","nameKana":"こどもさーくるかみこいで","corp":"株式会社サシノベルテ","serviceTypes":["児童発達支援"],"ward":"前橋市","address":"群馬県前橋市上小出町２−２７−７","tel":"027-234-2300","url":"https://www.kodomocircle.com/branch/kamikoide/","lat":36.41594129,"lng":139.05885482,"weekday":"10:00-17:00","saturday":"10:00-16:00","sunday":"","holiday":"10:00-16:00","closed":"日曜日、年末年始（12月31日〜1月3日）","capacity":10,"id":"1050101052"},{"name":"こどもサークル荒牧","nameKana":"こどもさーくるあらまき","corp":"株式会社サシノベルテ","serviceTypes":["児童発達支援"],"ward":"前橋市","address":"群馬県前橋市荒牧町１丁目４４番地８","tel":"027-232-3600","url":"","lat":36.4291585,"lng":139.05489601,"weekday":"10:00-18:00","saturday":"10:00-18:00","sunday":"10:00-18:00","holiday":"10:00-18:00","closed":"火曜日、年末年始（12/31〜1/3）","capacity":10,"id":"1050101102"},{"name":"こどもサークル蒼海城前","nameKana":"こどもさーくるおうみじょうまえ","corp":"株式会社サシノベルテ","serviceTypes":["児童発達支援"],"ward":"前橋市","address":"群馬県前橋市元総社町2269番1","tel":"027-210-5600","url":"https://www.kodomocircle.com/branch/omijomae/","lat":36.38787777,"lng":139.03338605,"weekday":"10:00-18:00","saturday":"10:00-18:00","sunday":"10:00-18:00","holiday":"10:00-18:00","closed":"火曜日、年末年始（12/31~1/3）","capacity":10,"id":"1050101136"},{"name":"こどもサークル大渡町","nameKana":"こどもさーくるおおわたりまち","corp":"株式会社サシノベルテ","serviceTypes":["児童発達支援","放課後等デイサービス"],"ward":"前橋市","address":"群馬県前橋市一丁目7番地５","tel":"027-252-3300","url":"","lat":36.41040522,"lng":139.025847,"weekday":"","saturday":"","sunday":"","holiday":"","closed":"","capacity":null,"id":"1050101243"},{"name":"こぱんはうすさくら　広沢教室","nameKana":"こぱんはうすさくらひろさわきょうしつ","corp":"株式会社ヒューマンハート","serviceTypes":["児童発達支援"],"ward":"桐生市","address":"群馬県桐生市広沢町2丁目2998番地1","tel":"0277-32-5206","url":"","lat":36.39384696,"lng":139.32155252,"weekday":"","saturday":"","sunday":"","holiday":"","closed":"","capacity":null,"id":"1050300274"},{"name":"ぽかぽか広場太田","nameKana":"ぽかぽかひろばおおた","corp":"株式会社iSC","serviceTypes":["児童発達支援","放課後等デイサービス"],"ward":"太田市","address":"群馬県太田市浜町63-7","tel":"0276-56-9527","url":"","lat":36.29003827,"lng":139.36356291,"weekday":"","saturday":"","sunday":"","holiday":"","closed":"","capacity":null,"id":"1050500451"},{"name":"ぽかぽか広場太田第2","nameKana":"ぽかぽかひろばおおただいに","corp":"株式会社iSC","serviceTypes":["児童発達支援","放課後等デイサービス"],"ward":"太田市","address":"群馬県太田市大島町342-4","tel":"0276-52-8335","url":"","lat":36.30357014,"lng":139.36372947,"weekday":"","saturday":"","sunday":"","holiday":"","closed":"","capacity":null,"id":"1050500550"},{"name":"ぽかぽか広場館林","nameKana":"ぽかぽかひろばたてばやし","corp":"株式会社iSC","serviceTypes":["児童発達支援","放課後等デイサービス"],"ward":"館林市","address":"群馬県館林市西高根町513-2","tel":"0276-49-6201","url":"","lat":36.25805073,"lng":139.51472218,"weekday":"","saturday":"","sunday":"","holiday":"","closed":"","capacity":null,"id":"1050700259"},{"name":"ぽかぽか広場太田第３","nameKana":"ぽかぽかひろばおおただいさん","corp":"株式会社iSC","serviceTypes":["児童発達支援","放課後等デイサービス"],"ward":"太田市","address":"群馬県太田市小舞木町629","tel":"0276-50-1981","url":"","lat":36.28477535,"lng":139.38617788,"weekday":"","saturday":"","sunday":"","holiday":"","closed":"","capacity":null,"id":"1050500725"},{"name":"きらめき太田","nameKana":"きらめきおおた","corp":"株式会社シャインハーツ","serviceTypes":["児童発達支援"],"ward":"太田市","address":"群馬県太田市矢場新町127-2","tel":"0284-44-3399","url":"","lat":36.31098665,"lng":139.41716086,"weekday":"10:00-17:00","saturday":"","sunday":"","holiday":"","closed":"土、日、祝日他事業所の定める休日","capacity":10,"id":"1050500584"},{"name":"Cocoスマイル","nameKana":"ここすまいる","corp":"株式会社KTSカンパニー","serviceTypes":["児童発達支援","放課後等デイサービス"],"ward":"館林市","address":"群馬県館林市瀬戸谷町瀬戸谷2286-3","tel":"0276-57-8857","url":"https://kp-tatebayashi.com/","lat":36.25283314,"lng":139.54181205,"weekday":"11:00-17:00","saturday":"","sunday":"","holiday":"10:00-16:00","closed":"土曜日/日曜日","capacity":10,"id":"1050700176"},{"name":"Kidsプラス","nameKana":"きっずぷらす","corp":"株式会社KTSカンパニー","serviceTypes":["児童発達支援","放課後等デイサービス"],"ward":"館林市","address":"群馬県館林市堀工町1075番地","tel":"0276-56-4948","url":"","lat":36.22576987,"lng":139.53528483,"weekday":"","saturday":"","sunday":"","holiday":"","closed":"","capacity":null,"id":"1050700184"},{"name":"放課後クラブAI館林広内校","nameKana":"ほうかごくらぶえいあいたてばやしひろうちこう","corp":"株式会社AIコーポレーション","serviceTypes":["児童発達支援","放課後等デイサービス"],"ward":"館林市","address":"群馬県館林市広内町1-11階","tel":"0276-50-1310","url":"http://houkago-club-ai.net","lat":36.25741001,"lng":139.53677062,"weekday":"12:00-18:00","saturday":"10:00-17:00","sunday":"","holiday":"10:00-17:00","closed":"日曜日","capacity":10,"id":"1050700317"},{"name":"ディグ・スマイル・高崎東教室","nameKana":"でぃぐすまいるたかさきひがしきょうしつ","corp":"株式会社ハピネスカムズ","serviceTypes":["児童発達支援","放課後等デイサービス"],"ward":"高崎市","address":"群馬県高崎市飯玉町36-2","tel":"027-386-9470","url":"","lat":36.33768091,"lng":139.01456647,"weekday":"14:30-17:30","saturday":"10:00-16:00","sunday":"","holiday":"10:00-16:00","closed":"12/31〜1/3並びにお盆期間","capacity":10,"id":"1050201118"},{"name":"ディグ・スマイル・高崎南教室","nameKana":"でぃぐすまいるたかさきみなみきょうしつ","corp":"株式会社ハピネスカムズ","serviceTypes":["児童発達支援","放課後等デイサービス"],"ward":"高崎市","address":"群馬県高崎市城山町2-2-7","tel":"027-388-8571","url":"","lat":36.28812691,"lng":139.01332967,"weekday":"14:30-17:30","saturday":"10:00-16:00","sunday":"","holiday":"10:00-16:00","closed":"12/31~1/3並びにお盆期間","capacity":10,"id":"1050201159"},{"name":"ジーニアスユニバーサルメソッド・キッズ","nameKana":"じーにあすゆにばーさるめそっどきっず","corp":"株式会社オリエンタルジャパンHD","serviceTypes":["児童発達支援","放課後等デイサービス"],"ward":"高崎市","address":"群馬県高崎市吉井町吉井101−1","tel":"0273863506","url":"","lat":36.24556778,"lng":138.98022091,"weekday":"09:00-17:00","saturday":"","sunday":"","holiday":"10:00-17:00","closed":"土曜日、日曜日","capacity":null,"id":"1050201415"},{"name":"ジーニアスユニバーサルメソッドみなみ","nameKana":"じーにあすゆにばーさるめそっどみなみ","corp":"株式会社オリエンタルジャパンHD","serviceTypes":["児童発達支援","放課後等デイサービス"],"ward":"高崎市","address":"群馬県高崎市倉賀野町4541-3","tel":"027-386-6575","url":"","lat":36.30231847,"lng":139.0475202,"weekday":"","saturday":"","sunday":"","holiday":"","closed":"","capacity":null,"id":"1050201506"},{"name":"児童発達支援ふくろう","nameKana":"じどうはったつしえんふくろう","corp":"合同会社toi toi toi","serviceTypes":["児童発達支援"],"ward":"前橋市","address":"群馬県前橋市山王町二丁目１０番地１２","tel":"027-212-7680","url":"","lat":36.35208455,"lng":139.12560696,"weekday":"","saturday":"","sunday":"","holiday":"","closed":"","capacity":null,"id":"1050101268"},{"name":"こぱんはうすさくら前橋総社教室","nameKana":"こぱんはうすさくらまえばしそうじゃきょうしつ","corp":"合同会社テン・エイティ","serviceTypes":["児童発達支援","放課後等デイサービス"],"ward":"前橋市","address":"群馬県前橋市総社町総社1100番地１","tel":"027-289-8936","url":"","lat":36.40611453,"lng":139.04324559,"weekday":"09:30-16:00","saturday":"00:00-00:00","sunday":"00:00-00:00","holiday":"09:30-16:00","closed":"12/31〜1/3および事業所が定める日","capacity":10,"id":"1050101318"},{"name":"Keiki program","nameKana":"けいきぷろぐらむ","corp":"合同会社Auspicious","serviceTypes":["児童発達支援","放課後等デイサービス"],"ward":"前橋市","address":"群馬県前橋市広瀬町二丁目24番地2-351号2070003005640","tel":"027-226-5858","url":"","lat":36.36057177,"lng":139.10873995,"weekday":"10:00-17:00","saturday":"","sunday":"","holiday":"","closed":"土日","capacity":10,"id":"1050101300"},{"name":"児童発達支援事業所chouchou(シュシュ)宮子","nameKana":"じどうはったつしえんじぎょうしょしゅしゅみやこ","corp":"株式会社ワンライフ","serviceTypes":["児童発達支援"],"ward":"伊勢崎市","address":"群馬県伊勢崎市宮子町3522-11","tel":"080-7002-3071","url":"","lat":36.33435247,"lng":139.15075455,"weekday":"","saturday":"","sunday":"","holiday":"","closed":"","capacity":null,"id":"1050400587"},{"name":"児童発達支援事業所chouchou(シュシュ)吉岡","nameKana":"じどうはったつしえんじぎょうしょしゅしゅよしおか","corp":"株式会社ワンライフ","serviceTypes":["児童発達支援"],"ward":"北群馬郡吉岡町","address":"群馬県北群馬郡吉岡町大字下野田字森下964-1","tel":"080-5189-5161","url":"https://onelife-inc.com/facility/chouchou-yoshioka/","lat":36.4472776,"lng":139.0097518,"weekday":"09:00-15:00","saturday":"","sunday":"","holiday":"","closed":"土日祝","capacity":10,"id":"1052200100"},{"name":"児童発達支援事業所　ｃｈｏｕｃｈｏｕ（シュシュ）","nameKana":"じどうはったつしえんじぎょうしょしゅしゅ","corp":"株式会社ワンライフ","serviceTypes":["児童発達支援"],"ward":"伊勢崎市","address":"群馬県伊勢崎市小泉町３５３−５","tel":"080-9435-2519","url":"","lat":36.3357735,"lng":139.25633743,"weekday":"09:00-15:00","saturday":"","sunday":"","holiday":"","closed":"土曜日・日曜日・国民の祝日","capacity":10,"id":"1050400256"},{"name":"児童発達支援事業所ｃｈｏｕｃｈｏｕ（シュシュ）太田","nameKana":"じどうはったつしえんじぎょうしょしゅしゅおおた","corp":"株式会社ワンライフ","serviceTypes":["児童発達支援"],"ward":"太田市","address":"群馬県太田市内ヶ島町３７６−１","tel":"080-9435-2770","url":"https://onelife-inc.com/","lat":36.27829566,"lng":139.39626061,"weekday":"09:00-15:00","saturday":"","sunday":"","holiday":"","closed":"土曜日、日曜日、祝日","capacity":10,"id":"1050500287"},{"name":"児童発達支援ながのはら　一会","nameKana":"じどうはったつしえんながのはらいちえ","corp":"株式会社ゆう地域支援事業團","serviceTypes":["児童発達支援"],"ward":"吾妻郡長野原町","address":"群馬県吾妻郡長野原町長野原1067-2","tel":"0279-82-1396","url":"","lat":36.54812655,"lng":138.65377553,"weekday":"09:00-15:00","saturday":"","sunday":"","holiday":"09:00-15:00","closed":"土曜日・日曜日・12月29日〜1月3日　","capacity":10,"id":"1052600093"},{"name":"児童発達支援事業所　chouchou前橋","nameKana":"じどうはったつしえんじぎょうしょしゅしゅまえばし","corp":"株式会社ワンライフ","serviceTypes":["児童発達支援"],"ward":"前橋市","address":"群馬県前橋市南町二丁目32番地14","tel":"070-1476-8539","url":"https://onelife-inc.com/facility/chouchou-maebashi/","lat":36.37647462,"lng":139.06420021,"weekday":"09:00-15:00","saturday":"00:00-00:00","sunday":"00:00-00:00","holiday":"00:00-00:00","closed":"土曜日、日曜日、国民の祝日、お盆期間、年末年始","capacity":10,"id":"1050101227"},{"name":"たんぽぽ学園","nameKana":"たんぽぽがくえん","corp":"社会福祉法人前橋あそか会","serviceTypes":["児童発達支援"],"ward":"前橋市","address":"群馬県前橋市江木町１２５１番３","tel":"027-269-3620","url":"http://m-asokakai.jp/","lat":36.40251756,"lng":139.13423254,"weekday":"09:30-15:30","saturday":"","sunday":"","holiday":"","closed":"土・日曜日、国民の祝日及び年末年始、その他の休園（夏季休園、夏季休園）を除く","capacity":40,"id":"1050100021"},{"name":"わくわくランドたんぽぽ","nameKana":"わくわくらんどたんぽぽ","corp":"社会福祉法人前橋あそか会","serviceTypes":["児童発達支援"],"ward":"前橋市","address":"群馬県前橋市日吉町２−１７−１０前橋市総合福祉会館","tel":"027-235-0320","url":"http://m-asokakai.jp/","lat":36.39831368,"lng":139.07962847,"weekday":"09:00-15:00","saturday":"","sunday":"","holiday":"","closed":"土曜・日曜・国民の祝日・8/13〜15・12/29〜1/3・3/28〜31","capacity":10,"id":"1050100054"},{"name":"Kid’s Club","nameKana":"きっずくらぶ","corp":"社会福祉法人すてっぷ","serviceTypes":["児童発達支援","放課後等デイサービス"],"ward":"前橋市","address":"群馬県前橋市東上野町１３６−２","tel":"027-289-6162","url":"https://s-step.com","lat":36.38265023,"lng":139.12803356,"weekday":"09:00-14:00","saturday":"","sunday":"","holiday":"","closed":"","capacity":10,"id":"1050100039"},{"name":"チャイルドハウスゆうゆう","nameKana":"ちゃいるどはうすゆうゆう","corp":"特定非営利活動法人ゆうゆう","serviceTypes":["児童発達支援"],"ward":"前橋市","address":"群馬県前橋市ぬで島町６２−１","tel":"027-265-2601","url":"http://www5f.biglobe.ne.jp/~child_yu-yu-/","lat":36.36010471,"lng":139.07726909,"weekday":"08:45-15:00","saturday":"","sunday":"","holiday":"","closed":"土曜日・日曜日・祝祭日。","capacity":10,"id":"1050100062"},{"name":"桑の木","nameKana":"くわのき","corp":"社会福祉法人一越会","serviceTypes":["児童発達支援"],"ward":"前橋市","address":"群馬県前橋市城東町３−１２−６","tel":"027-260-6888","url":"http://www.hitokoshi.org","lat":36.39173678,"lng":139.07751223,"weekday":"09:00-15:00","saturday":"","sunday":"","holiday":"","closed":"土・日曜日・国民の祝日及び年末年始(12/29-1/3)その他の休日があります","capacity":10,"id":"1050100070"},{"name":"ぽぽろ","nameKana":"ぽぽろ","corp":"社会福祉法人しののめ会","serviceTypes":["児童発達支援"],"ward":"前橋市","address":"群馬県前橋市江木町５２１番地","tel":"027-268-3423","url":"http://www.mmjp.or.jp/shinonome/","lat":36.38837477,"lng":139.13920395,"weekday":"09:00-15:00","saturday":"09:00-15:00","sunday":"","holiday":"","closed":"日曜日・土曜日　(年8回を除く)　国民の祝日","capacity":10,"id":"1050100088"},{"name":"ぽぽろ石倉","nameKana":"ぽぽろいしくら","corp":"社会福祉法人しののめ会","serviceTypes":["児童発達支援"],"ward":"前橋市","address":"群馬県前橋市石倉町２−１１−３","tel":"027-251-5657","url":"http://www.mmjp.or.jp/shinonome/","lat":36.38513707,"lng":139.05607292,"weekday":"09:00-15:00","saturday":"09:00-15:00","sunday":"","holiday":"","closed":"年8回を除く土曜日、日曜日、祝日。12月30日〜1月3日","capacity":10,"id":"1050100443"},{"name":"児童発達支援一期","nameKana":"じどうはったつしえんいちご","corp":"株式会社ゆう地域支援事業團","serviceTypes":["児童発達支援"],"ward":"前橋市","address":"群馬県前橋市粕川町西田面７４−１０","tel":"027-212-3987","url":"","lat":36.41355122,"lng":139.21177063,"weekday":"09:00-15:00","saturday":"","sunday":"","holiday":"09:00-15:00","closed":"土曜日、日曜日、12月29日〜1月3日","capacity":10,"id":"1050100146"},{"name":"聴覚障害児児童クラブきらきら","nameKana":"ちょうかくしょうがいじじどうくらぶきらきら","corp":"NPO法人きらきら","serviceTypes":["児童発達支援"],"ward":"前橋市","address":"群馬県前橋市六供町一丁目18番地5-102","tel":"0272266266","url":"https://deafgunma-kira.com/","lat":36.38948394,"lng":139.06342762,"weekday":"14:00-18:00","saturday":"09:00-16:00","sunday":"","holiday":"","closed":"日曜日、祝日、第1・3・5土曜日、学校長期休業中の土曜日","capacity":10,"id":"1050100476"},{"name":"児童発達支援・放課後等デイサービス桜","nameKana":"じどうはったつしえんほうかごとうでいさーびすさくら","corp":"特定非営利活動法人彩","serviceTypes":["児童発達支援","放課後等デイサービス"],"ward":"前橋市","address":"群馬県前橋市敷島町２４０−３２","tel":"027-257-8924","url":"","lat":36.41609098,"lng":139.04727528,"weekday":"10:00-14:00","saturday":"10:00-14:00","sunday":"","holiday":"","closed":"日曜日・祝日・８／１３〜１５・１２／２９〜１／３","capacity":10,"id":"1050100633"},{"name":"つくしキッズ","nameKana":"つくしきっず","corp":"社会福祉法人あかぎの響","serviceTypes":["児童発達支援"],"ward":"前橋市","address":"群馬県前橋市富士見町田島704","tel":"0272880561","url":"","lat":36.46048032,"lng":139.07487631,"weekday":"08:30-16:00","saturday":"","sunday":"","holiday":"","closed":"土、日、祝","capacity":10,"id":"1050101169"},{"name":"aile 児童発達支援 エル駒形","nameKana":"えるじどうはったつしえんえるこまがた","corp":"株式会社クオラ","serviceTypes":["児童発達支援"],"ward":"前橋市","address":"群馬県前橋市駒形町６８２番地１","tel":"0272892865","url":"","lat":36.34279928,"lng":139.14250796,"weekday":"09:30-16:00","saturday":"","sunday":"","holiday":"","closed":"土日祝日","capacity":10,"id":"1050101276"},{"name":"あずいずきっず朝倉","nameKana":"あずいずきっずあさくら","corp":"株式会社さぼてんきっず","serviceTypes":["児童発達支援"],"ward":"前橋市","address":"群馬県前橋市朝倉町１５４番地４","tel":"027-225-2284","url":"http://www.sabotenkids.com","lat":36.36585684,"lng":139.09495035,"weekday":"09:30-15:30","saturday":"","sunday":"","holiday":"09:30-15:30","closed":"土曜日、日曜日、８月１３日〜１５日、12月２９日〜１月３日","capacity":10,"id":"1050100997"},{"name":"共生型児童発達支援あおい","nameKana":"きょうせいがたじどうはったつしえんあおい","corp":"有限会社やまと","serviceTypes":["児童発達支援"],"ward":"前橋市","address":"群馬県前橋市江木町７６","tel":"027-289-8040","url":"http://yamato-care.co.jp","lat":36.38831909,"lng":139.13156627,"weekday":"","saturday":"","sunday":"","holiday":"","closed":"","capacity":null,"id":"1050100914"},{"name":"ディグ・スマイル・前橋東教室","nameKana":"でぃぐすまいるまえばしひがしきょうしつ","corp":"株式会社ハピネスカムズ","serviceTypes":["児童発達支援","放課後等デイサービス"],"ward":"前橋市","address":"群馬県前橋市駒形町442番地5","tel":"027-212-9741","url":"","lat":36.33939952,"lng":139.14018341,"weekday":"14:30-17:30","saturday":"10:00-16:00","sunday":"","holiday":"10:00-16:00","closed":"日曜日、年末年始","capacity":10,"id":"1050100898"},{"name":"ディグ・スマイル・前橋西教室","nameKana":"でぃぐすまいるまえばしにしきょうしつ","corp":"株式会社ハピネスカムズ","serviceTypes":["児童発達支援","放課後等デイサービス"],"ward":"前橋市","address":"群馬県前橋市箱田町357番地8","tel":"027-212-7931","url":"","lat":36.37165265,"lng":139.04989057,"weekday":"14:30-17:30","saturday":"10:00-16:00","sunday":"","holiday":"10:00-16:00","closed":"年末年始、お盆期間","capacity":10,"id":"1050100724"},{"name":"ディグ・スマイル・前橋南教室","nameKana":"でぃぐすまいるまえばしみなみきょうしつ","corp":"株式会社ハピネスカムズ","serviceTypes":["児童発達支援","放課後等デイサービス"],"ward":"前橋市","address":"群馬県前橋市南町二丁目65番地1","tel":"027-288-0951","url":"","lat":36.37385563,"lng":139.06767775,"weekday":"14:30-17:30","saturday":"10:00-16:00","sunday":"","holiday":"10:00-16:00","closed":"12/31〜1/3並びにお盆期間","capacity":10,"id":"1050100542"},{"name":"ディグ・スマイル・前橋北教室","nameKana":"でぃぐすまいるまえばしきたきょうしつ","corp":"株式会社ハピネスカムズ","serviceTypes":["児童発達支援","放課後等デイサービス"],"ward":"前橋市","address":"群馬県前橋市日吉町四丁目6番地9","tel":"027-212-8921","url":"","lat":36.4032157,"lng":139.07559818,"weekday":"14:30-17:30","saturday":"10:00-16:00","sunday":"","holiday":"10:00-16:00","closed":"12/31〜1/3並びにお盆期間を除く","capacity":10,"id":"1050100815"},{"name":"ちゃいるどえっぐ","nameKana":"ちゃいるどえっぐ","corp":"特定非営利活動法人つなぐ","serviceTypes":["児童発達支援"],"ward":"前橋市","address":"群馬県前橋市古市町５６９−１古市町５６９−１","tel":"027-226-1464","url":"http://child-egg.com/","lat":36.38420924,"lng":139.05129562,"weekday":"09:00-16:00","saturday":"09:00-16:00","sunday":"00:00-00:00","holiday":"00:00-00:00","closed":"日曜　祝日","capacity":10,"id":"1050100377"},{"name":"ちゃいるどえっぐ元総社すくーる","nameKana":"ちゃいるどえっぐもとそうじゃすくーる","corp":"特定非営利活動法人つなぐ","serviceTypes":["児童発達支援","放課後等デイサービス"],"ward":"前橋市","address":"群馬県前橋市元総社町１８４３−３なし","tel":"027-257-7067","url":"http://child-egg.com/","lat":36.39443519,"lng":139.03066112,"weekday":"09:00-16:00","saturday":"09:00-16:00","sunday":"00:00-00:00","holiday":"10:00-16:00","closed":"祝日・日曜日","capacity":10,"id":"1050100682"},{"name":"ちゃいるどえっぐ　上小塙","nameKana":"ちゃいるどえっぐかみこばな","corp":"特定非営利活動法人つなぐ","serviceTypes":["児童発達支援"],"ward":"高崎市","address":"群馬県高崎市上小塙町779-2","tel":"027-386-8987","url":"http://child-egg.com","lat":36.35945224,"lng":138.98191539,"weekday":"09:00-13:00","saturday":"09:00-15:00","sunday":"00:00-00:00","holiday":"00:00-00:00","closed":"日曜・祝日　　12月30日〜1月4日","capacity":10,"id":"1050201134"},{"name":"IN THE KIDS","nameKana":"いんざきっず","corp":"FUSION株式会社","serviceTypes":["児童発達支援","放課後等デイサービス"],"ward":"高崎市","address":"群馬県高崎市江木町1209-1","tel":"0273865517","url":"http://inthekids.com","lat":36.33206476,"lng":139.02118878,"weekday":"09:30-15:30","saturday":"","sunday":"","holiday":"09:30-15:30","closed":"土曜日・日曜日","capacity":10,"id":"1050201381"},{"name":"IN THE KIDS 2","nameKana":"いんざきっずつー","corp":"FUSION株式会社","serviceTypes":["児童発達支援"],"ward":"高崎市","address":"群馬県高崎市江木町1720-1","tel":"027-329-6680","url":"http://inthekids.com","lat":36.33005937,"lng":139.02635267,"weekday":"08:30-17:30","saturday":"","sunday":"","holiday":"08:30-17:30","closed":"土曜日・日曜日","capacity":10,"id":"1050201621"},{"name":"多機能型通所支援事業所　クローバービーンズ","nameKana":"たきのうがたつうしょしえんじぎょうしょくろーばーびーんず","corp":"株式会社プラスエヌ","serviceTypes":["児童発達支援","放課後等デイサービス"],"ward":"高崎市","address":"群馬県高崎市中豊岡町100-1","tel":"027-329-6391","url":"","lat":36.33342184,"lng":138.97640255,"weekday":"10:00-17:00","saturday":"10:00-17:00","sunday":"","holiday":"","closed":"日曜日　祝祭日　年末年始","capacity":5,"id":"1050201175"},{"name":"多機能型通所支援事業所ビーンズリーフ","nameKana":"たきのうがたつうしょしえんじぎょうしょびーんずりーふ","corp":"株式会社プラスエヌ","serviceTypes":["児童発達支援","放課後等デイサービス"],"ward":"高崎市","address":"群馬県高崎市中豊岡町109-1","tel":"027-381-8173","url":"","lat":36.33292466,"lng":138.97654144,"weekday":"10:00-17:00","saturday":"10:00-17:00","sunday":"","holiday":"","closed":"日・祝日・年末年始","capacity":10,"id":"1050201613"},{"name":"児童発達支援療育むつみ","nameKana":"じどうはったつしえんりょういくむつみ","corp":"株式会社むつみ","serviceTypes":["児童発達支援"],"ward":"高崎市","address":"群馬県高崎市筑縄町18-11","tel":"027-363-6232","url":"","lat":36.35175621,"lng":138.98834569,"weekday":"08:10-17:10","saturday":"","sunday":"","holiday":"","closed":"土、日、祝日、年末年始","capacity":10,"id":"1050201191"},{"name":"児童発達支援療育むつまじく","nameKana":"じどうはったつしえんりょういくむつまじく","corp":"株式会社むつみ","serviceTypes":["児童発達支援"],"ward":"高崎市","address":"群馬県高崎市下小鳥町８５−１７","tel":"0273936239","url":"","lat":36.34983717,"lng":138.99466472,"weekday":"","saturday":"","sunday":"","holiday":"","closed":"土日祝日年末年始","capacity":null,"id":"1050201316"},{"name":"かんのむし研究所山名ベース","nameKana":"かんのむしけんきゅうじょやまなべーす","corp":"社会福祉法人しんまち元気村","serviceTypes":["児童発達支援"],"ward":"高崎市","address":"群馬県高崎市山名町１５１０−２","tel":"027-386-3361","url":"http://www.genkimura.or.jp/","lat":36.27801161,"lng":139.03725269,"weekday":"09:00-15:00","saturday":"","sunday":"","holiday":"","closed":"土日祝、年末年始（１２／３０〜１／３）","capacity":10,"id":"1050201241"},{"name":"かんのむし研究所　新町ベース","nameKana":"かんのむしけんきゅうじょしんまちべーす","corp":"社会福祉法人しんまち元気村","serviceTypes":["児童発達支援","放課後等デイサービス"],"ward":"高崎市","address":"群馬県高崎市新町1435-12","tel":"0274-50-4706","url":"http://www.genkimura.or.jp/","lat":36.26190436,"lng":139.10665413,"weekday":"09:00-15:00","saturday":"","sunday":"","holiday":"","closed":"土日祝日、１２月３０日〜１月３日","capacity":10,"id":"1050201423"},{"name":"かんのむし研究所　大類ベース","nameKana":"かんのむしけんきゅうじょおおるいべーす","corp":"社会福祉法人しんまち元気村","serviceTypes":["児童発達支援","放課後等デイサービス"],"ward":"高崎市","address":"群馬県高崎市上大類町1322-7","tel":"027-381-8562","url":"","lat":36.34015042,"lng":139.03062405,"weekday":"09:00-15:00","saturday":"","sunday":"","holiday":"","closed":"土日祝、12月30日〜1月3日","capacity":10,"id":"1050201605"},{"name":"共生型小規模多機能ホーム　ドリームホーム三山","nameKana":"きょうせいがたしょうきぼたきのうほーむどりーむほーむみやま","corp":"有限会社ミヤマ","serviceTypes":["児童発達支援","放課後等デイサービス"],"ward":"高崎市","address":"群馬県高崎市箕郷町東明屋400-1","tel":"0273717365","url":"https://www.miyamag.com/kyouseisyoutaki","lat":36.40142112,"lng":138.95730826,"weekday":"","saturday":"","sunday":"","holiday":"","closed":"","capacity":null,"id":"1050201399"},{"name":"多機能型通所事業所カヨイバ１号","nameKana":"たきのうがたつうしょじぎょうしょかよいばいちごう","corp":"株式会社カヨイバ","serviceTypes":["児童発達支援","放課後等デイサービス"],"ward":"高崎市","address":"群馬県高崎市八島町２６９野口ビル２階","tel":"027-323-0888","url":"https://kayoiba.com/","lat":36.32259296,"lng":139.00897828,"weekday":"","saturday":"","sunday":"","holiday":"","closed":"","capacity":null,"id":"1050201480"},{"name":"ヒカリエ","nameKana":"ひかりえ","corp":"エスエイチ菅谷株式会社","serviceTypes":["児童発達支援","放課後等デイサービス"],"ward":"高崎市","address":"群馬県高崎市菅谷町63番地1","tel":"027-381-5820","url":"","lat":36.38108375,"lng":139.01665431,"weekday":"10:00-15:00","saturday":"","sunday":"","holiday":"10:00-15:00","closed":"土曜日、日曜日、GW、お盆、年末年始","capacity":10,"id":"1050201571"},{"name":"ことばアドベンチャー","nameKana":"ことばあどべんちゃー","corp":"株式会社日本療育研究所","serviceTypes":["児童発達支援"],"ward":"高崎市","address":"群馬県高崎市竜見町15-1オゼットワールA　1階","tel":"070-6995-0011","url":"https://kotoado.com/","lat":36.31710123,"lng":139.00802601,"weekday":"09:00-15:30","saturday":"","sunday":"","holiday":"","closed":"土日祝","capacity":10,"id":"1050201472"},{"name":"ことばアドベンチャー江木校","nameKana":"ことばあどべんちゃーえぎこう","corp":"株式会社日本療育研究所","serviceTypes":["児童発達支援"],"ward":"高崎市","address":"群馬県高崎市江木町1539-2","tel":"070-6443-0022","url":"https://kotoado.com/","lat":36.33221481,"lng":139.02817469,"weekday":"09:00-15:30","saturday":"09:00-15:30","sunday":"","holiday":"","closed":"日曜日、祝日","capacity":null,"id":"1050201563"},{"name":"キッズスペースどうむ","nameKana":"きっずすぺーすどうむ","corp":"株式会社ソルーナ","serviceTypes":["児童発達支援","放課後等デイサービス"],"ward":"北群馬郡吉岡町","address":"群馬県北群馬郡吉岡町大字下野田1610-6","tel":"0279-26-2967","url":"","lat":36.44727763,"lng":139.00975173,"weekday":"10:00-14:00","saturday":"","sunday":"","holiday":"10:00-14:00","closed":"土曜日、日曜日、お盆、年末年始","capacity":10,"id":"1052200118"},{"name":"ワンセルフとみおか","nameKana":"わんせるふとみおか","corp":"株式会社ワンセルフ","serviceTypes":["児童発達支援","放課後等デイサービス"],"ward":"富岡市","address":"群馬県富岡市黒川1686番地1","tel":"0274-67-7807","url":"http://www.one-self.co.jp/","lat":36.26555357,"lng":138.8802323,"weekday":"09:00-16:00","saturday":"09:00-17:00","sunday":"","holiday":"","closed":"","capacity":10,"id":"1051000022"},{"name":"多機能型通所支援事業所まゆ","nameKana":"たきのうがたつうしょしえんじぎょうしょまゆ","corp":"社会福祉法人榛桐会","serviceTypes":["児童発達支援","放課後等デイサービス"],"ward":"富岡市","address":"群馬県富岡市一ノ宮字小塚５３６−３","tel":"0274-67-7881","url":"https://shintokai.jp","lat":36.25206897,"lng":138.86024525,"weekday":"09:30-15:30","saturday":"09:30-15:30","sunday":"","holiday":"","closed":"木曜日、日曜日、祝日　12月29日〜1月3日","capacity":20,"id":"1051000063"},{"name":"わくまる　おおやぎ園","nameKana":"わくまるおおやぎえん","corp":"ケアサプライシステムズ株式会社","serviceTypes":["児童発達支援"],"ward":"高崎市","address":"群馬県高崎市大八木町５１８番地3","tel":"027-384-3864","url":"","lat":36.36298272,"lng":138.99883371,"weekday":"09:30-17:00","saturday":"","sunday":"","holiday":"","closed":"土曜日・日曜日・12/31〜1/3","capacity":5,"id":"1050201407"},{"name":"わくまる　やまな園","nameKana":"わくまるやまなえん","corp":"ケアサプライシステムズ株式会社","serviceTypes":["児童発達支援"],"ward":"高崎市","address":"群馬県高崎市山名町503-1","tel":"027-345-2100","url":"","lat":36.27281235,"lng":139.04421057,"weekday":"09:00-17:00","saturday":"","sunday":"","holiday":"09:00-17:00","closed":"","capacity":5,"id":"1050201514"},{"name":"多機能型キッズなかま","nameKana":"たきのうがたきっずなかま","corp":"特定非営利活動法人ゆい","serviceTypes":["児童発達支援","放課後等デイサービス"],"ward":"高崎市","address":"群馬県高崎市八幡町668-3","tel":"027-386-8977","url":"","lat":36.3405122,"lng":138.95035768,"weekday":"10:00-16:00","saturday":"","sunday":"","holiday":"10:00-16:00","closed":"土曜日・日曜日・年末年始","capacity":5,"id":"1050201100"},{"name":"群馬整肢療護園発達支援センター","nameKana":"ぐんませいしりょうごえんはったつしえんせんたー","corp":"社会福祉法人二之沢愛育会","serviceTypes":["児童発達支援","放課後等デイサービス"],"ward":"高崎市","address":"群馬県高崎市足門町146-1","tel":"027-373-2277","url":"http://www.aiiku-kai.com/","lat":36.4017161,"lng":138.98170919,"weekday":"08:30-17:30","saturday":"","sunday":"","holiday":"","closed":"土日祭日、夏季休業日、年末年始","capacity":15,"id":"1050200334"},{"name":"つくし園","nameKana":"つくしえん","corp":"社会福祉法人浜川会","serviceTypes":["児童発達支援"],"ward":"高崎市","address":"群馬県高崎市浜川町735-1つくし園","tel":"027-360-4318","url":"http://www15.wind.ne.jp/~tukushi","lat":36.37635816,"lng":138.97858192,"weekday":"09:30-15:30","saturday":"09:30-15:30","sunday":"","holiday":"","closed":"営業日ではない土曜日（月3 回）、日曜日、祝日","capacity":30,"id":"1050200011"},{"name":"ふぃーる","nameKana":"ふぃーる","corp":"社会福祉法人浜川会","serviceTypes":["児童発達支援"],"ward":"高崎市","address":"群馬県高崎市井出町1665-2ふぃーる","tel":"027-381-8115","url":"http://www15.wind.ne.jp/~soudan-shien","lat":36.37297283,"lng":138.99103676,"weekday":"09:30-15:30","saturday":"","sunday":"","holiday":"","closed":"土曜、日曜日、祝日、年末年始（12月29日〜1月3日）","capacity":10,"id":"1050200672"},{"name":"発達支援ルームそらまめ","nameKana":"はったつしえんるーむそらまめ","corp":"特定非営利活動法人リンケージ","serviceTypes":["児童発達支援","放課後等デイサービス"],"ward":"高崎市","address":"群馬県高崎市江木町９７９−３","tel":"027-345-7390","url":"http://www.npo-linkage.net/","lat":36.33590624,"lng":139.02623561,"weekday":"09:30-16:00","saturday":"","sunday":"","holiday":"","closed":"金、土、日、国民の祝日、12/29〜1/3","capacity":10,"id":"1050200128"},{"name":"児童発達支援事業所ひまわり","nameKana":"じどうはったつしえんじぎょうしょひまわり","corp":"特定非営利活動法人ノア","serviceTypes":["児童発達支援"],"ward":"高崎市","address":"群馬県高崎市上並榎町１３７６","tel":"027-344-2525","url":"https://npo-noah.jp/","lat":36.34415411,"lng":138.97815209,"weekday":"09:00-15:00","saturday":"","sunday":"","holiday":"","closed":"土曜日、日曜日、祝日、年末年始","capacity":10,"id":"1050200318"},{"name":"こっころ","nameKana":"こっころ","corp":"特定非営利活動法人ノア","serviceTypes":["児童発達支援"],"ward":"高崎市","address":"群馬県高崎市高崎市片岡町１−６−３","tel":"027-395-0513","url":"","lat":36.31895367,"lng":138.99799325,"weekday":"09:00-15:00","saturday":"","sunday":"","holiday":"","closed":"土曜日、日曜日、祝日、年末年始","capacity":10,"id":"1050200508"},{"name":"多機能型通所支援事業所STELLA","nameKana":"たきのうがたつうしょしえんじぎょうしょすてら","corp":"社会福祉法人榛桐会","serviceTypes":["児童発達支援","放課後等デイサービス"],"ward":"高崎市","address":"群馬県高崎市大八木町168-1","tel":"027-361-1188","url":"https://shintokai.jp","lat":36.36077173,"lng":138.99243972,"weekday":"09:30-15:30","saturday":"09:30-15:30","sunday":"","holiday":"","closed":"木曜日、日曜日、祝日　12月29日〜1月3日","capacity":15,"id":"1050200326"},{"name":"児童発達支援センターれいんぼ〜","nameKana":"じどうはったつしえんせんたーれいんぼー","corp":"独立行政法人国立重度知的障害者総合施設のぞみの園","serviceTypes":["児童発達支援"],"ward":"高崎市","address":"群馬県高崎市寺尾町2120−2","tel":"027-320-1005","url":"https://www.nozomi.go.jp","lat":36.30927031,"lng":138.97230152,"weekday":"09:00-16:00","saturday":"","sunday":"","holiday":"","closed":"土曜日、日曜日、国民の休日に関する法律に定める休日及び12月29日から1月3日","capacity":30,"id":"1050200854"},{"name":"ワンセルフあしかど","nameKana":"わんせるふあしかど","corp":"株式会社ワンセルフ","serviceTypes":["児童発達支援"],"ward":"高崎市","address":"群馬県高崎市足門町783-11","tel":"027-386-9367","url":"http://www.one-self.co.jp/","lat":36.39408143,"lng":138.99747229,"weekday":"09:00-16:00","saturday":"","sunday":"","holiday":"","closed":"日曜日、国民の祝日、年末年始","capacity":10,"id":"1050201027"},{"name":"ひびきっず","nameKana":"ひびきっず","corp":"特定非営利活動法人響喜","serviceTypes":["児童発達支援","放課後等デイサービス"],"ward":"高崎市","address":"群馬県高崎市棟高町94-3","tel":"027-377-9193","url":"https://npohibiki.localinfo.jp","lat":36.39016241,"lng":138.99522523,"weekday":"10:00-16:00","saturday":"10:00-16:00","sunday":"","holiday":"10:00-16:00","closed":"12月29日〜1月3日","capacity":5,"id":"1050201035"},{"name":"すりすた","nameKana":"すりすた","corp":"株式会社ひねもす","serviceTypes":["児童発達支援","放課後等デイサービス"],"ward":"高崎市","address":"群馬県高崎市江木町1563","tel":"027-388-9356","url":"","lat":36.33302867,"lng":139.02923016,"weekday":"10:00-17:00","saturday":"10:00-17:00","sunday":"10:00-17:00","holiday":"10:00-17:00","closed":"年末年始","capacity":10,"id":"1050201209"},{"name":"サンジュニア","nameKana":"さんじゅにあ","corp":"合同会社ジェニュイン","serviceTypes":["児童発達支援","放課後等デイサービス"],"ward":"高崎市","address":"群馬県高崎市小八木町828-1トミザワビル１F","tel":"027-384-3715","url":"https://sunjr.genuine-llc.com/","lat":36.35856168,"lng":139.01297168,"weekday":"10:00-15:00","saturday":"10:00-15:00","sunday":"","holiday":"10:00-15:00","closed":"日曜日","capacity":10,"id":"1050201266"},{"name":"多機能型通所支援事業所　心","nameKana":"たきのうがたつうしょしえんじぎょうしょこころ","corp":"一般財団法人愛心会","serviceTypes":["児童発達支援","放課後等デイサービス"],"ward":"高崎市","address":"群馬県高崎市上並榎町８３１","tel":"027-386-5842","url":"https://zai-aishinkai.or.jp","lat":36.34269055,"lng":138.9857738,"weekday":"10:00-16:00","saturday":"10:00-16:00","sunday":"","holiday":"10:00-16:00","closed":"日曜日・8月14日・12月29日から1月3日","capacity":5,"id":"1050200896"},{"name":"多機能型通所支援事業所愛","nameKana":"たきのうがたつうしょしえんじぎょうしょあい","corp":"一般財団法人愛心会","serviceTypes":["児童発達支援","放課後等デイサービス"],"ward":"高崎市","address":"群馬県高崎市剣崎町1180-8","tel":"027-381-5396","url":"https://zai-aishinkai.or.jp/","lat":36.34614785,"lng":138.9578649,"weekday":"14:00-17:00","saturday":"10:00-16:00","sunday":"","holiday":"10:00-16:00","closed":"日曜日・8月14日・12月30日から1月3日","capacity":7,"id":"1050200961"},{"name":"児童発達支援　ばんび","nameKana":"じどうはったつしえんばんび","corp":"一般社団法人　くるみの森","serviceTypes":["児童発達支援","放課後等デイサービス"],"ward":"みどり市","address":"群馬県みどり市笠懸町阿左美1843-4","tel":"0277-47-7664","url":"https://kuruminomori-bambi.jp/","lat":36.40844468,"lng":139.28689752,"weekday":"09:00-17:00","saturday":"","sunday":"","holiday":"","closed":"土、日、祝日　お盆（8/13〜8/16）　年末年始（12/29〜1/3）","capacity":7,"id":"1051200218"},{"name":"放課後等デイサービスウィズ・ユー笠懸岩宿駅前","nameKana":"ほうかごとうでいさーびすうぃずゆーかさがけいわじゅくえきまえ","corp":"株式会社RUSH","serviceTypes":["児童発達支援","放課後等デイサービス"],"ward":"みどり市","address":"群馬県みどり市笠懸町阿左美1500-1","tel":"0277-46-6470","url":"","lat":36.39609082,"lng":139.29630228,"weekday":"10:00-16:00","saturday":"10:00-16:00","sunday":"","holiday":"","closed":"日曜・祝日、8/13〜15、12/30〜1/3","capacity":10,"id":"1051200168"},{"name":"放課後等デイサービスウィズ・ユー笠懸鹿","nameKana":"ほうかごとうでいさーびすうぃずゆーかさがけしか","corp":"株式会社RUSH","serviceTypes":["児童発達支援","放課後等デイサービス"],"ward":"みどり市","address":"群馬県みどり市笠懸町鹿4403-3","tel":"0277-46-8849","url":"","lat":36.3785986,"lng":139.30306016,"weekday":"13:30-17:30","saturday":"10:00-16:00","sunday":"","holiday":"","closed":"日曜・祝日・8/13〜15・12/29〜1/3","capacity":10,"id":"1051200184"},{"name":"多機能型事業所　うたたね。","nameKana":"たきのうがたじぎょうしょうたたね","corp":"株式会社ポリム・ラボ","serviceTypes":["児童発達支援","放課後等デイサービス"],"ward":"桐生市","address":"群馬県桐生市錦町3-11-3","tel":"0277-32-4246","url":"","lat":36.40238213,"lng":139.3286072,"weekday":"09:30-15:30","saturday":"","sunday":"","holiday":"","closed":"土日祝","capacity":5,"id":"1050300324"},{"name":"Mahalo Ota","nameKana":"まはろおおた","corp":"ニッケン株式会社","serviceTypes":["児童発達支援","放課後等デイサービス"],"ward":"太田市","address":"群馬県太田市新道町1225-7","tel":"0276-55-1985","url":"","lat":36.2968624,"lng":139.34995018,"weekday":"10:00-14:00","saturday":"","sunday":"","holiday":"10:00-14:00","closed":"","capacity":10,"id":"1050500790"},{"name":"Mahalo Kiryu","nameKana":"まはろきりゅう","corp":"ニッケン株式会社","serviceTypes":["児童発達支援","放課後等デイサービス"],"ward":"桐生市","address":"群馬県桐生市仲町1丁目2-41","tel":"0277-47-2808","url":"","lat":36.41524466,"lng":139.3438554,"weekday":"","saturday":"","sunday":"","holiday":"","closed":"","capacity":null,"id":"1050300332"},{"name":"マーズ","nameKana":"まーず","corp":"特定非営利活動法人障害者支援グループ昴","serviceTypes":["児童発達支援","放課後等デイサービス"],"ward":"桐生市","address":"群馬県桐生市新宿２−２−８","tel":"0277-47-6993","url":"http://marzu.jp/","lat":36.39964354,"lng":139.34054224,"weekday":"09:00-17:00","saturday":"09:00-17:00","sunday":"","holiday":"09:00-17:00","closed":"土、日、国民の祝日、学校休業日","capacity":5,"id":"1050300076"},{"name":"児童発達支援事業所　親子ステーションシリウス","nameKana":"じどうはったつしえんじぎょうしょおやこすてーしょんしりうす","corp":"一般社団法人MiLKY　WAY","serviceTypes":["児童発達支援"],"ward":"伊勢崎市","address":"群馬県伊勢崎市連取町1227-2","tel":"0270-61-6137","url":"http://amanogawa20190621.wixsite.com/website","lat":36.32148926,"lng":139.18048996,"weekday":"10:00-17:00","saturday":"10:00-17:00","sunday":"","holiday":"10:00-17:00","closed":"日曜日、法人が定める休日","capacity":10,"id":"1050400629"},{"name":"児童発達支援事業所　親子ステーションスピカ","nameKana":"じどうはったつしえんじぎょうしょおやこすてーしょんすぴか","corp":"一般社団法人MiLKY　WAY","serviceTypes":["児童発達支援"],"ward":"伊勢崎市","address":"群馬県伊勢崎市連取町1231番地3","tel":"0270-75-2760","url":"","lat":36.32137541,"lng":139.17903181,"weekday":"10:00-17:00","saturday":"10:00-17:00","sunday":"","holiday":"10:00-17:00","closed":"日曜日、月曜日","capacity":10,"id":"1050400819"},{"name":"meets","nameKana":"みーつ","corp":"株式会社Miraicle","serviceTypes":["児童発達支援","放課後等デイサービス"],"ward":"伊勢崎市","address":"群馬県伊勢崎市馬見塚町2333-4","tel":"0270-50-0195","url":"https://miraicle.wixsite.com/meets","lat":36.28468935,"lng":139.21657409,"weekday":"","saturday":"","sunday":"","holiday":"","closed":"","capacity":null,"id":"1050400652"},{"name":"PAL","nameKana":"ぱる","corp":"株式会社Miraicle","serviceTypes":["児童発達支援"],"ward":"伊勢崎市","address":"群馬県伊勢崎市安堀町1861-5西目貸店舗Ｃ棟","tel":"0270-75-1127","url":"https://miraicle.wixsite.com/meets/contact","lat":36.3374791,"lng":139.18620231,"weekday":"10:00-16:00","saturday":"","sunday":"","holiday":"09:00-15:00","closed":"土曜、日曜","capacity":10,"id":"1050400843"},{"name":"児童発達支援わたぐも","nameKana":"じどうはったつしえんわたぐも","corp":"株式会社わたぐも","serviceTypes":["児童発達支援"],"ward":"伊勢崎市","address":"群馬県伊勢崎市連取町1533番地1","tel":"0270-75-6415","url":"https://www.watagumo-kodomo.com/","lat":36.31845905,"lng":139.18114008,"weekday":"09:00-17:00","saturday":"09:00-17:00","sunday":"","holiday":"09:00-17:00","closed":"日曜日、年末年始(12/28〜1/3)","capacity":10,"id":"1050400686"},{"name":"児童発達支援・放課後等デイサービス・保育所等訪問支援事業所Click","nameKana":"じどうはったつしえんほうかごとうでいさーびすほいくしょとうほうもんしえんじぎょうしょくりっく","corp":"学校法人光明学園","serviceTypes":["児童発達支援","放課後等デイサービス"],"ward":"伊勢崎市","address":"群馬県伊勢崎市韮塚町1179-9","tel":"0270-61-5259","url":"https://k-click.jp/","lat":36.30863246,"lng":139.17521083,"weekday":"","saturday":"","sunday":"","holiday":"","closed":"","capacity":null,"id":"1050400827"},{"name":"児童発達支援施設キッズプラスいろいろ","nameKana":"じどうはったつしえんしせつきっずぷらすいろいろ","corp":"株式会社IKアカデミー","serviceTypes":["児童発達支援"],"ward":"伊勢崎市","address":"群馬県伊勢崎市連取町3016-16","tel":"050-1236-3685","url":"https://ik-academy.com/kidsplus/","lat":36.3263555,"lng":139.17182133,"weekday":"09:00-14:00","saturday":"","sunday":"","holiday":"","closed":"土曜日、日曜日、祝祭日","capacity":10,"id":"1050400850"},{"name":"児童発達支援　MOAMO","nameKana":"じどうはったつしえんもあも","corp":"社会福祉法人豊受会","serviceTypes":["児童発達支援"],"ward":"伊勢崎市","address":"群馬県伊勢崎市馬見塚町230-1","tel":"0270-32-2440","url":"https://www.haguroworld.com","lat":36.28594725,"lng":139.20853055,"weekday":"09:00-17:00","saturday":"","sunday":"","holiday":"","closed":"土・日・祝","capacity":10,"id":"1050400868"},{"name":"未来花","nameKana":"みらいか","corp":"株式会社未来花323","serviceTypes":["児童発達支援"],"ward":"伊勢崎市","address":"群馬県伊勢崎市市場町一丁目260番地1","tel":"0270615723","url":"https://miraika323.jp/","lat":36.37232481,"lng":139.21870706,"weekday":"08:30-19:00","saturday":"","sunday":"","holiday":"08:30-19:00","closed":"土曜日　日曜日","capacity":10,"id":"1050400892"},{"name":"放課後等デイサービス　アクロスJOY","nameKana":"ほうかごとうでいさーびすあくろすじょい","corp":"合同会社アクロスサポート","serviceTypes":["児童発達支援","放課後等デイサービス"],"ward":"伊勢崎市","address":"群馬県伊勢崎市富塚町221-12Ｗ・1Ｂ号室","tel":"0270-75-2934","url":"https://www.across-joy.co.jp/","lat":36.27728408,"lng":139.1914137,"weekday":"09:30-18:30","saturday":"","sunday":"","holiday":"","closed":"土・日・祝日、年末年始","capacity":10,"id":"1050400900"},{"name":"ゆうがくかんりとる","nameKana":"ゆうがくかんりとる","corp":"ルシエル合同会社","serviceTypes":["児童発達支援","放課後等デイサービス"],"ward":"伊勢崎市","address":"群馬県伊勢崎市太田町264番地３","tel":"0270-75-5532","url":"https://www.instagram.com/reel/DLy6JirSMZX/","lat":36.32313905,"lng":139.18296733,"weekday":"10:00-15:30","saturday":"","sunday":"","holiday":"","closed":"土曜日、日曜日、祝祭日、お盆、年末年始","capacity":10,"id":"1050400991"},{"name":"放課後等デイサービス　ウィズ・ユー太田高瀬","nameKana":"ほうかごとうでいさーびすうぃずゆーおおたたかせ","corp":"MKK・トランスポート株式会社","serviceTypes":["児童発達支援","放課後等デイサービス"],"ward":"太田市","address":"群馬県太田市高瀬町62-4テクノランドD号室","tel":"0284-64-9514","url":"https://www.with-ac.com","lat":36.32722095,"lng":139.4226271,"weekday":"","saturday":"","sunday":"","holiday":"","closed":"","capacity":null,"id":"1050500857"},{"name":"森の子園","nameKana":"もりのこえん","corp":"社会福祉法人　樫の木","serviceTypes":["児童発達支援"],"ward":"伊勢崎市","address":"群馬県伊勢崎市堀口町666-1","tel":"0270-75-5621","url":"http://www.kashinoki-net.server-shared.com/~info.kashinoki/index.html","lat":36.28639388,"lng":139.18912729,"weekday":"09:00-15:30","saturday":"09:00-15:30","sunday":"","holiday":"","closed":"日曜日、国民の祝日、12/29〜1/4、4/1、法人指定の日","capacity":30,"id":"1050400546"},{"name":"こども多機能型事業所　ブーケ","nameKana":"こどもたきのうがたじぎょうしょぶーけ","corp":"NPO法人　生涯発達ケアセンター　さんれんぷ","serviceTypes":["児童発達支援","放課後等デイサービス"],"ward":"伊勢崎市","address":"群馬県伊勢崎市茂呂町２−６４９−３","tel":"0270-27-4755","url":"http://sanrenpusince2014.wixsite.com/sanrenpu","lat":36.3072912,"lng":139.20572695,"weekday":"","saturday":"","sunday":"","holiday":"","closed":"","capacity":null,"id":"1050400389"},{"name":"児童通所支援事業所トランポリン","nameKana":"じどうつうしょしえんじぎょうしょとらんぽりん","corp":"特定非営利活動法人タケダ体操クラブ","serviceTypes":["児童発達支援","放課後等デイサービス"],"ward":"伊勢崎市","address":"群馬県伊勢崎市東小保方町３０４５−６","tel":"0270-75-3451","url":"","lat":36.33515377,"lng":139.24105806,"weekday":"09:00-15:30","saturday":"","sunday":"","holiday":"","closed":"","capacity":10,"id":"1050400264"},{"name":"音の９９９(スリーナイン)","nameKana":"おとのすりーないん","corp":"マインドライン株式会社","serviceTypes":["児童発達支援","放課後等デイサービス"],"ward":"伊勢崎市","address":"群馬県伊勢崎市鹿島町626-1","tel":"0270-61-8511","url":"http://mindline999.com/","lat":36.33267452,"lng":139.20503418,"weekday":"","saturday":"","sunday":"","holiday":"","closed":"","capacity":null,"id":"1050400470"},{"name":"９９９（スリーナイン）リズム＆スポーツ","nameKana":"すりーないんりずむあんどすぽーつ","corp":"マインドライン株式会社","serviceTypes":["児童発達支援","放課後等デイサービス"],"ward":"伊勢崎市","address":"群馬県伊勢崎市下植木町620-1","tel":"0270-75-6926","url":"http://mindline999.com/","lat":36.31720714,"lng":139.21521433,"weekday":"","saturday":"","sunday":"","holiday":"","closed":"","capacity":null,"id":"1050400561"},{"name":"９９９（スリーナイン）あーと","nameKana":"すりーないんあーと","corp":"マインドライン株式会社","serviceTypes":["児童発達支援","放課後等デイサービス"],"ward":"桐生市","address":"群馬県桐生市相生町2-312-4","tel":"0277-46-9978","url":"http://mindline999.com/","lat":36.4136084,"lng":139.31262809,"weekday":"","saturday":"","sunday":"","holiday":"","closed":"","capacity":null,"id":"1050300282"},{"name":"９９９（スリーナイン）らぼっと","nameKana":"すりーないんらぼっと","corp":"マインドライン株式会社","serviceTypes":["児童発達支援","放課後等デイサービス"],"ward":"伊勢崎市","address":"群馬県伊勢崎市上諏訪町1225-5","tel":"0270-61-6816","url":"http://mindline999.com/","lat":36.32673386,"lng":139.21370847,"weekday":"","saturday":"","sunday":"","holiday":"","closed":"","capacity":null,"id":"1050400769"},{"name":"999（スリーナイン）といず","nameKana":"すりーないんといず","corp":"マインドライン株式会社","serviceTypes":["児童発達支援","放課後等デイサービス"],"ward":"伊勢崎市","address":"群馬県伊勢崎市上諏訪町1258-12","tel":"0270-61-7941","url":"http://mindline999.com/","lat":36.32472566,"lng":139.21235872,"weekday":"","saturday":"","sunday":"","holiday":"","closed":"","capacity":null,"id":"1050400926"},{"name":"ぐろうあっぷ","nameKana":"ぐろうあっぷ","corp":"GROWTH株式会社","serviceTypes":["児童発達支援"],"ward":"太田市","address":"群馬県太田市細谷町1414番地","tel":"0276-59-8760","url":"http://growth-houday.com/growup/","lat":36.27521738,"lng":139.35165033,"weekday":"09:30-16:30","saturday":"09:30-16:30","sunday":"","holiday":"09:30-16:30","closed":"日曜日","capacity":10,"id":"1050500519"},{"name":"GROWELL（グローウェル）","nameKana":"ぐろーうぇる","corp":"GROWTH株式会社","serviceTypes":["児童発達支援","放課後等デイサービス"],"ward":"太田市","address":"群馬県太田市東本町13-16","tel":"080-4656-0167","url":"","lat":36.29495473,"lng":139.38138917,"weekday":"13:30-17:45","saturday":"09:30-16:30","sunday":"","holiday":"09:30-16:30","closed":"日曜日","capacity":10,"id":"1050500758"},{"name":"けいさぽはうす","nameKana":"けいさぽはうす","corp":"株式会社ケイ・サポート","serviceTypes":["児童発達支援","放課後等デイサービス"],"ward":"太田市","address":"群馬県太田市大原町1050番地1","tel":"0277-46-6418","url":"https://ksp-house.com","lat":36.36752756,"lng":139.29114479,"weekday":"10:00-16:00","saturday":"","sunday":"","holiday":"","closed":"土曜日、日曜日、祝祭日、年末年始","capacity":10,"id":"1050500444"},{"name":"運動学習型 児童発達支援・放課後等デイサービスReno wellness kids 太田教室","nameKana":"うんどうがくしゅうがたじどうはったつしえんほうかごとうでいさーびすりのうぇるねすきっずおおたきょうしつ","corp":"株式会社Reno","serviceTypes":["児童発達支援"],"ward":"太田市","address":"群馬県太田市小舞木町224","tel":"0276-56-9910","url":"http://reno-izm.jp","lat":36.28193408,"lng":139.39090536,"weekday":"","saturday":"","sunday":"","holiday":"","closed":"毎週日曜日　お盆　年末年始","capacity":null,"id":"1050500493"},{"name":"児童発達支援あいすてっぷ","nameKana":"じどうはったつしえんあいすてっぷ","corp":"PRO-STEP株式会社","serviceTypes":["児童発達支援"],"ward":"太田市","address":"群馬県太田市新島町650","tel":"090-8725-2640","url":"https://aihop.net","lat":36.28922485,"lng":139.38456681,"weekday":"09:30-15:30","saturday":"09:30-15:30","sunday":"00:00-00:00","holiday":"00:00-00:00","closed":"日曜日・祝日（法人が定めるお盆・年末年始）","capacity":10,"id":"1050500576"},{"name":"児童発達支援あいほっぷ","nameKana":"じどうはったつしえんあいほっぷ","corp":"PRO-STEP株式会社","serviceTypes":["児童発達支援"],"ward":"太田市","address":"群馬県太田市宝町711-1スカイブルー　1F","tel":"070-4487-4429","url":"https://aihop.net","lat":36.28576331,"lng":139.3278135,"weekday":"09:30-15:30","saturday":"09:30-15:30","sunday":"00:00-00:00","holiday":"00:00-00:00","closed":"日曜日・祝日（法人が定めるお盆・年末年始）","capacity":10,"id":"1050500485"},{"name":"運動学習型児童発達支援・放課後等デイサービス 　Reno wellness kids 小舞木教室","nameKana":"うんどうがくしゅうがたじどうはったつしえんほうかごとうでいさーびすりのうぇるねすきっずこまいぎきょうしつ","corp":"株式会社Reno Wellness","serviceTypes":["児童発達支援","放課後等デイサービス"],"ward":"太田市","address":"群馬県太田市小舞木町224２階","tel":"0276-57-8778","url":"","lat":36.28477535,"lng":139.38617788,"weekday":"","saturday":"","sunday":"","holiday":"","closed":"毎週日曜日　ゴールデンウィーク2日間　お盆　年末年始","capacity":null,"id":"1050500733"},{"name":"ぷりえ","nameKana":"ぷりえ","corp":"株式会社つぼみ","serviceTypes":["児童発達支援"],"ward":"太田市","address":"群馬県太田市飯田町1071アヴィラビル1階","tel":"0276-47-3480","url":"https://243-kids.com/purie/","lat":36.28909429,"lng":139.38353078,"weekday":"09:30-15:30","saturday":"","sunday":"","holiday":"09:30-15:30","closed":"土曜日、日曜日、年末年始、GW、夏季休暇","capacity":10,"id":"1050500634"},{"name":"発達支援Labo ランプ","nameKana":"はったつしえんらぼらんぷ","corp":"Frank Flat株式会社","serviceTypes":["児童発達支援","放課後等デイサービス"],"ward":"太田市","address":"群馬県太田市新井町325番地1","tel":"0276-55-1180","url":"https://ramp-labo.com/","lat":36.28432228,"lng":139.36891533,"weekday":"09:30-18:00","saturday":"","sunday":"","holiday":"09:30-17:00","closed":"土曜日・日曜日","capacity":10,"id":"1050500782"},{"name":"児童発達支援なないろキッズ","nameKana":"じどうはったつしえんなないろきっず","corp":"合同会社Larimar","serviceTypes":["児童発達支援"],"ward":"伊勢崎市","address":"群馬県伊勢崎市東小保方町3432-3","tel":"0270-75-4831","url":"https://r.goope.jp/nanairokids/","lat":36.32968496,"lng":139.2439027,"weekday":"","saturday":"","sunday":"","holiday":"","closed":"","capacity":null,"id":"1050400942"},{"name":"ひまわり学園","nameKana":"ひまわりがくえん","corp":"社会福祉法人太田松翠会","serviceTypes":["児童発達支援"],"ward":"太田市","address":"群馬県太田市藤阿久町５１","tel":"0276-31-8151","url":"https://himawari-asobou.com","lat":36.28494706,"lng":139.35935778,"weekday":"09:30-15:30","saturday":"","sunday":"","holiday":"","closed":"土・日・国民の祝日・12月29日〜1月3日・8月14日〜16日","capacity":30,"id":"1050500014"},{"name":"多機能型事業所ぽかぽか","nameKana":"たきのうがたじぎょうしょぽかぽか","corp":"社会福祉法人太田松翠会","serviceTypes":["児童発達支援","放課後等デイサービス"],"ward":"太田市","address":"群馬県太田市藤阿久町５１","tel":"0276-31-8151","url":"http://himawari-asobou.com","lat":36.28494706,"lng":139.35935778,"weekday":"09:30-15:30","saturday":"","sunday":"","holiday":"","closed":"ひまわり学園と同じ","capacity":5,"id":"1050500055"},{"name":"シェア","nameKana":"しぇあ","corp":"株式会社TMA","serviceTypes":["児童発達支援"],"ward":"沼田市","address":"群馬県沼田市沼須町216-6","tel":"0278-25-8241","url":"","lat":36.63715813,"lng":139.05665991,"weekday":"09:00-15:00","saturday":"","sunday":"","holiday":"","closed":"土日、祝日","capacity":10,"id":"1050600178"},{"name":"ハートグリーン","nameKana":"はーとぐりーん","corp":"社会福祉法人久仁会","serviceTypes":["児童発達支援"],"ward":"沼田市","address":"群馬県沼田市久屋原町４４４−２","tel":"0278-25-8193","url":"","lat":36.66693566,"lng":139.10747655,"weekday":"09:00-15:00","saturday":"","sunday":"","holiday":"","closed":"土、日、祝、12月２９日〜１月３日","capacity":10,"id":"1050600111"},{"name":"児童発達支援事業所ベリー","nameKana":"じどうはったつしえんじぎょうしょべりー","corp":"合同会社ルアナ","serviceTypes":["児童発達支援"],"ward":"館林市","address":"群馬県館林市高根町1721番地","tel":"0276-47-3682","url":"https://ruana.hp.gogo.jp","lat":36.26741334,"lng":139.51219418,"weekday":"09:30-15:30","saturday":"","sunday":"","holiday":"","closed":"土日祝日。8/13〜8/16。12/29〜1/4","capacity":10,"id":"1050700168"},{"name":"SORA","nameKana":"そら","corp":"合同会社SORA","serviceTypes":["児童発達支援","放課後等デイサービス"],"ward":"館林市","address":"群馬県館林市松原2-7-23","tel":"0276-56-4214","url":"","lat":36.23799095,"lng":139.54315649,"weekday":"09:00-18:00","saturday":"09:00-17:00","sunday":"","holiday":"09:00-17:00","closed":"日曜日","capacity":10,"id":"1050700200"},{"name":"児童発達支援事業所　えるもきっず","nameKana":"じどうはったつしえんじぎょうしょえるもきっず","corp":"合同会社ルーチェ","serviceTypes":["児童発達支援"],"ward":"館林市","address":"群馬県館林市堀工町1102-1","tel":"0276-78-7734","url":"","lat":36.22463667,"lng":139.53563488,"weekday":"09:30-15:30","saturday":"","sunday":"","holiday":"","closed":"土・日・祝日","capacity":10,"id":"1050700218"},{"name":"てらぴぁぽけっと館林教室","nameKana":"てらぴぁぽけっとたてばやしきょうしつ","corp":"CRAYON合同会社","serviceTypes":["児童発達支援"],"ward":"館林市","address":"群馬県館林市大谷町1055-8","tel":"0276-57-6354","url":"","lat":36.24378825,"lng":139.50439031,"weekday":"","saturday":"","sunday":"","holiday":"","closed":"","capacity":null,"id":"1050700234"},{"name":"スワンズ・ふれんど","nameKana":"すわんずふれんど","corp":"特定非営利活動法人しぜん教育研究学園","serviceTypes":["児童発達支援","放課後等デイサービス"],"ward":"館林市","address":"群馬県館林市松原三丁目15-6","tel":"0276-58-9170","url":"","lat":36.23435537,"lng":139.54440368,"weekday":"","saturday":"","sunday":"","holiday":"","closed":"","capacity":null,"id":"1050700275"},{"name":"児童発達支援・放課後等デイサービス　TaAi","nameKana":"じどうはったつしえんほうかごとうでいさーびすたあい","corp":"合同会社TaAi","serviceTypes":["児童発達支援","放課後等デイサービス"],"ward":"邑楽郡明和町","address":"群馬県邑楽郡明和町矢島274-6","tel":"0276-47-4104","url":"https://jidouhattatu-houkagodei-taai-2.jimdosite.com/","lat":36.21403445,"lng":139.52195337,"weekday":"09:30-17:00","saturday":"09:00-17:00","sunday":"","holiday":"","closed":"日曜　祝日　年末年始","capacity":10,"id":"1053100218"},{"name":"重心型放課後等デイサービスつむぎ","nameKana":"じゅうしんがたほうかごとうでいさーびすつむぎ","corp":"合同会社実咲","serviceTypes":["児童発達支援","放課後等デイサービス"],"ward":"館林市","address":"群馬県館林市広内町17-13","tel":"0276-58-2886","url":"https://tsumugi-misaki.studio.site/","lat":36.26033467,"lng":139.54010653,"weekday":"10:00-16:00","saturday":"10:00-16:00","sunday":"","holiday":"10:00-16:00","closed":"日曜日、年末年始（１２月３０日〜１月３日）","capacity":5,"id":"1050700325"},{"name":"館林市障がい児通園事業すくすく","nameKana":"たてばやしししょうがいじつうえんじぎょうすくすく","corp":"館林市","serviceTypes":["児童発達支援","放課後等デイサービス"],"ward":"館林市","address":"群馬県館林市成島町１５６５館林市障がい者総合支援センター","tel":"0276-61-3900","url":"http://tatebayashi-center.jp/children/","lat":36.25216754,"lng":139.49704925,"weekday":"09:00-16:00","saturday":"","sunday":"","holiday":"","closed":"土日・祝日、年末年始","capacity":10,"id":"1050700010"},{"name":"ぽっこクラブ２","nameKana":"ぽっこくらぶつー","corp":"ＮＰＯ法人ＳＵＮ−Ｔａｔｅｂａｙａｓｈｉ","serviceTypes":["児童発達支援"],"ward":"館林市","address":"群馬県館林市足次町58-2","tel":"0276-57-8745","url":"https://sun-tatebayashi.jp/","lat":36.26233985,"lng":139.5374844,"weekday":"09:00-15:00","saturday":"","sunday":"","holiday":"","closed":"土日　国民の祝日　年末年始　夏季休暇","capacity":10,"id":"1050700119"},{"name":"エースラボ","nameKana":"えーすらぼ","corp":"一般社団法人ＪＴＥＣＣ","serviceTypes":["児童発達支援"],"ward":"渋川市","address":"群馬県渋川市渋川1693-3","tel":"0279-25-7754","url":"","lat":36.4912701,"lng":139.00755517,"weekday":"","saturday":"","sunday":"","holiday":"","closed":"","capacity":null,"id":"1050800158"},{"name":"グリーン校","nameKana":"ぐりーんこう","corp":"有限会社ベラ","serviceTypes":["児童発達支援","放課後等デイサービス"],"ward":"渋川市","address":"群馬県渋川市石原1806-1","tel":"0279-25-7754","url":"","lat":36.49212821,"lng":138.99479784,"weekday":"","saturday":"","sunday":"","holiday":"","closed":"","capacity":null,"id":"1050800182"},{"name":"きっずすてーしょんKanade","nameKana":"きっずすてーしょんかなで","corp":"特定非営利活動法人Kanade","serviceTypes":["児童発達支援","放課後等デイサービス"],"ward":"渋川市","address":"群馬県渋川市金井655-6","tel":"0279-25-7016","url":"https://instagram.com/npokanade?igshid=MzRlODBiNWFlZA==","lat":36.50976814,"lng":138.99840281,"weekday":"10:00-16:00","saturday":"","sunday":"","holiday":"","closed":"土日,祝祭日、8/13〜8/15、12/29〜1/4","capacity":10,"id":"1050800224"},{"name":"オアフくらぶaloha","nameKana":"おあふくらぶあろは","corp":"合同会社オアフくらぶ","serviceTypes":["児童発達支援","放課後等デイサービス"],"ward":"渋川市","address":"群馬県渋川市八木原100−1","tel":"0279-26-3157","url":"","lat":36.46983327,"lng":139.01049191,"weekday":"10:00-14:00","saturday":"10:00-14:00","sunday":"","holiday":"10:00-14:00","closed":"日曜日","capacity":10,"id":"1050800208"},{"name":"オアフくらぶaloha　吉岡店","nameKana":"おあふくらぶあろはよしおかてん","corp":"合同会社オアフくらぶ","serviceTypes":["児童発達支援","放課後等デイサービス"],"ward":"北群馬郡吉岡町","address":"群馬県北群馬郡吉岡町南下1392","tel":"0279-25-7201","url":"https://oahuclub-aloha.com/","lat":36.44557784,"lng":139.00846306,"weekday":"10:00-14:00","saturday":"10:00-14:00","sunday":"","holiday":"10:00-14:00","closed":"日曜日","capacity":10,"id":"1052200134"},{"name":"オアフくらぶaloha　川島","nameKana":"おあふくらぶあろはかわしま","corp":"合同会社オアフくらぶ","serviceTypes":["児童発達支援","放課後等デイサービス"],"ward":"渋川市","address":"群馬県渋川市川島1803番地","tel":"0279-25-8030","url":"","lat":36.52632713,"lng":138.97959587,"weekday":"","saturday":"","sunday":"","holiday":"","closed":"","capacity":null,"id":"1050800240"},{"name":"グリーン校","nameKana":"ぐりーんこう","corp":"ブルームゲート合同会社","serviceTypes":["児童発達支援","放課後等デイサービス"],"ward":"渋川市","address":"群馬県渋川市石原1806-1","tel":"050-3575-2670","url":"","lat":36.49212543,"lng":138.99479784,"weekday":"","saturday":"","sunday":"","holiday":"","closed":"","capacity":null,"id":"1050800273"},{"name":"ひまわり園","nameKana":"ひまわりえん","corp":"社会福祉法人　三愛荘","serviceTypes":["児童発達支援"],"ward":"渋川市","address":"群馬県渋川市渋川３６６７−２","tel":"0279-25-0876","url":"","lat":36.49536313,"lng":138.95620726,"weekday":"","saturday":"","sunday":"","holiday":"","closed":"","capacity":null,"id":"1050800133"},{"name":"キッズルーム　アクア","nameKana":"きっずるーむあくあ","corp":"特定非営利活動法人ビューティフルデイズ","serviceTypes":["児童発達支援","放課後等デイサービス"],"ward":"渋川市","address":"群馬県渋川市半田2197-1","tel":"0279-26-3775","url":"","lat":36.4682422,"lng":139.03000155,"weekday":"08:45-14:45","saturday":"","sunday":"","holiday":"","closed":"土日祝祭日","capacity":10,"id":"1050800174"},{"name":"多機能型事業所ともみとちえこ","nameKana":"たきのうがたじぎょうしょともみとちえこ","corp":"株式会社　エム・アイ・コーポレーション","serviceTypes":["児童発達支援","放課後等デイサービス"],"ward":"藤岡市","address":"群馬県藤岡市下栗須794-1","tel":"0274-50-9982","url":"","lat":36.258612,"lng":139.0745606,"weekday":"","saturday":"","sunday":"","holiday":"","closed":"","capacity":null,"id":"1050900164"},{"name":"ひより二番館","nameKana":"ひよりにばんかん","corp":"株式会社コンフォートプレイス","serviceTypes":["児童発達支援","放課後等デイサービス"],"ward":"藤岡市","address":"群馬県藤岡市藤岡3093-1","tel":"0274-40-2722","url":"","lat":36.23320361,"lng":139.06998633,"weekday":"13:30-17:30","saturday":"09:30-16:00","sunday":"00:00-00:00","holiday":"09:30-17:30","closed":"","capacity":10,"id":"1050900149"},{"name":"こども発達サポート　iroha","nameKana":"こどもはったつさぽーといろは","corp":"社会福祉法人金光福祉会","serviceTypes":["児童発達支援","放課後等デイサービス"],"ward":"藤岡市","address":"群馬県藤岡市藤岡1629-1","tel":"0274-50-8102","url":"https://iroha-cds.jimdofree.com","lat":36.24612738,"lng":139.07844353,"weekday":"09:00-15:00","saturday":"","sunday":"","holiday":"","closed":"土、日、祝祭日、８月１３日〜１６日　１２月２９日〜１月５日","capacity":20,"id":"1050900222"},{"name":"児童発達支援センターこぽけっと","nameKana":"じどうはったつしえんせんたーこぽけっと","corp":"特定非営利活動法人　ぽけっと","serviceTypes":["児童発達支援"],"ward":"藤岡市","address":"群馬県藤岡市中栗須351-11","tel":"0274-25-8429","url":"http://www.flat1.jimdofree.com","lat":36.2590702,"lng":139.07349959,"weekday":"09:00-15:00","saturday":"","sunday":"","holiday":"","closed":"土、日、祝","capacity":20,"id":"1050900073"},{"name":"めぶき園","nameKana":"めぶきえん","corp":"社会福祉法人高太会","serviceTypes":["児童発達支援"],"ward":"富岡市","address":"群馬県富岡市宇田54-4","tel":"0274-67-7442","url":"","lat":36.26563401,"lng":138.85019308,"weekday":"08:30-15:00","saturday":"","sunday":"","holiday":"","closed":"土・日・祝日および8月13日から16日、12月29日から1月5日","capacity":10,"id":"1051000089"},{"name":"クレールさかい","nameKana":"くれーるさかい","corp":"有限会社グループケアホームほほえみ","serviceTypes":["児童発達支援","放課後等デイサービス"],"ward":"伊勢崎市","address":"群馬県伊勢崎市境下渕名2760-10","tel":"0270-75-3535","url":"https://gh-hohoemi.com/","lat":36.30028822,"lng":139.2481537,"weekday":"10:00-14:00","saturday":"10:00-14:00","sunday":"","holiday":"","closed":"祝日、日曜日、12月30日〜1月3日","capacity":10,"id":"1050400413"},{"name":"きっずサポートてんま","nameKana":"きっずさぽーとてんま","corp":"ＮＰＯ法人ＧＲＯＷ","serviceTypes":["児童発達支援"],"ward":"安中市","address":"群馬県安中市安中三丁目24番26号","tel":"027-329-6460","url":"http://grow-tenma.com","lat":36.32983751,"lng":138.9012193,"weekday":"09:00-16:30","saturday":"","sunday":"","holiday":"","closed":"土・日・祝日・夏季及び年末年始休業日","capacity":16,"id":"1051100095"},{"name":"児童発達支援事業所asoviva","nameKana":"じどうはったつしえんじぎょうしょあそびば","corp":"株式会社アソビバ","serviceTypes":["児童発達支援"],"ward":"桐生市","address":"群馬県桐生市仲町2-768-13","tel":"0277-46-9021","url":"","lat":36.40930917,"lng":139.3403642,"weekday":"09:00-15:00","saturday":"09:00-15:00","sunday":"","holiday":"09:00-15:00","closed":"日曜日","capacity":10,"id":"1050300266"},{"name":"児童発達支援事業所asoviva2","nameKana":"じどうはったつしえんじぎょうしょあそびばせかんど","corp":"株式会社アソビバ","serviceTypes":["児童発達支援"],"ward":"桐生市","address":"群馬県桐生市本町6丁目380","tel":"0277-46-9156","url":"","lat":36.4087648,"lng":139.3371673,"weekday":"","saturday":"","sunday":"","holiday":"","closed":"","capacity":null,"id":"1051200135"},{"name":"児童発達支援事業所chouchou（シュシュ）みどり","nameKana":"じどうはったつしえんじぎょうしょしゅしゅみどり","corp":"株式会社PROPS","serviceTypes":["児童発達支援"],"ward":"みどり市","address":"群馬県みどり市笠懸町西鹿田426-1","tel":"090-8510-1191","url":"https://onelife-inc.com/facility/chouchou-midori/","lat":36.3979204,"lng":139.25883638,"weekday":"09:00-15:00","saturday":"","sunday":"","holiday":"","closed":"土日祝・お盆・年末年始","capacity":10,"id":"1051200192"},{"name":"児童発達支援・放課後等デイサービス七彩","nameKana":"じどうはったつしえんほうかごとうでいさーびすなないろ","corp":"株式会社小さな願い","serviceTypes":["児童発達支援","放課後等デイサービス"],"ward":"みどり市","address":"群馬県みどり市笠懸町阿左美3397-1","tel":"090-4015-4886","url":"http://hp.kaipoke.biz/urz/","lat":36.3868088,"lng":139.30887335,"weekday":"09:00-17:00","saturday":"","sunday":"","holiday":"","closed":"日・祝・お盆・年末年始","capacity":10,"id":"1051200234"},{"name":"キッズサポートEpers","nameKana":"きっずさぽーとえぱーず","corp":"株式会社Epers","serviceTypes":["児童発達支援"],"ward":"伊勢崎市","address":"群馬県伊勢崎市西久保町2丁目1426","tel":"050-1808-2100","url":"https://epers.jp/","lat":36.37753557,"lng":139.24005765,"weekday":"","saturday":"","sunday":"","holiday":"","closed":"","capacity":null,"id":"1050400884"},{"name":"児童発達支援事業所・放課後等デイサービスりえら","nameKana":"じどうはったつしえんじぎょうしょほうかごとうでいさーびすりえら","corp":"社会福祉法人希望の家","serviceTypes":["児童発達支援","放課後等デイサービス"],"ward":"みどり市","address":"群馬県みどり市大間々町大間々2089-21","tel":"0277-73-2605","url":"https://www.kibounoie.or.jp","lat":36.41396897,"lng":139.28588088,"weekday":"09:00-17:00","saturday":"","sunday":"","holiday":"","closed":"土曜日・日曜日・祝日・年末年始休暇・りえらが定めた休日","capacity":5,"id":"1051200259"},{"name":"児童発達支援事業所　笑","nameKana":"じどうはったつしえんじぎょうしょえむ","corp":"社会福祉法人清鳳会","serviceTypes":["児童発達支援"],"ward":"みどり市","address":"群馬県みどり市笠懸町鹿2549-1放課後等デイサービス陽だまり内","tel":"0277-46-7281","url":"","lat":36.40342303,"lng":139.28428953,"weekday":"09:30-15:30","saturday":"","sunday":"","holiday":"","closed":"毎週土、日、祝日","capacity":10,"id":"1051200127"},{"name":"陽だまり","nameKana":"ひだまり","corp":"社会福祉法人榛栄会","serviceTypes":["児童発達支援"],"ward":"北群馬郡榛東村","address":"群馬県北群馬郡榛東村広馬場1777番地9","tel":"0279-26-8091","url":"https://shinei-kai.jp","lat":36.41913013,"lng":138.96603215,"weekday":"09:30-17:30","saturday":"","sunday":"","holiday":"","closed":"土・日・祝日・お盆期間・年末年始","capacity":5,"id":"1052200142"},{"name":"樹里の家","nameKana":"きりのいえ","corp":"合同会社樹里の家","serviceTypes":["児童発達支援","放課後等デイサービス"],"ward":"北群馬郡榛東村","address":"群馬県北群馬郡榛東村新井２８８７−１つつじヶ丘ハウスＢ棟","tel":"0279-26-3776","url":"","lat":36.42476101,"lng":139.00076782,"weekday":"","saturday":"","sunday":"","holiday":"","closed":"","capacity":null,"id":"1052200068"},{"name":"森のにこちゃん","nameKana":"もりのにこちゃん","corp":"特定非営利活動法人笑心ちゃん","serviceTypes":["児童発達支援"],"ward":"北群馬郡榛東村","address":"群馬県北群馬郡榛東村山子田2004-8","tel":"0279-26-9238","url":"http://www.npo-nikochan8125.com/","lat":36.44805429,"lng":138.96658618,"weekday":"","saturday":"","sunday":"","holiday":"","closed":"","capacity":null,"id":"1052200126"},{"name":"スマイルハウスにこちゃん","nameKana":"すまいるはうすにこちゃん","corp":"特定非営利活動法人笑心ちゃん","serviceTypes":["児童発達支援","放課後等デイサービス"],"ward":"北群馬郡榛東村","address":"群馬県北群馬郡榛東村山子田1911-2","tel":"0279-70-8125","url":"http://www.npo-nikochan8125.com/","lat":36.45018748,"lng":138.97079666,"weekday":"09:00-15:00","saturday":"","sunday":"","holiday":"","closed":"土・日曜日・祝日","capacity":10,"id":"1052200019"},{"name":"ぽらりす","nameKana":"ぽらりす","corp":"株式会社ウィズバンク","serviceTypes":["児童発達支援","放課後等デイサービス"],"ward":"北群馬郡吉岡町","address":"群馬県北群馬郡吉岡町大久保1661-1","tel":"0279-26-8577","url":"","lat":36.43148579,"lng":139.03025374,"weekday":"","saturday":"","sunday":"","holiday":"","closed":"","capacity":null,"id":"1052200159"},{"name":"多機能型事業所あにまーと","nameKana":"たきのうがたじぎょうしょあにまーと","corp":"特定非営利活動法人吾妻の福祉を推進する会","serviceTypes":["児童発達支援","放課後等デイサービス"],"ward":"高崎市","address":"群馬県高崎市上豊岡町566-13","tel":"090-5523-7298","url":"https://agatsuma-fukushi.jp/5.html","lat":36.33946561,"lng":138.97122495,"weekday":"","saturday":"","sunday":"","holiday":"","closed":"","capacity":15,"id":"1050201589"},{"name":"ともい木","nameKana":"ともいき","corp":"社会福祉法人昭和ゆたか会","serviceTypes":["児童発達支援"],"ward":"高崎市","address":"群馬県高崎市稲荷台町285-1","tel":"027-384-3226","url":"http://www5.kannet.ne.jp/~seiyanomorigakusya/","lat":36.3218844,"lng":139.003326,"weekday":"09:00-15:00","saturday":"","sunday":"","holiday":"","closed":"土日、祝日、年末年始、法人の指定した休日","capacity":10,"id":"1050201142"},{"name":"利根沼田子ども発達支援センターリズム","nameKana":"とねぬまたこどもはったつしえんせんたーりずむ","corp":"社会福祉法人 北毛清流会","serviceTypes":["児童発達支援"],"ward":"沼田市","address":"群馬県沼田市上原町1801-66","tel":"0278-25-3526","url":"http://hokumouseiryukai.jp","lat":36.64878182,"lng":139.06227573,"weekday":"","saturday":"","sunday":"","holiday":"","closed":"土曜日、日曜日、国民の祝日","capacity":16,"id":"1050600186"},{"name":"スペースゆう","nameKana":"すぺーすゆう","corp":"株式会社ゆう","serviceTypes":["児童発達支援","放課後等デイサービス"],"ward":"沼田市","address":"群馬県沼田市榛名町3271-14","tel":"0278-77-4728","url":"http://space-yu.co.jp/","lat":36.6477924,"lng":139.03458675,"weekday":"09:00-15:00","saturday":"09:00-17:00","sunday":"","holiday":"","closed":"土曜日、日曜日、祝日、年末年始（12/30〜1/3の5日間）","capacity":20,"id":"1050600087"},{"name":"スペースあい","nameKana":"すぺーすあい","corp":"株式会社ゆう","serviceTypes":["児童発達支援","放課後等デイサービス"],"ward":"利根郡みなかみ町","address":"群馬県利根郡みなかみ町下牧３９９−１","tel":"0278-25-4530","url":"https://www.space-yu.co.jp/","lat":36.69103971,"lng":138.99001388,"weekday":"09:00-15:00","saturday":"09:00-17:00","sunday":"","holiday":"","closed":"土曜日、日曜日、祝日、年末年始12/30〜1/3","capacity":10,"id":"1052700018"},{"name":"ぽっぽの”わ”","nameKana":"ぽっぽのわ","corp":"特定非営利活動法人カシオペイア","serviceTypes":["児童発達支援"],"ward":"佐波郡玉村","address":"群馬県佐波郡玉村町大字下新田265-3","tel":"0270-64-5410","url":"","lat":36.30664306,"lng":139.11611264,"weekday":"","saturday":"","sunday":"","holiday":"","closed":"","capacity":null,"id":"1052800065"},{"name":"多機能型事業所　糸ぐるま伊勢崎教室","nameKana":"たきのうがたじぎょうしょいとぐるまいせさききょうしつ","corp":"合同会社レーベン","serviceTypes":["児童発達支援","放課後等デイサービス"],"ward":"伊勢崎市","address":"群馬県伊勢崎市下植木町633-1","tel":"0270-27-5763","url":"https://leben-llc.com/","lat":36.31685721,"lng":139.21574484,"weekday":"","saturday":"","sunday":"","holiday":"","closed":"","capacity":null,"id":"1050400660"},{"name":"多機能型事業所　糸ぐるま伊勢崎第2教室","nameKana":"たきのうがたじぎょうしょいとぐるまだいにきょうしつ","corp":"合同会社レーベン","serviceTypes":["児童発達支援","放課後等デイサービス"],"ward":"伊勢崎市","address":"群馬県伊勢崎市富塚町268-25","tel":"0270-65-9565","url":"","lat":36.27339575,"lng":139.19356639,"weekday":"","saturday":"","sunday":"","holiday":"","closed":"","capacity":null,"id":"1050400934"},{"name":"多機能型事業所　糸ぐるま玉村町教室","nameKana":"たきのうがたじぎょうしょいとぐるまたまむらまちきょうしつ","corp":"合同会社レーベン","serviceTypes":["児童発達支援","放課後等デイサービス"],"ward":"佐波郡玉村","address":"群馬県佐波郡玉村町上飯島237-7","tel":"0270-75-2328","url":"https://leben-llc.com/","lat":36.30309356,"lng":139.12555594,"weekday":"","saturday":"","sunday":"","holiday":"","closed":"","capacity":null,"id":"1052800123"},{"name":"多機能型事業所　うさぎ＆かめれおん　kokai","nameKana":"たきのうがたじぎょうしょうさぎあんどかめれおんこかい","corp":"合同会社うさぎ＆かめれおん","serviceTypes":["児童発達支援","放課後等デイサービス"],"ward":"邑楽郡大泉町","address":"群馬県邑楽郡大泉町古海277","tel":"0276-61-3763","url":"","lat":36.22530669,"lng":139.41683365,"weekday":"10:00-17:00","saturday":"","sunday":"","holiday":"10:00-17:00","closed":"土曜日　日曜日　年末年始（12/29〜1/3）","capacity":10,"id":"1053100234"},{"name":"多機能型事業所オーロラ","nameKana":"たきのうがたじぎょうしょおーろら","corp":"社会福祉法人こころみの会","serviceTypes":["児童発達支援","放課後等デイサービス"],"ward":"邑楽郡邑楽町","address":"群馬県邑楽郡邑楽町中野2204-9","tel":"0276-49-6644","url":"","lat":36.26100149,"lng":139.45494734,"weekday":"","saturday":"","sunday":"","holiday":"","closed":"","capacity":null,"id":"1053100200"},{"name":"てぃだのふぁ","nameKana":"てぃだのふあ","corp":"社会福祉法人こころみの会","serviceTypes":["児童発達支援"],"ward":"邑楽郡邑楽町","address":"群馬県邑楽郡邑楽町中野２２０４−１","tel":"0276-91-8130","url":"https://kokorominokai.net/","lat":36.26162365,"lng":139.4549362,"weekday":"09:00-15:00","saturday":"","sunday":"","holiday":"","closed":"土曜日、国民の祝日、12月29日から1月3日","capacity":10,"id":"1053100010"},{"name":"メディヴィレッジ群馬Kids","nameKana":"めでぃびれっじぐんまきっず","corp":"Five.H株式会社","serviceTypes":["児童発達支援"],"ward":"高崎市","address":"群馬県高崎市新保町93","tel":"050-5526-1092","url":"","lat":36.34215604,"lng":139.03803174,"weekday":"","saturday":"","sunday":"","holiday":"","closed":"","capacity":null,"id":"1050201498"},{"name":"one","nameKana":"わん","corp":"株式会社NOONE","serviceTypes":["児童発達支援","放課後等デイサービス"],"ward":"沼田市","address":"群馬県沼田市高橋場町4586","tel":"0278-25-4900","url":"https://www.noone.jp/","lat":36.65590595,"lng":139.06043677,"weekday":"11:00-17:00","saturday":"","sunday":"","holiday":"09:00-15:00","closed":"土曜日、日曜日、年末年始","capacity":10,"id":"1050600137"},{"name":"てらぴぁぽけっと太田教室","nameKana":"てらぴぁぽけっとおおたきょうしつ","corp":"株式会社ルセット","serviceTypes":["児童発達支援"],"ward":"太田市","address":"群馬県太田市新井町549-14","tel":"0276-55-3406","url":"","lat":36.28896626,"lng":139.3693152,"weekday":"","saturday":"","sunday":"","holiday":"","closed":"","capacity":null,"id":"1050500675"},{"name":"ルプシ","nameKana":"るぷし","corp":"株式会社М・Ｅホールディングス","serviceTypes":["児童発達支援"],"ward":"前橋市","address":"群馬県前橋市三俣町３−２４−２０","tel":"0272266072","url":"http://lupsi-maebashi.com","lat":36.40011906,"lng":139.08385575,"weekday":"09:30-15:35","saturday":"09:30-15:35","sunday":"","holiday":"","closed":"","capacity":10,"id":"1050101128"},{"name":"グローバルキッズメソッド68","nameKana":"ぐるーばるきっずめそっどしっくすてぃえいと","corp":"ハッピーライフケア株式会社","serviceTypes":["児童発達支援"],"ward":"伊勢崎市","address":"群馬県伊勢崎市連取町1510-1","tel":"0270-75-1374","url":"","lat":36.31588436,"lng":139.18048476,"weekday":"","saturday":"","sunday":"","holiday":"","closed":"","capacity":null,"id":"1050400728"},{"name":"グローバルキッズメソッド88","nameKana":"ぐろーばるきっずめそっどえいてぃえいと","corp":"ハッピーライフケア株式会社","serviceTypes":["児童発達支援"],"ward":"みどり市","address":"群馬県みどり市大間々町大間々466-11","tel":"0277-32-4229","url":"","lat":36.41917379,"lng":139.28198119,"weekday":"","saturday":"","sunday":"","holiday":"","closed":"","capacity":null,"id":"1051200200"},{"name":"グローバルキッズメソッド99","nameKana":"ぐろーばるきっずめそっどないんてぃないん","corp":"ハッピーライフケア株式会社","serviceTypes":["児童発達支援","放課後等デイサービス"],"ward":"邑楽郡大泉町","address":"群馬県邑楽郡大泉町吉田1684-1","tel":"0276-47-4260","url":"","lat":36.24157689,"lng":139.40222286,"weekday":"","saturday":"","sunday":"","holiday":"","closed":"","capacity":null,"id":"1053100226"},{"name":"グローバルキッズメソッド７０","nameKana":"ぐろーばるきっずめそっどななじゅう","corp":"ハッピーライフケア株式会社","serviceTypes":["児童発達支援"],"ward":"前橋市","address":"群馬県前橋市天川大島町３−１−２","tel":"027-212-4781","url":"","lat":36.38124407,"lng":139.10172366,"weekday":"08:00-19:00","saturday":"08:00-19:00","sunday":"","holiday":"08:00-19:00","closed":"日、8/13-8/16、12/31-1/3","capacity":10,"id":"1050101045"},{"name":"グローバルキッズメソッド１０１","nameKana":"ぐろーばるきっずめそっどいちまるいち","corp":"ハッピーライフケア株式会社","serviceTypes":["児童発達支援"],"ward":"前橋市","address":"群馬県前橋市大利根町二丁目１番６号","tel":"027-289-5941","url":"","lat":36.36094895,"lng":139.06285371,"weekday":"08:00-19:00","saturday":"08:00-19:00","sunday":"","holiday":"08:00-19:00","closed":"日、8/13-8/16、12/31-1/3","capacity":10,"id":"1050101144"},{"name":"グローバルキッズメソッド77","nameKana":"ぐろーばるきっずめそっどせぶんてぃーせぶん","corp":"ハッピーホールディングス株式会社","serviceTypes":["児童発達支援"],"ward":"伊勢崎市","address":"群馬県伊勢崎市連取町1510-1","tel":"0270-75-1446","url":"","lat":36.31584547,"lng":139.18051531,"weekday":"","saturday":"","sunday":"","holiday":"","closed":"","capacity":null,"id":"1050400744"},{"name":"フォレストキッズ太田児童発達支援教室","nameKana":"ふぉれすときっずおおたじどうはったつしえんきょうしつ","corp":"株式会社産業医システムズ","serviceTypes":["児童発達支援","放課後等デイサービス"],"ward":"太田市","address":"群馬県太田市浜町 5-12ハイツエルブルース　1階","tel":"0276-55-2701","url":"https://www.forestkids-ota.jp","lat":36.293477,"lng":139.37526743,"weekday":"10:00-18:00","saturday":"09:30-16:00","sunday":"09:30-16:00","holiday":"10:00-18:00","closed":"なし","capacity":10,"id":"1050500709"},{"name":"さくらキッズ","nameKana":"さくらきっず","corp":"株式会社Ｊパートナーズ","serviceTypes":["児童発達支援"],"ward":"高崎市","address":"群馬県高崎市緑町2丁目16-4　Ｊ1ビル1Ｆ","tel":"027-370-6210","url":"","lat":36.3544452,"lng":139.00341407,"weekday":"09:30-15:30","saturday":"09:30-15:30","sunday":"","holiday":"09:30-15:30","closed":"土曜、日曜、年末年始","capacity":10,"id":"1050200987"},{"name":"縁フォールド明和","nameKana":"えんふぉーるどめいわ","corp":"株式会社縁グループ","serviceTypes":["児童発達支援","放課後等デイサービス"],"ward":"邑楽郡明和町","address":"群馬県邑楽郡明和町新里107番地1","tel":"0276-55-1378","url":"http://engroup-kids.com/","lat":36.21007967,"lng":139.53021395,"weekday":"10:00-16:00","saturday":"10:00-16:00","sunday":"","holiday":"","closed":"日・祝　8/13〜15、12/29〜1/4","capacity":10,"id":"1050700101"},{"name":"コペルプラス　前橋六供教室","nameKana":"こぺるぷらすまえばしろっくきょうしつ","corp":"株式会社クラ・ゼミ","serviceTypes":["児童発達支援"],"ward":"前橋市","address":"群馬県前橋市六供町五丁目20番地8サザンテラスB","tel":"027-289-6597","url":"","lat":36.36728441,"lng":139.07844087,"weekday":"","saturday":"","sunday":"","holiday":"","closed":"","capacity":null,"id":"1050101201"},{"name":"こどもサポート「きらり」太田第３事業所","nameKana":"こどもさぽーときらりおおただいさんじぎょうしょ","corp":"株式会社クラ・ゼミ","serviceTypes":["児童発達支援","放課後等デイサービス"],"ward":"太田市","address":"群馬県太田市浜町69-4","tel":"0276-52-8825","url":"http://kirari-kodomo.com/","lat":36.28769684,"lng":139.36307687,"weekday":"10:00-18:00","saturday":"09:30-17:00","sunday":"","holiday":"10:00-18:00","closed":"日、ゴールデンウィーク、お盆、年末年始","capacity":10,"id":"1050500394"},{"name":"こどもサポート「きらり」伊勢崎事業所","nameKana":"こどもさぽーときらりいせさきじむしょ","corp":"株式会社クラ・ゼミ","serviceTypes":["児童発達支援","放課後等デイサービス"],"ward":"伊勢崎市","address":"群馬県伊勢崎市除ヶ町３−３マルクラ貸店舗１階２号室","tel":"0270-27-5316","url":"http://kirari-kodomo.com/","lat":36.27861195,"lng":139.19741293,"weekday":"09:00-17:15","saturday":"09:00-17:15","sunday":"","holiday":"","closed":"","capacity":10,"id":"1050400314"},{"name":"こどもサポート「きらり」太田事業所","nameKana":"こどもさぽーときらりおおたじぎょうしょ","corp":"株式会社クラ・ゼミ","serviceTypes":["児童発達支援","放課後等デイサービス"],"ward":"太田市","address":"群馬県太田市小舞木町３１１","tel":"0276-55-4096","url":"http://kirari-kodomo.com","lat":36.28388931,"lng":139.38549184,"weekday":"09:00-17:00","saturday":"09:00-17:00","sunday":"","holiday":"09:00-17:00","closed":"日曜日、ゴールデンウィーク、お盆、年末年始、詳しくは年間スケジュールによる","capacity":10,"id":"1050500188"},{"name":"こどもサポート「きらり」太田第２事業所","nameKana":"こどもさぽーときらりおおただいにじぎょうしょ","corp":"株式会社クラ・ゼミ","serviceTypes":["児童発達支援","放課後等デイサービス"],"ward":"太田市","address":"群馬県太田市東矢島１２６８−２","tel":"0276-50-1141","url":"http://kirari-kodomo.com/","lat":36.27240161,"lng":139.38790865,"weekday":"10:00-18:00","saturday":"10:00-18:00","sunday":"","holiday":"10:00-18:00","closed":"日曜","capacity":10,"id":"1050500220"},{"name":"こどもサークル前橋東","nameKana":"こどもさーくるまえばしひがし","corp":"株式会社サシノベルテ","serviceTypes":["放課後等デイサービス"],"ward":"前橋市","address":"群馬県前橋市元総社町１７５番地２","tel":"027-280-6600","url":"","lat":36.38359819,"lng":139.05100122,"weekday":"14:00-17:45","saturday":"09:00-15:00","sunday":"","holiday":"09:00-15:00","closed":"日曜日、年末年始（12月31日〜1月3日）","capacity":10,"id":"1050100807"},{"name":"あおぞら","nameKana":"あおぞら","corp":"特定非営利活動法人ハートフルふきあげ","serviceTypes":["放課後等デイサービス"],"ward":"邑楽郡千代田町","address":"群馬県邑楽郡千代田町大字上五箇422-2","tel":"0276-55-3016","url":"","lat":36.19805648,"lng":139.47108483,"weekday":"","saturday":"","sunday":"","holiday":"","closed":"","capacity":null,"id":"1053100150"},{"name":"After school program Ohana","nameKana":"あふたーすくーるぷろぐらむおはな","corp":"一般社団法人　まえばし子育て支援協会","serviceTypes":["放課後等デイサービス"],"ward":"前橋市","address":"群馬県前橋市広瀬町二丁目２４番地１75-N棟　１０１号","tel":"027-225-7998","url":"https://hp.kaipoke.biz/cyy/","lat":36.36073008,"lng":139.10871496,"weekday":"13:30-17:30","saturday":"10:00-16:00","sunday":"","holiday":"10:00-16:00","closed":"お盆休み　年末年始　日曜日　年間予定表による","capacity":10,"id":"1050100864"},{"name":"ジーニアスユニバーサルメソッド","nameKana":"じーにあすゆにばーさるめそっど","corp":"株式会社オリエンタルジャパンHD","serviceTypes":["放課後等デイサービス"],"ward":"高崎市","address":"群馬県高崎市吉井町長根２０５９−１","tel":"0273870171","url":"https://gum-child.jp/","lat":36.25069759,"lng":138.97050794,"weekday":"10:00-18:00","saturday":"10:00-18:00","sunday":"","holiday":"","closed":"日曜日","capacity":null,"id":"1050201274"},{"name":"とらびっこ","nameKana":"とらびっこ","corp":"株式会社トラビエッソ","serviceTypes":["放課後等デイサービス"],"ward":"前橋市","address":"群馬県前橋市六供町4丁目38番地１２","tel":"027-289-5451","url":"https://torabikko.com/","lat":36.36889539,"lng":139.0832181,"weekday":"14:30-17:45","saturday":"","sunday":"","holiday":"09:00-16:00","closed":"土、日、祝日等","capacity":10,"id":"1050100906"},{"name":"ココエール　tonan","nameKana":"ここえーるとなん","corp":"株式会社いち花","serviceTypes":["放課後等デイサービス"],"ward":"前橋市","address":"群馬県前橋市堀之下町15番地1","tel":"09022372150","url":"","lat":36.38875198,"lng":139.11990697,"weekday":"","saturday":"","sunday":"","holiday":"","closed":"","capacity":null,"id":"1050101193"},{"name":"びーばーハウスかめさと","nameKana":"びーばーはうすかめさと","corp":"合同会社びーばーハウス","serviceTypes":["放課後等デイサービス"],"ward":"前橋市","address":"群馬県前橋市亀里町601番地2","tel":"027-212-0774","url":"","lat":36.34059587,"lng":139.09197336,"weekday":"","saturday":"","sunday":"","holiday":"","closed":"","capacity":null,"id":"1050101185"},{"name":"放課後等デイサービスchouchou MIYAKO","nameKana":"ほうかごとうでいさーびすしゅしゅみやこ","corp":"株式会社ワンライフ","serviceTypes":["放課後等デイサービス"],"ward":"伊勢崎市","address":"群馬県伊勢崎市宮子町3092-1ADMオフィスビル　２F","tel":"080-9435-2542","url":"","lat":36.33236069,"lng":139.16270572,"weekday":"11:00-17:30","saturday":"","sunday":"","holiday":"","closed":"土曜日、日曜日、祝日","capacity":10,"id":"1050400496"},{"name":"放課後等デイサービス　ｃｈｏｕｃｈｏｕ（シュシュ）","nameKana":"ほうかごとうでいさーびすしゅしゅ","corp":"株式会社ワンライフ","serviceTypes":["放課後等デイサービス"],"ward":"伊勢崎市","address":"群馬県伊勢崎市小泉町３５３−５","tel":"080-9435-2431","url":"","lat":36.3357735,"lng":139.25633743,"weekday":"11:30-17:30","saturday":"","sunday":"","holiday":"10:00-16:00","closed":"","capacity":10,"id":"1050400363"},{"name":"メロディーおおまま","nameKana":"めろでぃーおおまま","corp":"株式会社メロディー","serviceTypes":["放課後等デイサービス"],"ward":"みどり市","address":"群馬県みどり市大間々町大間々５６４−１","tel":"0277-46-6606","url":"","lat":36.4210374,"lng":139.27878702,"weekday":"14:00-17:00","saturday":"09:00-17:00","sunday":"","holiday":"","closed":"日曜日、祝日","capacity":10,"id":"1051200101"},{"name":"ハッピーキャンプ吉岡第二教室","nameKana":"はっぴーきゃんぷよしおかだいにきょうしつ","corp":"株式会社クレア","serviceTypes":["放課後等デイサービス"],"ward":"北群馬郡吉岡町","address":"群馬県北群馬郡吉岡町大久保3513−1","tel":"0279-25-7901","url":"http://happycamp.sakura.ne.jp/","lat":36.44287555,"lng":139.01409332,"weekday":"15:00-18:00","saturday":"09:00-17:00","sunday":"","holiday":"","closed":"日・祝","capacity":10,"id":"1052200084"},{"name":"ハッピーキャンプ吉岡教室","nameKana":"はっぴーきゃんぷよしおかきょうしつ","corp":"株式会社クレア","serviceTypes":["放課後等デイサービス"],"ward":"北群馬郡吉岡町","address":"群馬県北群馬郡吉岡町大久保1960-2","tel":"0279-25-8966","url":"","lat":36.43717365,"lng":139.01688792,"weekday":"15:00-18:00","saturday":"09:00-17:00","sunday":"","holiday":"","closed":"日曜日・祝祭日","capacity":10,"id":"1052200050"},{"name":"ジーニアスユニバーサルメソッド前橋その１","nameKana":"じーにあすゆにばーさるめそっどまえばしそのいち","corp":"株式会社　オリエンタルジャパンHD","serviceTypes":["放課後等デイサービス"],"ward":"前橋市","address":"群馬県前橋市大友町3-14-11","tel":"027-225-5670","url":"","lat":36.39066933,"lng":139.04469603,"weekday":"10:00-18:00","saturday":"10:00-18:00","sunday":"","holiday":"10:00-18:00","closed":"日曜日","capacity":10,"id":"1050100955"},{"name":"放課後等児童サービスふわふわふくろう","nameKana":"ほうかごとうじどうでいさーびすふわふわふくろう","corp":"株式会社　ケアアンジュ","serviceTypes":["放課後等デイサービス"],"ward":"前橋市","address":"群馬県前橋市五代町９０９−１","tel":"027-230-2960","url":"","lat":36.41918386,"lng":139.11754041,"weekday":"14:00-18:00","saturday":"10:00-16:30","sunday":"","holiday":"","closed":"月曜日から土曜日までとする。但し、国民の祝日、夏季休暇、年末年始。","capacity":10,"id":"1050100344"},{"name":"放課後等児童サービスわくわくふくろう","nameKana":"ほうかごとうじどうでいさーびすわくわくふくろう","corp":"株式会社　ケアアンジュ","serviceTypes":["放課後等デイサービス"],"ward":"前橋市","address":"群馬県前橋市樋越町５００番地２","tel":"027-230-4296","url":"","lat":36.41329193,"lng":139.16773313,"weekday":"14:00-18:00","saturday":"","sunday":"","holiday":"","closed":"月曜日から土曜日までとする。但し、国民の祝日、夏季休暇、年末年始。","capacity":10,"id":"1050100823"},{"name":"みらい","nameKana":"みらい","corp":"社会福祉法人　はーとわーく","serviceTypes":["放課後等デイサービス"],"ward":"前橋市","address":"群馬県前橋市川曲町１７６−１","tel":"027-289-3514","url":"http://hatowaku.or.jp","lat":36.35463308,"lng":139.0484412,"weekday":"13:00-17:00","saturday":"","sunday":"","holiday":"","closed":"","capacity":10,"id":"1050100419"},{"name":"サニーズマーケット","nameKana":"さにーずまーけっと","corp":"社会福祉法人三山黎明会","serviceTypes":["放課後等デイサービス"],"ward":"前橋市","address":"群馬県前橋市田口町177-3","tel":"027-212-8066","url":"http://mireimei.or.jp","lat":36.44202604,"lng":139.0481736,"weekday":"14:00-18:00","saturday":"","sunday":"","holiday":"10:00-16:00","closed":"土曜日・日曜日・夏休み（８月１５日前後）・冬休み（１２月末から１月初旬）","capacity":10,"id":"1050100880"},{"name":"だるま自立支援ラボ","nameKana":"だるまじりつしえんらぼ","corp":"株式会社　オグラコーポレーション","serviceTypes":["放課後等デイサービス"],"ward":"前橋市","address":"群馬県前橋市田口町１４３番地１","tel":"027-219-1032","url":"","lat":36.43814878,"lng":139.04920152,"weekday":"","saturday":"","sunday":"","holiday":"","closed":"","capacity":null,"id":"1050100831"},{"name":"すまいるキッズたんぽぽ","nameKana":"すまいるきっずたんぽぽ","corp":"社会福祉法人前橋あそか会","serviceTypes":["放課後等デイサービス"],"ward":"前橋市","address":"群馬県前橋市江木町１２５１番３","tel":"027-269-3620","url":"http://m-asokakai.jp/","lat":36.40251756,"lng":139.13423254,"weekday":"13:30-18:00","saturday":"","sunday":"","holiday":"","closed":"土曜・日曜・国民の祝日・8/13〜15・12/30〜1/3","capacity":10,"id":"1050100021"},{"name":"ふれんどクラブたんぽぽ","nameKana":"ふれんどくらぶたんぽぽ","corp":"社会福祉法人前橋あそか会","serviceTypes":["放課後等デイサービス"],"ward":"前橋市","address":"群馬県前橋市江木町１２３１","tel":"027-269-3620","url":"","lat":36.40534223,"lng":139.13368544,"weekday":"13:30-18:00","saturday":"","sunday":"","holiday":"","closed":"土曜・日曜・祝日・8/13〜15・12/30〜1/3","capacity":10,"id":"1050100047"},{"name":"糸車","nameKana":"いとぐるま","corp":"社会福祉法人一越会","serviceTypes":["放課後等デイサービス"],"ward":"前橋市","address":"群馬県前橋市城東町３−２０−７","tel":"027-260-6888","url":"http://www.hitokoshi.org","lat":36.39250892,"lng":139.07878429,"weekday":"13:00-18:00","saturday":"09:00-16:00","sunday":"","holiday":"","closed":"日・月曜日および国民の祝日、１２月２９日から１月３日まで、８月１３日から１５日","capacity":10,"id":"1050100096"},{"name":"ぱれっと","nameKana":"ぱれっと","corp":"社会福祉法人一越会","serviceTypes":["放課後等デイサービス"],"ward":"前橋市","address":"群馬県前橋市城東町３−１５−２６","tel":"027-260-6888","url":"http://www.hitokoshi.org","lat":36.39231727,"lng":139.07823991,"weekday":"13:00-18:00","saturday":"09:00-16:00","sunday":"","holiday":"","closed":"日・月曜日および国民の祝日、１２月２９日から１月３日まで、８月１３日から１５日","capacity":10,"id":"1050100211"},{"name":"ぽぽろ・まーら","nameKana":"ぽぽろまーら","corp":"社会福祉法人しののめ会","serviceTypes":["放課後等デイサービス"],"ward":"前橋市","address":"群馬県前橋市富田町１５７５−２","tel":"027-268-3423","url":"","lat":36.3878054,"lng":139.13996217,"weekday":"13:00-17:00","saturday":"09:00-15:00","sunday":"","holiday":"","closed":"日曜日、祝祭日","capacity":10,"id":"1050100641"},{"name":"聴覚障害児児童クラブきらきら","nameKana":"ちょうかくしょうがいじじどうくらぶきらきら","corp":"NPO法人きらきら","serviceTypes":["放課後等デイサービス"],"ward":"前橋市","address":"群馬県前橋市六供町一丁目18番地5-102","tel":"027-226-6266","url":"https://deafgunma-kira.com/","lat":36.38948394,"lng":139.06342762,"weekday":"14:00-18:00","saturday":"09:00-16:00","sunday":"","holiday":"","closed":"日、祝、第一と第三土曜日","capacity":10,"id":"1050100476"},{"name":"つゆ草クラブ","nameKana":"つゆくさくらぶ","corp":"社会福祉法人あかぎの響","serviceTypes":["放課後等デイサービス"],"ward":"前橋市","address":"群馬県前橋市富士見町小沢１１７−８　","tel":"027-288-7004","url":"https://akaginohibiki.jp/","lat":36.45478386,"lng":139.08458141,"weekday":"14:30-17:30","saturday":"","sunday":"","holiday":"","closed":"土曜日、日曜日、祝日、年末年始、お盆の時期","capacity":20,"id":"1050100104"},{"name":"　","nameKana":"だいつゆくさくらぶ","corp":"社会福祉法人あかぎの響","serviceTypes":["放課後等デイサービス"],"ward":"前橋市","address":"群馬県前橋市　　","tel":"0272880561","url":"","lat":36.38948394,"lng":139.06342762,"weekday":"13:30-17:30","saturday":"","sunday":"","holiday":"","closed":"土曜日、日曜日、祝日、年末年始、お盆の時期","capacity":10,"id":"1050100138"},{"name":"ぽっぽ大胡","nameKana":"ぽっぽおおご","corp":"福システム株式会社","serviceTypes":["放課後等デイサービス"],"ward":"前橋市","address":"群馬県前橋市茂木町1173-1","tel":"027-212-6034","url":"http://www.fuku-system.co.jp/","lat":36.41158612,"lng":139.14623905,"weekday":"14:00-18:30","saturday":"","sunday":"","holiday":"","closed":"土日祝日、年末年始（12月29日〜1月3日）","capacity":10,"id":"1050100799"},{"name":"はばたき第２","nameKana":"はばたきだいに","corp":"福システム株式会社","serviceTypes":["放課後等デイサービス"],"ward":"前橋市","address":"群馬県前橋市大胡町７８−１","tel":"080-8719-0450","url":"http://www.fuku-system.co.jp/","lat":36.41002265,"lng":139.16031467,"weekday":"14:00-18:30","saturday":"","sunday":"","holiday":"","closed":"土日祝日、年末年始（12月29日〜1月3日）","capacity":10,"id":"1050101011"},{"name":"ぽっぽ桂萱","nameKana":"ぽっぽかいがや","corp":"福システム株式会社","serviceTypes":["放課後等デイサービス"],"ward":"前橋市","address":"群馬県前橋市堀之下町２１２−３","tel":"027-212-6034","url":"http://www.fuku-system.co.jp/","lat":36.39361546,"lng":139.12497559,"weekday":"14:00-18:30","saturday":"","sunday":"","holiday":"","closed":"土日祝日、年末年始(１２月２９日〜１月３日)","capacity":10,"id":"1050100203"},{"name":"はばたき","nameKana":"はばたき","corp":"福システム株式会社","serviceTypes":["放課後等デイサービス"],"ward":"前橋市","address":"群馬県前橋市堀之下町２１２−１","tel":"027-269-0015","url":"http://www.fuku-system.co.jp/","lat":36.39362935,"lng":139.12504503,"weekday":"14:00-18:30","saturday":"","sunday":"","holiday":"","closed":"土日祝日、年末年始（12月29日〜1月3日）","capacity":10,"id":"1050100286"},{"name":"つぼみ","nameKana":"つぼみ","corp":"ライフサポート株式会社","serviceTypes":["放課後等デイサービス"],"ward":"前橋市","address":"群馬県前橋市石倉町４−５−７　イングス１−Ｂ","tel":"027-226-1181","url":"https://houdaytsubomi.jimdo.com","lat":36.38834763,"lng":139.05220651,"weekday":"14:00-17:30","saturday":"10:00-16:00","sunday":"","holiday":"","closed":"日曜日、国民の祝日、12月29日から1月4日、8月13日から16日","capacity":10,"id":"1050100336"},{"name":"メロディーもとそうじゃ","nameKana":"めろでぃーもとそうじゃ","corp":"株式会社メロディー","serviceTypes":["放課後等デイサービス"],"ward":"前橋市","address":"群馬県前橋市元総社町９６−１","tel":"027-288-0776","url":"","lat":36.38465894,"lng":139.04312414,"weekday":"09:00-18:00","saturday":"09:00-18:00","sunday":"","holiday":"","closed":"日曜日、第二第四土曜日、祝日年末年始","capacity":10,"id":"1050101094"},{"name":"メロディーたかい","nameKana":"めろでぃーたかい","corp":"株式会社メロディー","serviceTypes":["放課後等デイサービス"],"ward":"前橋市","address":"群馬県前橋市高井町一丁目２０番地１７","tel":"09047406839","url":"","lat":36.41349381,"lng":139.03070751,"weekday":"09:00-18:00","saturday":"","sunday":"","holiday":"","closed":"日曜日、祝日","capacity":10,"id":"1050101219"},{"name":"メロディー","nameKana":"めろでぃー","corp":"株式会社メロディー","serviceTypes":["放課後等デイサービス"],"ward":"前橋市","address":"群馬県前橋市昭和町３−４−７昭和町３−４−７","tel":"027-289-2100","url":"","lat":36.40389038,"lng":139.06447426,"weekday":"14:00-17:00","saturday":"09:00-17:00","sunday":"","holiday":"","closed":"日曜日、祝日","capacity":10,"id":"1050100369"},{"name":"放課後デイつばさ上佐鳥","nameKana":"ほうかごでいつばさかみさとり","corp":"株式会社クオラ","serviceTypes":["放課後等デイサービス"],"ward":"前橋市","address":"群馬県前橋市上佐鳥町１５−２","tel":"027-265-6631","url":"http://qola-inc.jp/","lat":36.36562908,"lng":139.08159619,"weekday":"14:00-19:00","saturday":"","sunday":"","holiday":"","closed":"土日祝日","capacity":10,"id":"1050100427"},{"name":"放課後デイつばさ駒形","nameKana":"ほうかごでいつばさこまがた","corp":"株式会社クオラ","serviceTypes":["放課後等デイサービス"],"ward":"前橋市","address":"群馬県前橋市駒形町６４７−３４","tel":"027-226-1667","url":"http://qola-inc.jp/","lat":36.34198821,"lng":139.14275797,"weekday":"14:00-19:00","saturday":"","sunday":"","holiday":"","closed":"土日祝","capacity":10,"id":"1050100492"},{"name":"ハッピーテラス前橋教室","nameKana":"はっぴーてらすまえばしきょうしつ","corp":"合同会社ヒカリサス","serviceTypes":["放課後等デイサービス"],"ward":"前橋市","address":"群馬県前橋市六供町1-21-8","tel":"027-289-2044","url":"http://www.happy-terrace.com/school/maebashi/","lat":36.37314758,"lng":139.07670466,"weekday":"14:00-19:00","saturday":"09:00-17:00","sunday":"","holiday":"","closed":"日曜・祝日","capacity":10,"id":"1050100435"},{"name":"さぼてんきっず朝日","nameKana":"さぼてんきっずあさひ","corp":"株式会社さぼてんきっず","serviceTypes":["放課後等デイサービス"],"ward":"前橋市","address":"群馬県前橋市朝日町3-27-6","tel":"027-212-7217","url":"http://www.sabotenkids.com","lat":36.3868043,"lng":139.08585036,"weekday":"14:00-18:00","saturday":"10:00-16:00","sunday":"","holiday":"10:00-16:00","closed":"日曜日、夏季休暇、年末年始","capacity":10,"id":"1050100740"},{"name":"さぼてんきっず","nameKana":"さぼてんきっず","corp":"株式会社さぼてんきっず","serviceTypes":["放課後等デイサービス"],"ward":"前橋市","address":"群馬県前橋市下新田町６４９−１５","tel":"027-289-2164","url":"http://www.sabotenkids.com","lat":36.35354992,"lng":139.06822301,"weekday":"14:00-18:00","saturday":"10:00-16:00","sunday":"","holiday":"10:00-16:00","closed":"日曜日、夏季休暇、年末年始","capacity":10,"id":"1050100468"},{"name":"さぼてんきっず六供","nameKana":"さぼてんきっずろっく","corp":"株式会社さぼてんきっず","serviceTypes":["放課後等デイサービス"],"ward":"前橋市","address":"群馬県前橋市六供町4−２３−１　サニーガーデンオフィスビル２階","tel":"027-289-6675","url":"http://www.sabotenkids.com","lat":36.36910645,"lng":139.08068501,"weekday":"14:00-18:00","saturday":"10:00-16:00","sunday":"","holiday":"10:00-16:00","closed":"日曜日、夏季休暇、年末年始","capacity":10,"id":"1050100609"},{"name":"共生型放課後等デイサービスあおい","nameKana":"きょうせいがたほうかごとうでいさーびすあおい","corp":"有限会社やまと","serviceTypes":["放課後等デイサービス"],"ward":"前橋市","address":"群馬県前橋市江木町７６","tel":"027-289-8040","url":"http://yamato-care.co.jp","lat":36.38832741,"lng":139.13152183,"weekday":"13:30-16:50","saturday":"08:50-16:50","sunday":"","holiday":"08:50-16:50","closed":"日曜日　年末年始12月３０日〜１月３日","capacity":70,"id":"1050100914"},{"name":"放課後等デイサービス　樹の花　はなみずき","nameKana":"きのはなはなみずき","corp":"ラポール前橋合同会社","serviceTypes":["放課後等デイサービス"],"ward":"前橋市","address":"群馬県前橋市総社町総社２６０２−１樹の花　はなみずき","tel":"027-212-0015","url":"http://soja-mpri.com/","lat":36.39709597,"lng":139.03118319,"weekday":"14:30-17:30","saturday":"10:00-16:30","sunday":"","holiday":"10:00-16:30","closed":"日曜日、年末年始（12/29〜1/3）","capacity":10,"id":"1050100500"},{"name":"放課後等デイサービス空飛ぶぺんぎん","nameKana":"ほうかごとうでいさーびすそらとぶぺんぎん","corp":"株式会社ブロウアップ","serviceTypes":["放課後等デイサービス"],"ward":"前橋市","address":"群馬県前橋市小屋原町１６８８−３","tel":"027-225-2525","url":"","lat":36.35028218,"lng":139.13687228,"weekday":"13:30-17:00","saturday":"","sunday":"","holiday":"","closed":"土・日曜、祝日、際日、年末年始、お盆期間","capacity":10,"id":"1050100518"},{"name":"ナッティ桃木川","nameKana":"なってぃもものきがわ","corp":"株式会社ナッティ","serviceTypes":["放課後等デイサービス"],"ward":"前橋市","address":"群馬県前橋市下小出町2-41-10","tel":"027-212-7320","url":"http://www.natty6996.com","lat":36.41350015,"lng":139.06736247,"weekday":"14:00-18:00","saturday":"10:00-17:00","sunday":"","holiday":"","closed":"日曜、祝祭日、12月29日〜1月3日","capacity":10,"id":"1050100773"},{"name":"ナッティ荒牧","nameKana":"なってぃあらまき","corp":"株式会社ナッティ","serviceTypes":["放課後等デイサービス"],"ward":"前橋市","address":"群馬県前橋市荒牧町2-6-15","tel":"027-289-3190","url":"http://www.natty6996.com","lat":36.42203188,"lng":139.0549048,"weekday":"14:00-18:00","saturday":"10:00-17:00","sunday":"","holiday":"","closed":"日曜、祝祭日、12月29日〜1月3日","capacity":10,"id":"1050100559"},{"name":"ナッティ北代田","nameKana":"なってぃきたしろた","corp":"株式会社ナッティ","serviceTypes":["放課後等デイサービス"],"ward":"前橋市","address":"群馬県前橋市北代田町６４０−５","tel":"027-212-8670","url":"http://natty6996.com","lat":36.41220326,"lng":139.07532287,"weekday":"14:00-18:00","saturday":"10:00-17:00","sunday":"","holiday":"","closed":"日曜、祝祭日、12月29日〜1月3日","capacity":10,"id":"1050100666"},{"name":"ジーニアスの卵","nameKana":"じにあすのたまご","corp":"バート合同会社","serviceTypes":["放課後等デイサービス"],"ward":"前橋市","address":"群馬県前橋市富士見町小暮２６１７−３２","tel":"027-888-6432","url":"","lat":36.46009193,"lng":139.11131787,"weekday":"","saturday":"","sunday":"","holiday":"","closed":"","capacity":10,"id":"1050100856"},{"name":"ジーニアス","nameKana":"じーにあす","corp":"バート合同会社","serviceTypes":["放課後等デイサービス"],"ward":"前橋市","address":"群馬県前橋市西片貝町５−９−１２","tel":"027-257-4701","url":"https://www.genius-maebashi-houday.com/","lat":36.38880958,"lng":139.08601417,"weekday":"14:00-18:00","saturday":"10:00-16:00","sunday":"","holiday":"","closed":"日曜・祝日、第2、第4土曜は休み","capacity":10,"id":"1050100583"},{"name":"YMCAカラフル","nameKana":"わいえむしいえいからふる","corp":"公益財団法人ぐんまYMCA","serviceTypes":["放課後等デイサービス"],"ward":"前橋市","address":"群馬県前橋市国領町1-4-1","tel":"027-234-2299","url":"https://www.gunmaymca.org/","lat":36.39981327,"lng":139.0697461,"weekday":"14:00-18:00","saturday":"","sunday":"","holiday":"","closed":"土日祝","capacity":10,"id":"1050100690"},{"name":"ステップハート","nameKana":"すてっぷはーと","corp":"NPO法人ステップハート","serviceTypes":["放課後等デイサービス"],"ward":"前橋市","address":"群馬県前橋市総社町植野344-35","tel":"027-289-6903","url":"https://www.step-heart.org/","lat":36.41241352,"lng":139.03672368,"weekday":"14:45-17:45","saturday":"10:30-15:30","sunday":"","holiday":"","closed":"日曜日、祝日、群馬県民の日","capacity":10,"id":"1050100716"},{"name":"ステップハート新前橋","nameKana":"すてっぷはーとしんまえばし","corp":"NPO法人ステップハート","serviceTypes":["放課後等デイサービス"],"ward":"前橋市","address":"群馬県前橋市新前橋町１４番地１５","tel":"027-225-2486","url":"https://step-heart.org/","lat":36.3806847,"lng":139.05180956,"weekday":"13:30-17:45","saturday":"09:30-15:30","sunday":"","holiday":"","closed":"日曜日、祝日","capacity":10,"id":"1050101078"},{"name":"キッズガーデンひろせ","nameKana":"きっずがーでんひろせ","corp":"合同会社HS","serviceTypes":["放課後等デイサービス"],"ward":"前橋市","address":"群馬県前橋市広瀬町１−２６−１７","tel":"027-261-0113","url":"","lat":36.36451279,"lng":139.10426842,"weekday":"","saturday":"","sunday":"","holiday":"","closed":"","capacity":null,"id":"1050100526"},{"name":"元総社すくーる２","nameKana":"もとそうじゃすくーるつー","corp":"特定非営利活動法人つなぐ","serviceTypes":["放課後等デイサービス"],"ward":"前橋市","address":"群馬県前橋市元総社町一丁目２−１３","tel":"027-289-0504","url":"http://child-egg.com","lat":36.38634766,"lng":139.04480171,"weekday":"12:00-17:00","saturday":"10:00-16:00","sunday":"","holiday":"10:00-17:00","closed":"祝日・日曜日・正月休み１２月３０日〜１月３日(変動あり)","capacity":10,"id":"1050100872"},{"name":"あらたま","nameKana":"あらたま","corp":"社会福祉法人ゆずりは会","serviceTypes":["放課後等デイサービス"],"ward":"高崎市","address":"群馬県高崎市北原町６７ー４","tel":"027-387-0131","url":"","lat":36.40580861,"lng":139.02620551,"weekday":"14:30-17:30","saturday":"","sunday":"","holiday":"","closed":"土日及び祝日、8月13から15日、年末年始","capacity":10,"id":"1050201308"},{"name":"児童デイゆーふる","nameKana":"じどうでいゆーふる","corp":"社会福祉法人あい","serviceTypes":["放課後等デイサービス"],"ward":"高崎市","address":"群馬県高崎市足門町２９８−５","tel":"027-395-8139","url":"https://www.syafuku-ai.jp/","lat":36.40149677,"lng":138.98452844,"weekday":"13:00-17:00","saturday":"","sunday":"","holiday":"10:00-16:00","closed":"土　日　","capacity":7,"id":"1050100112"},{"name":"上大類すくーる","nameKana":"かみおおるいすくーる","corp":"特定非営利活動法人つなぐ","serviceTypes":["放課後等デイサービス"],"ward":"高崎市","address":"群馬県高崎市上大類町なし","tel":"027-381-8151","url":"http://child-egg.com/","lat":36.3402893,"lng":139.03049627,"weekday":"13:00-17:00","saturday":"10:00-16:00","sunday":"00:00-00:00","holiday":"10:00-16:00","closed":"祝日・日曜日","capacity":10,"id":"1050200722"},{"name":"放課後等デイサービスそら","nameKana":"ほうかごとうでいさーびすそら","corp":"合同会社そら","serviceTypes":["放課後等デイサービス"],"ward":"高崎市","address":"群馬県高崎市中泉町606-3中泉町606-3","tel":"027-335-6548","url":"","lat":36.37088179,"lng":139.00121672,"weekday":"13:30-17:30","saturday":"10:00-16:00","sunday":"","holiday":"10:00-16:00","closed":"","capacity":10,"id":"1050201076"},{"name":"放課後等デイサービス　フォーリーフ","nameKana":"ほうかごとうでいさーびすふぉーりーふ","corp":"一般社団法人フォーリーフクローバー","serviceTypes":["放課後等デイサービス"],"ward":"高崎市","address":"群馬県高崎市大八木町920-3C棟","tel":"027-386-5533","url":"https://four-leaf-clover-takasaki.com/","lat":36.36619927,"lng":139.00612758,"weekday":"","saturday":"","sunday":"","holiday":"","closed":"","capacity":null,"id":"1050201225"},{"name":"多機能型通所支援事業所どんぐり","nameKana":"たきのうがたつうしょしえんじぎょうしょどんぐり","corp":"株式会社つくしんぼ","serviceTypes":["放課後等デイサービス"],"ward":"高崎市","address":"群馬県高崎市鼻高町45番2","tel":"027-386-8989","url":"","lat":36.3308909,"lng":138.94383378,"weekday":"","saturday":"","sunday":"","holiday":"","closed":"","capacity":null,"id":"1050201233"},{"name":"放課後等デイサービスｉｐｐｏ","nameKana":"ほうかごうとうでいさーびすいっぽ","corp":"合同会社ＪｏｙＰｌａｎ","serviceTypes":["放課後等デイサービス"],"ward":"高崎市","address":"群馬県高崎市八千代町2丁目5-4","tel":"027-386-8289","url":"https://joyplan-ippo.wixsite.com/mysite","lat":36.31891734,"lng":138.98918285,"weekday":"13:00-18:00","saturday":"","sunday":"","holiday":"10:00-16:00","closed":"土曜日、日曜日、１２月２９日〜１月３日","capacity":10,"id":"1050201258"},{"name":"Good Action","nameKana":"ぐっどあくしょん","corp":"株式会社Ｄ．Ｉ．Ｊ","serviceTypes":["放課後等デイサービス"],"ward":"高崎市","address":"群馬県高崎市並榎町１５０番地１２","tel":"08063485842","url":"https://good-action.co.jp/","lat":36.33495835,"lng":138.99684257,"weekday":"14:30-17:30","saturday":"09:30-15:30","sunday":"","holiday":"","closed":"日曜、祝祭日、年末年始、ゴールデンウイーク、お盆休み、シルバーウイーク","capacity":10,"id":"1050201324"},{"name":"Good Action Plus","nameKana":"ぐっどあくしょんぷらす","corp":"株式会社Ｄ．Ｉ．Ｊ","serviceTypes":["放課後等デイサービス"],"ward":"高崎市","address":"群馬県高崎市棟高町519-1","tel":"080-3707-3104","url":"https://dij-corp.com/","lat":36.39126231,"lng":138.99641404,"weekday":"","saturday":"","sunday":"","holiday":"","closed":"","capacity":10,"id":"1050201464"},{"name":"放課後等デイサービスOlive","nameKana":"ほうかごとうでいさーびすおりーぶ","corp":"Olive合同会社","serviceTypes":["放課後等デイサービス"],"ward":"高崎市","address":"群馬県高崎市上大類町１０６６−５高崎市上大類町1066—5","tel":"0273863571","url":"https://olivehomepage.wixsite.com/mysite","lat":36.32188438,"lng":139.00332599,"weekday":"14:00-17:30","saturday":"","sunday":"","holiday":"10:00-16:00","closed":"土日","capacity":10,"id":"1050201332"},{"name":"放課後等デイサービスはやて１号","nameKana":"ほうかごとうでいさーびすはやていちごう","corp":"株式会社HAYATE","serviceTypes":["放課後等デイサービス"],"ward":"高崎市","address":"群馬県高崎市箕郷町矢原７０４","tel":"0273863499","url":"","lat":36.39523593,"lng":138.96280794,"weekday":"13:30-18:00","saturday":"10:00-16:00","sunday":"","holiday":"","closed":"日曜日、祝日、8月13日から8月15日、12月29日から1月3日","capacity":10,"id":"1050201340"},{"name":"放課後等デイサービスはやて２号","nameKana":"ほうかごとうでいさーびすはやてにごう","corp":"株式会社HAYATE","serviceTypes":["放課後等デイサービス"],"ward":"高崎市","address":"群馬県高崎市箕郷町矢原706番地","tel":"027-329-5969","url":"https://hayate8810.com/","lat":36.41167536,"lng":138.95909124,"weekday":"13:30-18:00","saturday":"10:00-16:00","sunday":"","holiday":"","closed":"日曜日・祝日","capacity":10,"id":"1050201530"},{"name":"アトリエ・キッズ高崎浜川","nameKana":"あとりえきっずたかさきはまがわ","corp":"合同会社アトリエ・キッズ","serviceTypes":["放課後等デイサービス"],"ward":"高崎市","address":"群馬県高崎市箕郷町上芝501-1D棟","tel":"027-393-6047","url":"https://atelier-kids.jp/","lat":36.38058229,"lng":138.96184152,"weekday":"14:00-18:00","saturday":"09:00-17:00","sunday":"09:00-17:00","holiday":"09:00-17:00","closed":"日曜日、１２月２９日から１月６日まで","capacity":10,"id":"1050201373"},{"name":"アトリエ・キッズ高崎北","nameKana":"あとりえきっずたかさききた","corp":"合同会社アトリエ・キッズ","serviceTypes":["放課後等デイサービス"],"ward":"高崎市","address":"群馬県高崎市大橋町104仁天堂ビル１階","tel":"0273865191","url":"https://atelier-kids.jp/","lat":36.33718333,"lng":139.00109221,"weekday":"14:00-18:00","saturday":"09:00-17:00","sunday":"09:00-17:00","holiday":"09:00-17:00","closed":"日曜日、１２月２９日から１月６日まで","capacity":10,"id":"1050201365"},{"name":"アトリエ・キッズ高崎貝沢","nameKana":"あとりえきっずたかさきかいざわ","corp":"合同会社アトリエ・キッズ","serviceTypes":["放課後等デイサービス"],"ward":"高崎市","address":"群馬県高崎市東貝沢町3-27-12","tel":"0273936098","url":"https://atelier-kids.jp/","lat":36.34968847,"lng":139.03186789,"weekday":"14:00-18:00","saturday":"09:00-17:00","sunday":"09:00-17:00","holiday":"09:00-17:00","closed":"日曜日、１２月２９日から１月６日まで","capacity":10,"id":"1050201357"},{"name":"アトリエ・キッズ前橋北","nameKana":"あとりえきっずまえばしきた","corp":"合同会社アトリエ・キッズ","serviceTypes":["放課後等デイサービス"],"ward":"前橋市","address":"群馬県前橋市下細井町２３１２−１９","tel":"027-212-2099","url":"https://atelier-kids.jp/","lat":36.41546465,"lng":139.08653192,"weekday":"14:00-18:00","saturday":"09:00-17:00","sunday":"09:00-17:00","holiday":"09:00-17:00","closed":"日曜日、１２月２９日から１月６日まで","capacity":10,"id":"1050101110"},{"name":"放課後等デイサービスひなた","nameKana":"ほうかごとうでいさーびすひなた","corp":"合同会社インフィニット","serviceTypes":["放課後等デイサービス"],"ward":"安中市","address":"群馬県安中市磯部1丁目15-15","tel":"027-393-6904","url":"","lat":36.2991773,"lng":138.84752271,"weekday":"14:30-17:30","saturday":"10:00-16:00","sunday":"","holiday":"10:00-16:00","closed":"日曜・年末年始","capacity":10,"id":"1051100129"},{"name":"放課後等デイサービスガネーシャ","nameKana":"ほうかごとうでいさーびすがねーしゃ","corp":"一般社団法人レバレッジファンドホールディングス","serviceTypes":["放課後等デイサービス"],"ward":"高崎市","address":"群馬県高崎市和田町10-11","tel":"07064324955","url":"","lat":36.31645407,"lng":139.0112037,"weekday":"09:00-17:00","saturday":"","sunday":"","holiday":"09:00-17:00","closed":"土日","capacity":40,"id":"1050201449"},{"name":"ガナパティ","nameKana":"がなぱてぃ","corp":"一般社団法人レバレッジファンドホールディングス","serviceTypes":["放課後等デイサービス"],"ward":"高崎市","address":"群馬県高崎市福島町794-21シティハイツガーネット1F","tel":"090-7314-6882","url":"","lat":36.36760997,"lng":139.0004335,"weekday":"10:00-17:00","saturday":"","sunday":"","holiday":"","closed":"","capacity":10,"id":"1050201647"},{"name":"めだかのがっこうプラス高崎校","nameKana":"めだかのがっこうぷらすたかさきこう","corp":"株式会社めだかのがっこうＮｏｒｔｈ","serviceTypes":["放課後等デイサービス"],"ward":"高崎市","address":"群馬県高崎市岩押町２８−５１Ｆ","tel":"027-395-5460","url":"https://medaka-holdings.com","lat":36.32388735,"lng":139.02179202,"weekday":"13:30-17:30","saturday":"10:00-16:00","sunday":"","holiday":"10:00-16:00","closed":"日曜日","capacity":10,"id":"1050201456"},{"name":"めだかのがっこうプラス中居校","nameKana":"めだかのがっこうぷらすなかいこう","corp":"株式会社めだかのがっこうＮｏｒｔｈ","serviceTypes":["放課後等デイサービス"],"ward":"高崎市","address":"群馬県高崎市中居町1-4-12","tel":"027-388-0501","url":"https://medaka-holdings.com","lat":36.3217125,"lng":139.03574482,"weekday":"13:30-17:30","saturday":"10:00-16:00","sunday":"","holiday":"10:00-16:00","closed":"土曜日・日曜日","capacity":10,"id":"1050201639"},{"name":"からふる富岡","nameKana":"からふるとみおか","corp":"株式会社ソルーナ","serviceTypes":["放課後等デイサービス"],"ward":"富岡市","address":"群馬県富岡市富岡1186-1","tel":"0274-64-9691","url":"https://www.solu-na.co.jp/","lat":36.25627392,"lng":138.91762099,"weekday":"14:00-17:00","saturday":"10:00-16:00","sunday":"","holiday":"","closed":"日曜、祝日、年末年始","capacity":10,"id":"1051000113"},{"name":"くろーばーぬまた","nameKana":"くろーばーぬまた","corp":"株式会社　くろーばー","serviceTypes":["放課後等デイサービス"],"ward":"沼田市","address":"群馬県沼田市白沢町上古語父３７５−８","tel":"0278-25-3843","url":"http://clover-gunma.com","lat":36.66783558,"lng":139.11134006,"weekday":"13:00-17:00","saturday":"09:30-17:00","sunday":"","holiday":"","closed":"日曜日、祝日及び12月29日から1月3日まで","capacity":10,"id":"1050600046"},{"name":"くろーばーぬまた南","nameKana":"くろーばーぬまたみなみ","corp":"株式会社　くろーばー","serviceTypes":["放課後等デイサービス"],"ward":"沼田市","address":"群馬県沼田市井土上町字稲荷363-1","tel":"0278-25-9220","url":"http://clover-gunma.com","lat":36.64396527,"lng":139.04282223,"weekday":"13:00-17:00","saturday":"09:30-17:00","sunday":"","holiday":"","closed":"日曜日、祝日及び12月29日から1月3日まで","capacity":5,"id":"1050600053"},{"name":"くろーばーひがしはら","nameKana":"くろーばーひがしはら","corp":"株式会社　くろーばー","serviceTypes":["放課後等デイサービス"],"ward":"沼田市","address":"群馬県沼田市上原町１７３１−６","tel":"0278-25-8541","url":"http://clover-gunma.com","lat":36.65171489,"lng":139.06743906,"weekday":"13:00-17:00","saturday":"09:30-17:00","sunday":"","holiday":"","closed":"日曜日、祝日及び12月29日から1月3日","capacity":10,"id":"1050600095"},{"name":"ワンセルフくろいわ","nameKana":"わんせるふくろいわ","corp":"株式会社ワンセルフ","serviceTypes":["放課後等デイサービス"],"ward":"富岡市","address":"群馬県富岡市下黒岩602番地1","tel":"0274-64-9997","url":"https://www.one-self.co.jp","lat":36.27336394,"lng":138.88757314,"weekday":"14:00-18:00","saturday":"","sunday":"","holiday":"","closed":"土曜日、日曜日、国民の祝日、年末年始","capacity":10,"id":"1051000097"},{"name":"みんなのパレット藤岡","nameKana":"みんなのぱれっとふじおか","corp":"株式会社スマイルフーヅ","serviceTypes":["放課後等デイサービス"],"ward":"藤岡市","address":"群馬県藤岡市中栗須144番地9","tel":"0274-50-9556","url":"","lat":36.25661512,"lng":139.07864065,"weekday":"","saturday":"","sunday":"","holiday":"","closed":"","capacity":null,"id":"1050900156"},{"name":"みんなのパレット玉村","nameKana":"みんなのぱれっとたまむら","corp":"株式会社スマイルフーヅ","serviceTypes":["放課後等デイサービス"],"ward":"佐波郡玉村","address":"群馬県佐波郡玉村町上茂木128-3","tel":"0270-61-7760","url":"","lat":36.30120229,"lng":139.13234723,"weekday":"","saturday":"","sunday":"","holiday":"","closed":"","capacity":null,"id":"1052800149"},{"name":"みんなのパレット下新田","nameKana":"みんなのぱれっとしもしんでん","corp":"株式会社スマイルフーヅ","serviceTypes":["放課後等デイサービス"],"ward":"佐波郡玉村","address":"群馬県佐波郡玉村町下新田749番地","tel":"0270-61-7799","url":"","lat":36.30487099,"lng":139.11784017,"weekday":"13:30-17:30","saturday":"10:00-16:20","sunday":"","holiday":"","closed":"日曜日・祝祭日・お盆・年末年始","capacity":10,"id":"1052800156"},{"name":"くろーばーとみおか","nameKana":"くろーばーとみおか","corp":"株式会社ライフサポートＳＥＥＰ","serviceTypes":["放課後等デイサービス"],"ward":"富岡市","address":"群馬県富岡市七日市１０９５−１","tel":"0274-67-7552","url":"https://clover-tomioka.com","lat":36.25619333,"lng":138.88277696,"weekday":"14:00-17:00","saturday":"10:00-15:00","sunday":"","holiday":"","closed":"日曜日、祝日、年末年始（12月29日から1月3日）","capacity":10,"id":"1051000048"},{"name":"フォレスト放課後デイ前橋北","nameKana":"ふぉれすとほうかごでいまえばしきた","corp":"合同会社フォレスト","serviceTypes":["放課後等デイサービス"],"ward":"前橋市","address":"群馬県前橋市下細井町２３１２−１９","tel":"027-212-2099","url":"https://ameblo.jp/forest-maebashikita/","lat":36.41546465,"lng":139.08653192,"weekday":"14:30-18:30","saturday":"09:00-17:00","sunday":"","holiday":"09:00-17:00","closed":"","capacity":10,"id":"1050100385"},{"name":"わくまる　やまな園","nameKana":"わくまるやまなえん","corp":"ケアサプライシステムズ株式会社","serviceTypes":["放課後等デイサービス"],"ward":"高崎市","address":"群馬県高崎市山名町503-1","tel":"027-45-2100","url":"","lat":36.27281235,"lng":139.04421057,"weekday":"09:00-17:00","saturday":"09:00-17:00","sunday":"","holiday":"09:00-17:00","closed":"日曜日","capacity":7,"id":"1050201514"},{"name":"サポートクラブフルール","nameKana":"さぽとーくらぶふるーる","corp":"特定非営利活動法人地域生活サポートネットさやけき","serviceTypes":["放課後等デイサービス"],"ward":"高崎市","address":"群馬県高崎市足門町２９０−１","tel":"027-386-5168","url":"","lat":36.40168559,"lng":138.98287023,"weekday":"14:00-17:30","saturday":"","sunday":"","holiday":"","closed":"土・日・祝・年末年始","capacity":5,"id":"1050200714"},{"name":"放課後等デイサービスキッズなかま","nameKana":"ほうかごとうでいさーびすきっずなかま","corp":"特定非営利活動法人ゆい","serviceTypes":["放課後等デイサービス"],"ward":"高崎市","address":"群馬県高崎市八幡町657-2","tel":"027-395-5152","url":"https://www.yuiyui-nakama.com","lat":36.34041777,"lng":138.95016604,"weekday":"15:00-17:00","saturday":"10:00-16:00","sunday":"","holiday":"10:00-16:00","closed":"日曜日・木曜日・年末年始","capacity":7,"id":"1050201431"},