[{"name":"ブロッサムジュニア成田富里教室","nameKana":"ぶろっさむじゅにあなりたとみさときょうしつ","corp":"有限会社松本","serviceTypes":["児童発達支援","放課後等デイサービス"],"ward":"富里市","address":"千葉県富里市日吉台2‐20‐14鶴松ビル2階","tel":"0476-85-3335","url":"https://junior-blossom-naritatomisato.jimdofree.com/","lat":35.77028861,"lng":140.3211724,"weekday":"","saturday":"","sunday":"","holiday":"","closed":"","capacity":null,"id":"1254800129"},{"name":"フレンズ元山","nameKana":"ふれんずもとやま","corp":"株式会社Ｏｒｉｇｉｎ","serviceTypes":["児童発達支援","放課後等デイサービス"],"ward":"松戸市","address":"千葉県松戸市五香南１−１０−２","tel":"047-712-2018","url":"","lat":35.78979854,"lng":139.97490012,"weekday":"12:00-18:00","saturday":"","sunday":"","holiday":"09:00-16:00","closed":"土曜日、日曜日、お盆3日間、年末年始5日間","capacity":10,"id":"1252400740"},{"name":"フレンズ中新宿","nameKana":"ふれんずなかしんじゅく","corp":"株式会社Origin","serviceTypes":["児童発達支援","放課後等デイサービス"],"ward":"柏市","address":"千葉県柏市中新宿３−２−２","tel":"04-7157-1860","url":"https://www.originjp1.jp/","lat":35.83343081,"lng":139.94553949,"weekday":"11:00-13:00","saturday":"11:00-16:00","sunday":"11:00-16:00","holiday":"11:00-16:00","closed":"１２月２９日から１月３日","capacity":10,"id":"1252100951"},{"name":"フレンズ旭町","nameKana":"ふれんずあさひちょう","corp":"株式会社Origin","serviceTypes":["児童発達支援","放課後等デイサービス"],"ward":"柏市","address":"千葉県柏市旭町６−３−１３","tel":"04-7128-7081","url":"","lat":35.85640801,"lng":139.95775185,"weekday":"10:00-13:00","saturday":"","sunday":"","holiday":"11:00-16:00","closed":"土曜日、日曜日、祝日、12/29〜1/3","capacity":10,"id":"1252100969"},{"name":"ハッピースマイル　宮ノ台店","nameKana":"はっぴーすまいるみやのだいてん","corp":"合同会社Ｓｍｉｌｅ","serviceTypes":["児童発達支援","放課後等デイサービス"],"ward":"佐倉市","address":"千葉県佐倉市宮ノ台3-4-12茂手木店舗1階","tel":"043-308-4014","url":"","lat":35.7408065,"lng":140.14815047,"weekday":"09:30-17:00","saturday":"","sunday":"","holiday":"09:30-15:30","closed":"土曜日・日曜日","capacity":10,"id":"1254200445"},{"name":"リアンけやき教室成田赤坂","nameKana":"りあんけやききょうしつなりたあかさか","corp":"株式会社リアンサービス","serviceTypes":["児童発達支援"],"ward":"成田市","address":"千葉県成田市赤坂2−1−42ステラ赤坂102","tel":"048-767-8739","url":"","lat":35.77705413,"lng":140.29073082,"weekday":"10:00-17:00","saturday":"","sunday":"","holiday":"","closed":"土曜日(イベント開催日は営業日とする)・日曜日・祝日","capacity":10,"id":"1254300245"},{"name":"総合発達支援デイサービスきぼう印西","nameKana":"そうごうはったつしえんでいさーびすきぼういんざい","corp":"株式会社大双","serviceTypes":["児童発達支援","放課後等デイサービス"],"ward":"印西市","address":"千葉県印西市大森２４５４−８アーバンハイツ１階","tel":"070-5571-1195","url":"https://kibou-inzai.d-cares.com/","lat":35.83406968,"lng":140.14769565,"weekday":"10:00-14:00","saturday":"","sunday":"","holiday":"10:00-14:00","closed":"土/日曜日、年末年始休み(12/29〜1/3)","capacity":10,"id":"1254600107"},{"name":"コペルプラス　南船橋教室","nameKana":"こぺるぷらすみなみふなばしきょうしつ","corp":"株式会社スマイルエス","serviceTypes":["児童発達支援"],"ward":"船橋市","address":"千葉県船橋市浜町2-3-31　ワンダーベイシティSAZAN102号室フロントウイング棟","tel":"080-8687-4322","url":"https://copelplus.copel.co.jp/school/minami-funabashi/","lat":35.6803765,"lng":139.99149235,"weekday":"09:30-17:45","saturday":"09:30-17:45","sunday":"09:30-17:45","holiday":"","closed":"火曜日・木曜日・祝日","capacity":10,"id":"1252801533"},{"name":"おれんじキッズ＆児童デイサービス・アニマートきさらづ","nameKana":"おれんじきっずあんどじどうでいさーびすあにまーときさらづ","corp":"アニマート・グループ南関東株式会社","serviceTypes":["児童発達支援","放課後等デイサービス"],"ward":"木更津市","address":"千葉県木更津市高柳2-4-7木更津フラット1階101号室","tel":"0438-40-4166","url":"https://www.animato-llc.net","lat":35.41174344,"lng":139.94113393,"weekday":"14:30-17:30","saturday":"","sunday":"","holiday":"10:30-15:30","closed":"","capacity":10,"id":"1251000350"},{"name":"キッズセンター・さくら野田事業所","nameKana":"きっずせんたーさくらのだじぎょうしょ","corp":"株式会社アプテック","serviceTypes":["児童発達支援","放課後等デイサービス"],"ward":"野田市","address":"千葉県野田市尾崎８０７−５","tel":"048-718-1177","url":"http://www.aptech.co.jp/kidsday/","lat":35.9785158,"lng":139.82958557,"weekday":"10:30-12:30","saturday":"","sunday":"","holiday":"","closed":"12月29日〜1月3日、日曜日、国民の祝日、その他事業所が指定する休日","capacity":8,"id":"1252000037"},{"name":"キッズセンター・さくら関宿台町事業所","nameKana":"きっずせんたーさくらせきやどだいまちじぎょうしょ","corp":"株式会社アプテック","serviceTypes":["児童発達支援","放課後等デイサービス"],"ward":"野田市","address":"千葉県野田市関宿台町２７８","tel":"048-718-1177","url":"http://www.aptech.co.jp/kidsday/","lat":36.08880862,"lng":139.7869705,"weekday":"10:30-12:30","saturday":"","sunday":"","holiday":"","closed":"2月29日〜1月3日、土曜日、日曜日、国民の祝日、その他事業所が指定する休日","capacity":8,"id":"1252000144"},{"name":"からふるkids松戸","nameKana":"からふるきっずまつど","corp":"株式会社キャン・プランナー","serviceTypes":["児童発達支援","放課後等デイサービス"],"ward":"松戸市","address":"千葉県松戸市新作240-3プレメンスト101号室","tel":"047-711-6839","url":"","lat":35.80368544,"lng":139.91529939,"weekday":"10:00-16:00","saturday":"10:00-16:00","sunday":"","holiday":"10:00-16:00","closed":"日曜","capacity":10,"id":"1252401201"},{"name":"からふるKids野田second","nameKana":"からふるきっずのだせかんど","corp":"ほほえみ介護株式会社","serviceTypes":["児童発達支援","放課後等デイサービス"],"ward":"野田市","address":"千葉県野田市古布内1552-2","tel":"04-7197-5634","url":"https://houkago-kids.com/","lat":36.04616413,"lng":139.81375971,"weekday":"10:00-16:00","saturday":"10:00-16:00","sunday":"10:00-16:00","holiday":"10:00-16:00","closed":"なし","capacity":null,"id":"1252000474"},{"name":"からふるkids清水","nameKana":"からふるきっずしみず","corp":"ほほえみ介護株式会社","serviceTypes":["児童発達支援","放課後等デイサービス"],"ward":"野田市","address":"千葉県野田市清水68コマビル１階","tel":"04-7199-9223","url":"https://houkago-kids.com/","lat":35.94851174,"lng":139.86187251,"weekday":"10:00-16:00","saturday":"10:00-16:00","sunday":"10:00-16:00","holiday":"10:00-16:00","closed":"なし","capacity":null,"id":"1252000417"},{"name":"からふるＫｉｄｓ野田","nameKana":"からふるきっずのだ","corp":"ほほえみ介護株式会社","serviceTypes":["児童発達支援","放課後等デイサービス"],"ward":"野田市","address":"千葉県野田市七光台４２８−１８コートハイツ１階","tel":"04-7197-1590","url":"https://houkago-kids.com/","lat":35.98124077,"lng":139.8393041,"weekday":"10:00-16:00","saturday":"10:00-16:00","sunday":"10:00-16:00","holiday":"10:00-16:00","closed":"なし","capacity":10,"id":"1252000227"},{"name":"通所支援ベルテール松戸馬橋園","nameKana":"つうしょしえんべるてーるまつどまばしえん","corp":"株式会社タクミンプレイス","serviceTypes":["児童発達支援","放課後等デイサービス"],"ward":"松戸市","address":"千葉県松戸市西馬橋１−３５−１４","tel":"047-718-4019","url":"https://www.belleterre-mabashi.com/","lat":35.81730888,"lng":139.91609057,"weekday":"09:00-17:45","saturday":"09:00-13:00","sunday":"","holiday":"","closed":"開所日以外の土曜日、日曜日、祝日、お盆休み、年末年始","capacity":10,"id":"1252400468"},{"name":"君の未来 東宝珠花教室","nameKana":"きみのみらいひがしほうしゅばなきょうしつ","corp":"株式会社 優RURI","serviceTypes":["児童発達支援","放課後等デイサービス"],"ward":"野田市","address":"千葉県野田市東宝珠花251-1","tel":"04-7197-3965","url":"https://kiminomirai.jp","lat":36.0252357,"lng":139.82100163,"weekday":"10:00-13:05","saturday":"","sunday":"","holiday":"","closed":"土日、祝日　・夏季8月12日〜8月16日・冬季休業12月29日〜1月4日","capacity":10,"id":"1252000441"},{"name":"nine　あおばの森","nameKana":"ないんあおばのもり","corp":"株式会社グロー","serviceTypes":["児童発達支援","放課後等デイサービス"],"ward":"千葉市","address":"千葉県千葉市中央区千葉寺町1202-3フォレストあおば","tel":"043-497-6183","url":"https://ninegrow.wixsite.com/my-site-1","lat":35.59216137,"lng":140.13374867,"weekday":"11:00-17:00","saturday":"","sunday":"","holiday":"","closed":"","capacity":10,"id":"1250101571"},{"name":"nine　おゆみ野","nameKana":"ないんおゆみの","corp":"株式会社グロー","serviceTypes":["児童発達支援","放課後等デイサービス"],"ward":"千葉市","address":"千葉県千葉市緑区おゆみ野４−２３−４グリーンおゆみ１０２","tel":"043-312-1693","url":"https://ninegrow.wixsite.com/my-site-1","lat":35.55744523,"lng":140.17688914,"weekday":"","saturday":"","sunday":"","holiday":"","closed":"","capacity":null,"id":"1250101688"},{"name":"nine　そんのう","nameKana":"ないんそんのう","corp":"株式会社グロー","serviceTypes":["児童発達支援","放課後等デイサービス"],"ward":"千葉市","address":"千葉県千葉市稲毛区園生町４２０−１２階Ｂ号室","tel":"043-445-8486","url":"https://ninegrow.wixsite.com/my-site-1","lat":35.65162343,"lng":140.12095342,"weekday":"11:00-17:00","saturday":"","sunday":"","holiday":"","closed":"土日・祝日","capacity":10,"id":"1250101738"},{"name":"nine　おぐらだい","nameKana":"ないんおぐらだい","corp":"株式会社グロー","serviceTypes":["児童発達支援"],"ward":"千葉市","address":"千葉県千葉市若葉区小倉台４丁目１５番１−１号","tel":"08072735084","url":"https://ninegrow.wixsite.com/my-site-1","lat":35.62895424,"lng":140.17184468,"weekday":"","saturday":"","sunday":"","holiday":"","closed":"","capacity":null,"id":"1250101951"},{"name":"nine　みずほ","nameKana":"ないんみずほ","corp":"株式会社グロー","serviceTypes":["児童発達支援"],"ward":"千葉市","address":"千葉県千葉市花見川区瑞穂３−１５−９","tel":"043-301-3147","url":"https://ninegrow.wixsite.com/my-site-1","lat":35.66227106,"lng":140.06803873,"weekday":"11:00-16:00","saturday":"","sunday":"","holiday":"","closed":"土曜・日曜・祝日（GWを除く）・年末年始","capacity":10,"id":"1250102157"},{"name":"nine　そんのう第２","nameKana":"ないんそんのうだいに","corp":"株式会社グロー","serviceTypes":["児童発達支援","放課後等デイサービス"],"ward":"千葉市","address":"千葉県千葉市稲毛区萩台町６６４−５０","tel":"043-306-9650","url":"https://ninegrow.wixsite.com/my-site-1","lat":35.64709088,"lng":140.1220529,"weekday":"","saturday":"","sunday":"","holiday":"","closed":"","capacity":null,"id":"1250103106"},{"name":"ブロッサムジュニア　花見川教室","nameKana":"ぶろっさむじゅにあはなみがわきょうしつ","corp":"株式会社蔵樹","serviceTypes":["児童発達支援","放課後等デイサービス"],"ward":"千葉市","address":"千葉県千葉市花見川区南花園２丁目５番４須山ビル　１０１号室","tel":"043-301-3438","url":"https://junior.blossomgroup.co.jp/","lat":35.65115012,"lng":140.07172207,"weekday":"","saturday":"","sunday":"","holiday":"","closed":"","capacity":null,"id":"1250101720"},{"name":"放課後等デイサービスウィズ・ユー浜野駅前","nameKana":"ほうかごとうでいさーびすうぃずゆーはまのえきまえ","corp":"BlueCare株式会社","serviceTypes":["児童発達支援","放課後等デイサービス"],"ward":"千葉市","address":"千葉県千葉市中央区浜野町1388ウィザースレジデンス浜野駅前Ⅱ１F","tel":"043-309-8115","url":"https://bc-withyou.com","lat":35.5514367,"lng":140.1326552,"weekday":"09:30-11:00","saturday":"10:00-16:30","sunday":"","holiday":"09:30-11:00","closed":"","capacity":10,"id":"1250102207"},{"name":"うんどう☆ことばの教室","nameKana":"うんどうことばのきょうしつ","corp":"株式会社Ｔｒｅａｓｕｒｅ","serviceTypes":["児童発達支援","放課後等デイサービス","居宅訪問型児童発達支援"],"ward":"千葉市","address":"千葉県千葉市緑区おゆみ野３−２４−２ASAJIビル １階","tel":"043-497-5884","url":"https://treasure-children.com","lat":35.56242532,"lng":140.17578335,"weekday":"09:00-15:30","saturday":"09:00-15:30","sunday":"","holiday":"","closed":"水曜日、日曜日、祝日","capacity":10,"id":"1250102223"},{"name":"うんどう☆ことばの教室 Fun Place","nameKana":"うんどうことばのきょうしつふぁんぷれいす","corp":"株式会社Ｔｒｅａｓｕｒｅ","serviceTypes":["児童発達支援"],"ward":"千葉市","address":"千葉県千葉市緑区おゆみ野３−１７−７沖ビルＡ棟２０３","tel":"043-488-6095","url":"https://treasure-children.com","lat":35.56230033,"lng":140.17705853,"weekday":"09:00-15:30","saturday":"09:00-15:30","sunday":"","holiday":"","closed":"水曜日、日曜日、祝日、年末年始","capacity":10,"id":"1250102744"},{"name":"療育支援エフ　千葉中央教室","nameKana":"りょういくしえんえふちばちゅうおうきょうしつ","corp":"株式会社ＭｉＮ","serviceTypes":["児童発達支援","放課後等デイサービス"],"ward":"千葉市","address":"千葉県千葉市中央区中央３丁目９−１２ＬＥＲＥＶＥ千葉中央４Ｆ","tel":"043-307-1978","url":"https://ryoikushien-f.jp/kyoshitsuannai/chibachuou/","lat":35.60882324,"lng":140.12394469,"weekday":"10:00-12:00","saturday":"09:00-12:00","sunday":"","holiday":"09:00-12:00","closed":"","capacity":10,"id":"1250102991"},{"name":"あおぞら・たつみだい","nameKana":"あおぞらたつみだい","corp":"株式会社あおぞら","serviceTypes":["児童発達支援","放課後等デイサービス"],"ward":"市原市","address":"千葉県市原市辰巳台西1丁目5番7","tel":"0436-67-0830","url":"https://and-aozora.jp/tatsumidai/","lat":35.52194019,"lng":140.14788391,"weekday":"10:15-17:30","saturday":"10:00-16:00","sunday":"","holiday":"","closed":"土曜日、日曜日、祝日","capacity":10,"id":"1250600283"},{"name":"あおぞら・ちはらだい","nameKana":"あおぞらちはらだい","corp":"株式会社あおぞら","serviceTypes":["児童発達支援","放課後等デイサービス"],"ward":"市原市","address":"千葉県市原市ちはら台東４丁目１２ー９","tel":"0436-37-1006","url":"https://and-aozora.jp","lat":35.54096346,"lng":140.19304386,"weekday":"09:45-17:00","saturday":"","sunday":"","holiday":"","closed":"土曜日、日曜日、祝日","capacity":10,"id":"1250600200"},{"name":"ハピネス浜野","nameKana":"はぴねすはまの","corp":"社会福祉法人千葉アフターケア協会","serviceTypes":["児童発達支援","放課後等デイサービス"],"ward":"千葉市","address":"千葉県千葉市中央区浜野町６４９−１","tel":"043-264-4109","url":"","lat":35.55651953,"lng":140.13184407,"weekday":"","saturday":"","sunday":"","holiday":"","closed":"","capacity":null,"id":"1250100813"},{"name":"千葉市桜木園","nameKana":"ちばしさくらぎえん","corp":"千葉市（社会福祉法人千葉市社会福祉協議会）","serviceTypes":["児童発達支援","放課後等デイサービス"],"ward":"千葉市","address":"千葉県千葉市若葉区桜木８−３１−１５","tel":"043-231-5865","url":"https://chiba-shakyo.jp/sakuragi/","lat":35.6264121,"lng":140.16519194,"weekday":"10:00-16:00","saturday":"","sunday":"","holiday":"","closed":"土曜日、日曜日、祝日、年末年始","capacity":20,"id":"1250100185"},{"name":"千葉市療育センターすぎのこルーム","nameKana":"ちばしりょういくせんたーすぎのこるーむ","corp":"千葉市（社会福祉法人千葉市社会福祉協議会）","serviceTypes":["児童発達支援"],"ward":"千葉市","address":"千葉県千葉市中央区末広３−２２−２１","tel":"043-216-2409","url":"https://chiba-shakyo.jp/suginoko/","lat":35.59288334,"lng":140.12878492,"weekday":"10:00-16:30","saturday":"","sunday":"","holiday":"","closed":"土曜日・日曜日・祝日・年末年始(12/29〜1/3)","capacity":20,"id":"1250100201"},{"name":"千葉市大宮学園児童発達支援センター","nameKana":"ちばしおおみやがくえんじどうはったつしえんせんたー","corp":"千葉市（社会福祉法人千葉市社会福祉協議会）","serviceTypes":["児童発達支援"],"ward":"千葉市","address":"千葉県千葉市若葉区大宮町３８１６−１","tel":"043-263-1560","url":"https://chiba-shakyo.jp/himawari/","lat":35.59654072,"lng":140.17348985,"weekday":"10:00-14:00","saturday":"","sunday":"","holiday":"","closed":"土曜・日曜・祝日・年末年始","capacity":50,"id":"1250115019"},{"name":"千葉市療育センターやまびこルーム","nameKana":"ちばしりょういくせんたーやまびこるーむ","corp":"千葉市（社会福祉法人千葉市社会福祉協議会）","serviceTypes":["児童発達支援"],"ward":"千葉市","address":"千葉県千葉市中央区末広３−２２−２１","tel":"043-306-5106","url":"https://chiba-shakyo.jp/yamabiko/","lat":35.59288334,"lng":140.12878492,"weekday":"09:30-16:00","saturday":"","sunday":"","holiday":"","closed":"土・日・祝","capacity":20,"id":"1250125018"},{"name":"キッズルーム　チャコ　千葉教室","nameKana":"きっずるーむちゃこちばきょうしつ","corp":"トレンディワールド株式会社","serviceTypes":["児童発達支援","放課後等デイサービス"],"ward":"千葉市","address":"千葉県千葉市中央区院内２−１７−２５","tel":"043-225-6503","url":"","lat":35.61183966,"lng":140.1262081,"weekday":"09:00-17:30","saturday":"09:00-17:30","sunday":"","holiday":"","closed":"日曜日・祝日・年末年始（12/29〜1/3）","capacity":20,"id":"1250100052"},{"name":"キッズルーム　チャコ　稲毛教室","nameKana":"きっずるーむちゃこいなげきょうしつ","corp":"トレンディワールド株式会社","serviceTypes":["児童発達支援","放課後等デイサービス"],"ward":"千葉市","address":"千葉県千葉市稲毛区小仲台６−２−１０−２０５","tel":"043-207-4088","url":"","lat":35.6361003,"lng":140.1071269,"weekday":"","saturday":"","sunday":"","holiday":"","closed":"","capacity":null,"id":"1250100177"},{"name":"笑顔（ニコニコ）２号店","nameKana":"にこにこにごうてん","corp":"有限会社コミュニティ","serviceTypes":["児童発達支援","放課後等デイサービス"],"ward":"千葉市","address":"千葉県千葉市中央区神明町１５−１２","tel":"043-204-2350","url":"http://www.community-chiba.jp/publics/index/23/","lat":35.60219268,"lng":140.11518474,"weekday":"","saturday":"","sunday":"","holiday":"","closed":"","capacity":null,"id":"1250100896"},{"name":"ちびっこルームあはは","nameKana":"ちびっこるーむあはは","corp":"株式会社　さくらみち","serviceTypes":["児童発達支援","放課後等デイサービス"],"ward":"千葉市","address":"千葉県千葉市中央区千葉寺町1213-1","tel":"043-497-3311","url":"http://sakuramichi-ahaha.com","lat":35.59230313,"lng":140.13677031,"weekday":"10:00-18:00","saturday":"10:00-18:00","sunday":"","holiday":"","closed":"日曜、祝日、年末年始（12月30日〜1月3日）","capacity":20,"id":"1250100235"},{"name":"運動支援GYM　ANT","nameKana":"うんどうしえんじむあんと","corp":"株式会社アント","serviceTypes":["児童発達支援","放課後等デイサービス"],"ward":"千葉市","address":"千葉県千葉市中央区登戸１丁目１０番１１号華林ビル２階","tel":"043-441-5866","url":"http://gymant.jp/","lat":35.60743447,"lng":140.1230949,"weekday":"11:00-18:00","saturday":"10:30-16:30","sunday":"","holiday":"11:00-18:00","closed":"日曜日","capacity":10,"id":"1250101191"},{"name":"運動支援ＧＹＭ　ＡＮＴ　第２","nameKana":"うんどうしえんじむあんとだいに","corp":"株式会社アント","serviceTypes":["児童発達支援","放課後等デイサービス"],"ward":"千葉市","address":"千葉県千葉市中央区新田町１９−１２ファミーユ喜１階","tel":"043-441-4625","url":"http://gymant.jp/","lat":35.60755825,"lng":140.11162048,"weekday":"11:00-18:00","saturday":"10:30-16:30","sunday":"","holiday":"11:00-18:00","closed":"日曜日","capacity":10,"id":"1250101456"},{"name":"ｃｏｌｏｒ","nameKana":"からー","corp":"株式会社ＭＪＣ","serviceTypes":["児童発達支援"],"ward":"習志野市","address":"千葉県習志野市本大久保３−８−２６アネックス１階","tel":"047-455-3232","url":"https://mjc-welfare.jp","lat":35.68523764,"lng":140.04813153,"weekday":"09:30-16:30","saturday":"","sunday":"","holiday":"","closed":"土日祝日","capacity":null,"id":"1250200324"},{"name":"ＣＬＯＶＥＲ　ＫＩＤＳ","nameKana":"くろーばーきっず","corp":"有限会社　太郎塾","serviceTypes":["児童発達支援"],"ward":"千葉市","address":"千葉県千葉市花見川区宮野木台３丁目２９番５号","tel":"043-251-8792","url":"","lat":35.66096598,"lng":140.0931115,"weekday":"10:00-16:30","saturday":"10:00-16:30","sunday":"","holiday":"10:00-16:30","closed":"水曜日、日曜日","capacity":10,"id":"1250101753"},{"name":"幼児教室セグナ","nameKana":"ようじきょうしつせぐな","corp":"社会福祉法人さくら学園","serviceTypes":["児童発達支援"],"ward":"千葉市","address":"千葉県千葉市花見川区横戸町１５８６−４２","tel":"047-482-1502","url":"http://sakura-n.jp/segna.html","lat":35.71077499,"lng":140.11129425,"weekday":"09:15-16:45","saturday":"","sunday":"","holiday":"","closed":"日曜日・国民の祝日、１２月２９日〜１月３日","capacity":10,"id":"1250101837"},{"name":"Ｃｏｌｏｒ","nameKana":"からー","corp":"株式会社МＪＣ","serviceTypes":["児童発達支援","放課後等デイサービス"],"ward":"千葉市","address":"千葉県千葉市花見川区作新台５丁目１７番３号","tel":"043-258-2507","url":"","lat":35.69206242,"lng":140.08179762,"weekday":"","saturday":"","sunday":"","holiday":"","closed":"土日祝日・その他(お盆期間・年末年始など)","capacity":10,"id":"1250102132"},{"name":"TRYRO","nameKana":"とらいろ","corp":"ＮＰＯ法人Ｌｏｏｏｏｐ","serviceTypes":["児童発達支援"],"ward":"千葉市","address":"千葉県千葉市花見川区花園１−８−２０第２花園ビル２０１−B","tel":"043-307-7609","url":"https://looooptryro.wordpress.com/","lat":35.65212225,"lng":140.07325523,"weekday":"09:00-15:00","saturday":"","sunday":"","holiday":"","closed":"国民の祝日、１２月２９日〜１月３日","capacity":10,"id":"1250101969"},{"name":"つみき","nameKana":"つみき","corp":"株式会社Think Education","serviceTypes":["児童発達支援"],"ward":"千葉市","address":"千葉県千葉市中央区松波２−１８−１１ＡＴビル１階","tel":"043-284-3310","url":"http://www.kaede-kp.com/","lat":35.6227331,"lng":140.10649993,"weekday":"","saturday":"","sunday":"","holiday":"","closed":"","capacity":10,"id":"1250102660"},{"name":"児童発達支援・放課後等デイサービス　ポニーナＪＲ津田沼","nameKana":"じどうはったつしえんほうかごとうでいさーびすぽにーなじぇいあーるつだぬま","corp":"株式会社Ｒｅａｆ","serviceTypes":["児童発達支援","放課後等デイサービス"],"ward":"習志野市","address":"千葉県習志野市谷津7-7-51アーバン津田沼  B103号","tel":"047-406-5666","url":"https://ponyna.reaf.group/","lat":35.69173637,"lng":140.01768138,"weekday":"","saturday":"","sunday":"","holiday":"","closed":"","capacity":null,"id":"1250200555"},{"name":"児童発達支援・放課後等デイサービス　ポニーナ京成津田沼","nameKana":"じどうはったつしえんほうかごとうでいさーびすぽにーなけいせいつだぬま","corp":"株式会社Ｒｅａｆ","serviceTypes":["児童発達支援","放課後等デイサービス"],"ward":"習志野市","address":"千葉県習志野市津田沼7丁目9-30","tel":"047-409-0203","url":"https://ponyna.reaf.group/","lat":35.68043217,"lng":140.02157611,"weekday":"","saturday":"","sunday":"","holiday":"","closed":"","capacity":null,"id":"1250200563"},{"name":"児童発達支援・放課後等デイサービス　ポニーナ八千代高津","nameKana":"じどうはったつしえんほうかごとうでいさーびすぽにーなやちよたかつ","corp":"株式会社Ｒｅａｆ","serviceTypes":["児童発達支援","放課後等デイサービス"],"ward":"八千代市","address":"千葉県八千代市大和田新田60-42F","tel":"047-411-7776","url":"https://ponyna.reaf.group/","lat":35.72080649,"lng":140.07539723,"weekday":"","saturday":"","sunday":"","holiday":"","closed":"","capacity":null,"id":"1250400700"},{"name":"児童発達支援・放課後等デイサービス　ポニーナ勝田台","nameKana":"じどうはったつしえんほうかごとうでいさーびすぽにーなかつただい","corp":"株式会社Ｒｅａｆ","serviceTypes":["児童発達支援","放課後等デイサービス"],"ward":"八千代市","address":"千葉県八千代市勝田台1-6-2 2F","tel":"047-406-5390","url":"","lat":35.71497221,"lng":140.12463113,"weekday":"","saturday":"","sunday":"","holiday":"","closed":"","capacity":null,"id":"1250400726"},{"name":"児童発達支援・放課後等デイサービス　ポニーナ幕張本郷","nameKana":"じどうはったつしえんほうかごとうでいさーびすぽにーなまくはりほんごう","corp":"株式会社Reaf","serviceTypes":["児童発達支援","放課後等デイサービス"],"ward":"千葉市","address":"千葉県千葉市花見川区幕張本郷2-8-9201","tel":"043-307-1755","url":"https://ponyna.reaf.group/","lat":35.67052256,"lng":140.0417355,"weekday":"","saturday":"","sunday":"","holiday":"","closed":"","capacity":null,"id":"1250102918"},{"name":"児童発達支援・放課後等デイサービス　でいじーさつきが丘","nameKana":"じどうはったつしえんほうかごとうでいさーびすでいじーさつきがおか","corp":"LeaLea合同会社","serviceTypes":["児童発達支援","放課後等デイサービス"],"ward":"千葉市","address":"千葉県千葉市花見川区さつきが丘２丁目１−１ビューアイランドさつきが丘１１４号室","tel":"043-306-1333","url":"","lat":35.66282655,"lng":140.06900807,"weekday":"14:30-17:30","saturday":"10:00-16:30","sunday":"","holiday":"10:00-16:30","closed":"","capacity":10,"id":"1250102090"},{"name":"ダイアキッズ","nameKana":"だいあきっず","corp":"合同会社オフィスエーエムデー","serviceTypes":["児童発達支援","放課後等デイサービス"],"ward":"市原市","address":"千葉県市原市五井中央西１丁目２３−１Ｔ‘ＳＢＯＸ１０１号","tel":"0436-37-2111","url":"http://www.dia-kids.com","lat":35.51450082,"lng":140.0865053,"weekday":"09:00-18:00","saturday":"09:00-18:00","sunday":"","holiday":"09:00-18:00","closed":"日曜日、１２/２９〜１/３","capacity":10,"id":"1250600168"},{"name":"ろーたすくらぶ","nameKana":"ろーたすくらぶ","corp":"特定非営利活動法人ろーたすfuji","serviceTypes":["児童発達支援","放課後等デイサービス"],"ward":"千葉市","address":"千葉県千葉市花見川区西小中台２−４１−１０２","tel":"043-306-1631","url":"","lat":35.6628265,"lng":140.0690081,"weekday":"","saturday":"","sunday":"","holiday":"","closed":"","capacity":10,"id":"1250100870"},{"name":"ぷちスマイルファクトリー","nameKana":"ぷちすまいるふぁくとりー","corp":"有限会社ケアファクトリー","serviceTypes":["児童発達支援"],"ward":"千葉市","address":"千葉県千葉市美浜区高洲１−１６−１５ウインド稲毛１−Ａ","tel":"043-306-6899","url":"https://carefactory.me/","lat":35.63104713,"lng":140.07981072,"weekday":"10:00-16:00","saturday":"","sunday":"","holiday":"","closed":"土・日・祝祭日・年末年始（12月30〜1月3日）","capacity":10,"id":"1250100847"},{"name":"多機能型障がい児支援事業所ゆめ","nameKana":"たきのうがたしょうがいじしえんじぎょうしょゆめ","corp":"株式会社アトラス","serviceTypes":["児童発達支援","放課後等デイサービス"],"ward":"千葉市","address":"千葉県千葉市花見川区天戸町１３３７−４","tel":"043-215-0080","url":"http://www.atorasu.co.jp/top.html","lat":35.6817721,"lng":140.09491902,"weekday":"09:00-15:00","saturday":"09:00-15:00","sunday":"","holiday":"09:00-15:00","closed":"日曜日","capacity":10,"id":"1250100771"},{"name":"ＷＯＷの樹　さくさべ","nameKana":"わおのきさくさべ","corp":"株式会社ホリーホック","serviceTypes":["児童発達支援","放課後等デイサービス"],"ward":"千葉市","address":"千葉県千葉市稲毛区作草部町９２５−１千葉電子作草部ビル１Ｆ","tel":"043-216-2384","url":"https://www.wownoki.com","lat":35.63063248,"lng":140.11817815,"weekday":"09:30-17:30","saturday":"09:30-13:30","sunday":"00:00-00:00","holiday":"00:00-00:00","closed":"日曜日、祝日、事業所の指定した日","capacity":10,"id":"1250101019"},{"name":"BRIDGE2","nameKana":"ぶりっじつー","corp":"株式会社ダンデライオン","serviceTypes":["児童発達支援"],"ward":"千葉市","address":"千葉県千葉市花見川区花園1-9-10","tel":"043-311-1022","url":"http://www.dandelion-bridge.com","lat":35.6526194,"lng":140.0722192,"weekday":"09:00-16:20","saturday":"09:00-16:20","sunday":"","holiday":"09:00-16:20","closed":"日曜,月曜,5/3-5/5,12/29-1/3","capacity":10,"id":"1250101415"},{"name":"BRIDGE4","nameKana":"ぶりっじふぉー","corp":"株式会社ダンデライオン","serviceTypes":["児童発達支援"],"ward":"千葉市","address":"千葉県千葉市花見川区幕張町6丁目86番地1グランディールレーヴ幕張1階","tel":"043-307-5111","url":"http://www.dandelion-bridge.com","lat":35.66050452,"lng":140.0600951,"weekday":"09:50-16:30","saturday":"09:50-16:30","sunday":"","holiday":"09:50-16:30","closed":"日曜,5/3~5/5,12/29~1/3","capacity":10,"id":"1250101597"},{"name":"BRIDGE6","nameKana":"ぶりっじしっくす","corp":"株式会社ダンデライオン","serviceTypes":["児童発達支援","放課後等デイサービス"],"ward":"千葉市","address":"千葉県千葉市花見川区幕張本郷2-21-1幕張本郷ナーサリービル　101号室","tel":"043-441-7722","url":"http://www.dandelion-bridge.com","lat":35.66820889,"lng":140.03866088,"weekday":"09:50-16:30","saturday":"09:50-16:00","sunday":"","holiday":"09:50-16:00","closed":"日曜,5/3-5/5,12/29-1/3","capacity":10,"id":"1250101878"},{"name":"BRIDGE5","nameKana":"ぶりっじふぁいぶ","corp":"株式会社ダンデライオン","serviceTypes":["児童発達支援","放課後等デイサービス"],"ward":"千葉市","address":"千葉県千葉市花見川区南花園２丁目２−１５CI-23ビル４階","tel":"043-301-6752","url":"http://www.dandelion-bridge.com","lat":35.65141954,"lng":140.07251365,"weekday":"09:30-17:30","saturday":"10:00-16:30","sunday":"09:30-17:30","holiday":"09:30-17:30","closed":"日曜,5/3〜5/5,12/29〜1/3","capacity":10,"id":"1250101589"},{"name":"BRIDGE","nameKana":"ぶりっじ","corp":"株式会社ダンデライオン","serviceTypes":["児童発達支援"],"ward":"千葉市","address":"千葉県千葉市花見川区花園2丁目1-25万仁ビル1階Ｄ号","tel":"043-307-8831","url":"http://www.dandelion-bridge.com","lat":35.65268605,"lng":140.07120262,"weekday":"09:50-16:30","saturday":"09:50-16:30","sunday":"","holiday":"09:50-16:30","closed":"日曜,5/3-5/5,12/29-1/3","capacity":10,"id":"1250101175"},{"name":"ハニーキッズ四街道園","nameKana":"はにーきっずよつかいどうえん","corp":"株式会社ハニーキッズ","serviceTypes":["児童発達支援","放課後等デイサービス"],"ward":"四街道市","address":"千葉県四街道市四街道1-3-13-201","tel":"043-304-0367","url":"https://yotsukaido-honeykids.amebaownd.com/","lat":35.66261346,"lng":140.16367267,"weekday":"10:00-16:30","saturday":"","sunday":"","holiday":"","closed":"","capacity":10,"id":"1254400284"},{"name":"こどもみらいひろばリスキッズ稲毛教室","nameKana":"こどもみらいひろばりすきっずいなげきょうしつ","corp":"株式会社ＲｅＳｔａｒｔ","serviceTypes":["児童発達支援","放課後等デイサービス"],"ward":"千葉市","address":"千葉県千葉市稲毛区小仲台８−１９−１エスポワール小仲台１Ｆ","tel":"043-301-6805","url":"https://r.goope.jp/risukids/","lat":35.64539831,"lng":140.08852337,"weekday":"","saturday":"","sunday":"","holiday":"","closed":"","capacity":null,"id":"1250102546"},{"name":"児童発達支援クラブフォルテ","nameKana":"じどうはったつしえんくらぶふぉるて","corp":"特定非営利活動法人フォレストサウンド","serviceTypes":["児童発達支援","放課後等デイサービス"],"ward":"千葉市","address":"千葉県千葉市稲毛区園生町３４８−４３","tel":"043-305-4900","url":"http://forestsound.jp/","lat":35.6515426,"lng":140.11340424,"weekday":"","saturday":"","sunday":"","holiday":"","closed":"","capacity":null,"id":"1250100110"},{"name":"児童発達支援クラブ　メロディ","nameKana":"じどうはったつしえんくらぶめろでぃ","corp":"特定非営利活動法人フォレストサウンド","serviceTypes":["児童発達支援","放課後等デイサービス"],"ward":"千葉市","address":"千葉県千葉市稲毛区園生町４４９−１　コープ野村園生１０１","tel":"043-285-4610","url":"http://forestsound.jp/","lat":35.64421318,"lng":140.11494265,"weekday":"","saturday":"","sunday":"","holiday":"","closed":"","capacity":null,"id":"1250100276"},{"name":"ソーシャルサポートセミナーあらいぶ","nameKana":"そーしゃるさぽーとせみなーあらいぶ","corp":"特定非営利活動法人フォレストサウンド","serviceTypes":["児童発達支援","放課後等デイサービス"],"ward":"千葉市","address":"千葉県千葉市稲毛区稲毛東３−４−１１グレース稲毛２０２","tel":"043-304-6137","url":"http://forestsound.jp/","lat":35.63636341,"lng":140.09003174,"weekday":"","saturday":"","sunday":"","holiday":"","closed":"","capacity":null,"id":"1250100722"},{"name":"サンタクロース","nameKana":"さんたくろーす","corp":"株式会社モミモミカンパニー","serviceTypes":["児童発達支援","放課後等デイサービス"],"ward":"千葉市","address":"千葉県千葉市稲毛区柏台１−５−１０１ファミールハイツ","tel":"070-5089-4383","url":"http://www.santa369.com","lat":35.6361003,"lng":140.1071269,"weekday":"14:30-17:30","saturday":"09:30-14:30","sunday":"00:00-00:00","holiday":"09:30-14:30","closed":"日曜日、祝日、年末年始(12月29日〜1月3日)、お盆休み","capacity":10,"id":"1250100557"},{"name":"サンタクロースＪｒ","nameKana":"さんたくろーすじゅにあ","corp":"株式会社モミモミカンパニー","serviceTypes":["児童発達支援","放課後等デイサービス"],"ward":"千葉市","address":"千葉県千葉市稲毛区柏台１−５−１０１　Ｒ−２、Ｒ−３ファミールハイツ","tel":"070-5089-4383","url":"http://www.santa369.com","lat":35.6361003,"lng":140.1071269,"weekday":"14:30-17:30","saturday":"09:00-12:00","sunday":"00:00-00:00","holiday":"09:00-12:00","closed":"日曜","capacity":10,"id":"1250100664"},{"name":"サンタクロース　もみの木","nameKana":"さんたくろーすもみのき","corp":"株式会社モミモミカンパニー","serviceTypes":["児童発達支援","放課後等デイサービス"],"ward":"千葉市","address":"千葉県千葉市稲毛区柏台１−５−１０６ファミールハイツ","tel":"070-5089-4383","url":"http://www.santa369.com","lat":35.6361003,"lng":140.1071269,"weekday":"14:30-17:30","saturday":"09:00-12:00","sunday":"00:00-00:00","holiday":"09:00-00:00","closed":"日曜","capacity":10,"id":"1250101043"},{"name":"みつばちすてっぷ","nameKana":"みつばちすてっぷ","corp":"株式会社ｌｅ　ｓｏｌｅｉｌ","serviceTypes":["児童発達支援"],"ward":"千葉市","address":"千葉県千葉市若葉区桜木北３丁目4-50-B","tel":"043-372-0355","url":"","lat":35.63705149,"lng":140.15728056,"weekday":"09:00-17:00","saturday":"","sunday":"","holiday":"","closed":"土曜日・日曜日・祝日・年末１２月29日〜翌年１月3日","capacity":10,"id":"1250102249"},{"name":"放課後等デイサービス　ウィズ・ユー若葉桜木","nameKana":"ほうかごとうでいさーびすうぃずゆーわかばさくらぎ","corp":"株式会社和音","serviceTypes":["児童発達支援","放課後等デイサービス"],"ward":"千葉市","address":"千葉県千葉市若葉区千城台西１−４−２ミズノヤ第一ビル１Ｆ","tel":"043-488-5157","url":"https://waon-child.com","lat":35.63388241,"lng":140.15534187,"weekday":"10:00-18:00","saturday":"10:00-16:00","sunday":"00:00-00:00","holiday":"10:00-16:00","closed":"日曜日、年末年始","capacity":10,"id":"1250102306"},{"name":"キッズボンドEX八街","nameKana":"きっずぼんどいーえっくすやちまた","corp":"有限会社アークス","serviceTypes":["児童発達支援","放課後等デイサービス"],"ward":"八街市","address":"千葉県八街市八街い188-2山田SGビル","tel":"043-442-6363","url":"https://kidsbond-yachimata.jp/\t\t\t\t\t\t\t\t\t\t\t\t","lat":35.6519057,"lng":140.29660687,"weekday":"11:30-14:30","saturday":"10:30-16:30","sunday":"","holiday":"10:30-16:30","closed":"日曜日、12月30日から1月3日まで、及びその他事業所が定める日。","capacity":10,"id":"1254500117"},{"name":"キッズボンドEX第2教室八街","nameKana":"きっずぼんどいーえっくすだいにきょうしつやちまた","corp":"有限会社アークス","serviceTypes":["児童発達支援","放課後等デイサービス"],"ward":"八街市","address":"千葉県八街市八街ろ131-11","tel":"043-497-3855","url":"https://kidsbond-yachimata.jp/number2/","lat":35.65898588,"lng":140.28463213,"weekday":"11:30-14:30","saturday":"10:30-16:30","sunday":"","holiday":"10:30-16:30","closed":"日曜日、12月30日〜１月３日まで、及びその他事業所が定める日を除く。","capacity":10,"id":"1254500125"},{"name":"キッズボンドEX第3教室八街","nameKana":"きっずぼんどいーえっくすだいさんきょうしつやちまた","corp":"有限会社アークス","serviceTypes":["児童発達支援","放課後等デイサービス"],"ward":"八街市","address":"千葉県八街市八街に106-100","tel":"043-309-9270","url":"https://kidsbond-yachimata.jp/number3/","lat":35.65962867,"lng":140.32518753,"weekday":"11:30-14:30","saturday":"10:30-16:30","sunday":"","holiday":"10:30-16:30","closed":"日曜日、12月30日から１月３日まで、及びその他事業所が定める日。","capacity":10,"id":"1254500166"},{"name":"キッズボンドEX第四教室八街","nameKana":"きっずぼんどいーえっくすだいよんきょうしつやちまた","corp":"有限会社アークス","serviceTypes":["児童発達支援","放課後等デイサービス"],"ward":"八街市","address":"千葉県八街市八街ほ327番地4八街木材ビル２Ｆ","tel":"043-497-3915","url":"https://kidsbond-yachimata.jp/","lat":35.65806962,"lng":140.31654412,"weekday":"11:30-14:30","saturday":"10:30-16:30","sunday":"","holiday":"10:30-16:30","closed":"日曜日、12月30日から１月３日まで、及びその他事業所が定める日","capacity":10,"id":"1254500174"},{"name":"キッズボンドEX富里","nameKana":"きっずぼんどいーえっくすとみさと","corp":"有限会社アークス","serviceTypes":["児童発達支援","放課後等デイサービス"],"ward":"富里市","address":"千葉県富里市七栄298-87アルファビル１階","tel":"0476-85-7480","url":"https://kidsbond-yachimata.jp/","lat":35.7368364,"lng":140.32102359,"weekday":"11:30-14:30","saturday":"10:30-16:30","sunday":"","holiday":"10:30-16:30","closed":"","capacity":null,"id":"1254800178"},{"name":"あーぶる","nameKana":"あーぶる","corp":"特定非営利活動法人あーぶる","serviceTypes":["児童発達支援"],"ward":"千葉市","address":"千葉県千葉市若葉区小倉台４−１９−１作田ビル２階Ａ","tel":"043-497-6708","url":"","lat":35.62783768,"lng":140.17137531,"weekday":"09:00-17:00","saturday":"09:00-17:00","sunday":"","holiday":"09:00-17:00","closed":"日曜日","capacity":10,"id":"1250102520"},{"name":"重症心身障害児向け　児童発達支援・放課後等デイサービス　ふわっと","nameKana":"じゅうしょうしんしんしょうがいじむけじどうはったつしえんほうかごとうでいさーびすふわっと","corp":"株式会社優奏","serviceTypes":["児童発達支援"],"ward":"千葉市","address":"千葉県千葉市若葉区みつわ台４−４−４","tel":"09034272161","url":"https://yuuka2021.com/","lat":35.64172054,"lng":140.13263574,"weekday":"10:00-13:30","saturday":"","sunday":"","holiday":"","closed":"土日、祝日、お盆、年末年始","capacity":5,"id":"1250102017"},{"name":"キッズボンドＥＸ市原","nameKana":"きっずぼんどいーえっくすいちはら","corp":"株式会社Ｈａｐｐｉｎｅｓｓ","serviceTypes":["児童発達支援","放課後等デイサービス"],"ward":"市原市","address":"千葉県市原市東国分寺台3-10-19","tel":"0436-67-0595","url":"https://www.kidsbondexichihara.com","lat":35.49056084,"lng":140.1244692,"weekday":"11:30-14:30","saturday":"10:30-16:30","sunday":"","holiday":"10:30-16:30","closed":"日曜日、12月29日から１月３日まで、及びその他事業所が定める日。","capacity":10,"id":"1250600390"},{"name":"ひまわりのたね","nameKana":"ひまわりのたね","corp":"スノーフレーク株式会社","serviceTypes":["児童発達支援","放課後等デイサービス"],"ward":"千葉市","address":"千葉県千葉市中央区蘇我１−１９−７","tel":"043-301-4403","url":"https://snowflake-himawarinotane.com/","lat":35.5746012,"lng":140.13073123,"weekday":"09:30-17:10","saturday":"09:30-17:10","sunday":"","holiday":"","closed":"土、日、祝日","capacity":10,"id":"1250103155"},{"name":"バンブーアイランド","nameKana":"ばんぶーあいらんど","corp":"株式会社　ベストサポート","serviceTypes":["児童発達支援","放課後等デイサービス"],"ward":"千葉市","address":"千葉県千葉市若葉区西都賀4-1-6 土屋ビル","tel":"043-304-5460","url":"","lat":35.63856458,"lng":140.15169994,"weekday":"","saturday":"","sunday":"","holiday":"","closed":"","capacity":null,"id":"1250100243"},{"name":"バンブーｎｅｘｔ","nameKana":"ばんぶーねくすと","corp":"株式会社　ベストサポート","serviceTypes":["児童発達支援","放課後等デイサービス"],"ward":"千葉市","address":"千葉県千葉市若葉区西都賀４−１−１０","tel":"043-304-5460","url":"","lat":35.63893676,"lng":140.15207769,"weekday":"","saturday":"","sunday":"","holiday":"","closed":"","capacity":null,"id":"1250100441"},{"name":"３だーバンブー","nameKana":"さんだーばんぶー","corp":"株式会社　ベストサポート","serviceTypes":["児童発達支援","放課後等デイサービス"],"ward":"千葉市","address":"千葉県千葉市若葉区西都賀４−２","tel":"043-205-4508","url":"","lat":35.63888394,"lng":140.15148048,"weekday":"","saturday":"","sunday":"","holiday":"","closed":"","capacity":null,"id":"1250100573"},{"name":"多機能型事業所　ＩＴＳＵＭＯ","nameKana":"たきのうがたじぎょうしょいつも","corp":"株式会社　ベストサポート","serviceTypes":["児童発達支援"],"ward":"千葉市","address":"千葉県千葉市若葉区貝塚2-2-3","tel":"043-310-7970","url":"http://www.b-e-s-t.jp","lat":35.62908275,"lng":140.14986435,"weekday":"","saturday":"","sunday":"","holiday":"","closed":"土日","capacity":10,"id":"1250101134"},{"name":"中野学園","nameKana":"なかのがくえん","corp":"社会福祉法人あしたば","serviceTypes":["児童発達支援","放課後等デイサービス"],"ward":"千葉市","address":"千葉県千葉市若葉区中野町１５７４−３１","tel":"043-228-6114","url":"","lat":35.5602212,"lng":140.26104792,"weekday":"","saturday":"","sunday":"","holiday":"","closed":"","capacity":null,"id":"1250100037"},{"name":"アースウェル","nameKana":"あーすうぇる","corp":"一般社団法人ソーシャルサポートアソシエーション・ルーツ","serviceTypes":["児童発達支援","放課後等デイサービス"],"ward":"千葉市","address":"千葉県千葉市若葉区貝塚町880-2","tel":"043-309-6245","url":"https://asc-well.jp/","lat":35.63388241,"lng":140.15534187,"weekday":"09:00-16:00","saturday":"10:00-17:00","sunday":"","holiday":"","closed":"土曜日、日曜日、祝日","capacity":20,"id":"1250102314"},{"name":"運動遊びと療育支援　こどもプラス幕張本郷教室","nameKana":"こどもぷらすまくはりほんごうきょうしつ","corp":"株式会社千葉クオリティー","serviceTypes":["児童発達支援","放課後等デイサービス"],"ward":"千葉市","address":"千葉県千葉市花見川区幕張本郷2-34-19レジデンスジョー104号室","tel":"043-306-1982","url":"http://kp-makuhari.com/","lat":35.66944491,"lng":140.04190496,"weekday":"09:15-17:15","saturday":"09:15-16:15","sunday":"","holiday":"09:15-16:15","closed":"日曜日・年末・年始","capacity":10,"id":"1250100987"},{"name":"運動遊びと療育支援　こどもプラス稲毛教室","nameKana":"こどもぷらすいなげきょうしつ","corp":"株式会社千葉クオリティー","serviceTypes":["児童発達支援","放課後等デイサービス"],"ward":"千葉市","address":"千葉県千葉市稲毛区穴川３−１−２０第一武田ビル１Ｆ号室","tel":"043-239-9950","url":"http://kp-inage.com/","lat":35.63361761,"lng":140.11193448,"weekday":"09:30-17:15","saturday":"09:30-16:15","sunday":"","holiday":"09:30-16:15","closed":"日曜日・年末・年始","capacity":10,"id":"1250101035"},{"name":"児童発達支援事業所　ひかりぐみ","nameKana":"じどうはったつしえんじぎょうしょひかりぐみ","corp":"社会福祉法人千葉明徳会","serviceTypes":["児童発達支援"],"ward":"千葉市","address":"千葉県千葉市緑区土気町１６２６−５（２階）","tel":"080-9686-0932","url":"https://www.hikarigumi-meitokutoke.com/","lat":35.53271574,"lng":140.26972159,"weekday":"","saturday":"","sunday":"","holiday":"","closed":"土曜、日曜、祝祭日、年末年始","capacity":10,"id":"1250101605"},{"name":"リハリンクスおゆみ野","nameKana":"りはりんくすおゆみの","corp":"株式会社発達障害リハビリテーション研究センター","serviceTypes":["児童発達支援"],"ward":"千葉市","address":"千葉県千葉市緑区おゆみ野3-24-1アイ・ティー・オーおゆみ野B号室","tel":"043-290-9571","url":"https://www.develop-reha.com/","lat":35.56230311,"lng":140.17560834,"weekday":"09:30-17:00","saturday":"","sunday":"09:30-17:00","holiday":"09:30-17:00","closed":"年末年始","capacity":10,"id":"1250101985"},{"name":"ﾘﾊﾘﾝｸｽｷｯｽﾞおゆみ野","nameKana":"りはりんくすきっずおゆみの","corp":"株式会社発達障害リハビリテーション研究センター","serviceTypes":["児童発達支援","放課後等デイサービス"],"ward":"千葉市","address":"千葉県千葉市緑区おゆみ野２丁目２−１はうすグリーンルーフ","tel":"043-235-7104","url":"https://www.develop-reha.com/","lat":35.56490009,"lng":140.17314664,"weekday":"10:00-17:00","saturday":"","sunday":"","holiday":"10:00-17:00","closed":"","capacity":10,"id":"1250102181"},{"name":"リハリンクスセンターおゆみ野","nameKana":"りはりんくすせんたーおゆみの","corp":"株式会社発達障害リハビリテーション研究センター","serviceTypes":["児童発達支援","放課後等デイサービス"],"ward":"千葉市","address":"千葉県千葉市緑区鎌取町69-11グレースＪＯＫＯ店舗２","tel":"043-312-1294","url":"https://www.develop-reha.com/","lat":35.56313077,"lng":140.17976712,"weekday":"10:00-17:00","saturday":"","sunday":"","holiday":"10:00-17:00","closed":"土曜日、日曜日、年末年始","capacity":5,"id":"1250102447"},{"name":"ＢａｍｂｉＫｉｄｓ","nameKana":"ばんびきっず","corp":"合同会社ソレイユ","serviceTypes":["児童発達支援","放課後等デイサービス"],"ward":"千葉市","address":"千葉県千葉市緑区おゆみ野３−８−１山太ビル２階Ｆ号室","tel":"043-290-9227","url":"https://h-navi.jp/support_facility/facilities/163862","lat":35.5605144,"lng":140.17778093,"weekday":"09:00-18:00","saturday":"09:00-18:00","sunday":"","holiday":"","closed":"日曜日・祝日・お盆・年末年始","capacity":10,"id":"1250102538"},{"name":"児童発達支援　ルルディ蘇我","nameKana":"じどうはったつしえんるるでぃそが","corp":"株式会社プレイ","serviceTypes":["児童発達支援","放課後等デイサービス"],"ward":"千葉市","address":"千葉県千葉市中央区蘇我二丁目７−１０","tel":"043-488-6673","url":"https://louloudi.online/","lat":35.57307919,"lng":140.13377787,"weekday":"10:00-17:00","saturday":"10:00-17:00","sunday":"","holiday":"10:00-17:00","closed":"日曜・月曜　（来年４月より月曜開所予定）","capacity":10,"id":"1250102694"},{"name":"ふたばのおうち","nameKana":"ふたばのおうち","corp":"社会福祉法人あかね福祉会","serviceTypes":["児童発達支援"],"ward":"千葉市","address":"千葉県千葉市緑区刈田子町３０８−１０","tel":"070-5593-3868","url":"https://akane-futaba.ed.jp/futabanoouchi/","lat":35.54673777,"lng":140.16588333,"weekday":"","saturday":"","sunday":"","holiday":"","closed":"","capacity":10,"id":"1250103015"},{"name":"縁がわ","nameKana":"えんがわ","corp":"株式会社ＧｒｏｗＡｌｌ","serviceTypes":["児童発達支援","放課後等デイサービス"],"ward":"千葉市","address":"千葉県千葉市緑区おゆみ野３−１０−３ＩＴオフィスＨＡＮＡ３０１号","tel":"043-312-8560","url":"https://growall.co.jp/engawa","lat":35.56005888,"lng":140.1778226,"weekday":"15:00-17:30","saturday":"10:00-15:00","sunday":"","holiday":"","closed":"","capacity":10,"id":"1250102751"},{"name":"縁がわキッズ","nameKana":"えんがわきっず","corp":"株式会社ＧｒｏｗＡｌｌ","serviceTypes":["児童発達支援"],"ward":"千葉市","address":"千葉県千葉市中央区生実町９４４−１ＩＴＯビル１０５","tel":"043-497-6514","url":"https://engawa-group.com/kids/oyumiike","lat":35.56684108,"lng":140.14107018,"weekday":"10:00-17:00","saturday":"10:00-17:00","sunday":"","holiday":"","closed":"日曜、月曜、祝祭日","capacity":10,"id":"1250103114"},{"name":"千葉県千葉リハビリテ—ションセンター児童発達支援センター","nameKana":"ちばけんちばりはびりてーしょんせんたーじどうはったつしえんせんたー","corp":"社会福祉法人千葉県身体障害者福祉事業団","serviceTypes":["児童発達支援","放課後等デイサービス"],"ward":"千葉市","address":"千葉県千葉市緑区誉田町１丁目４５番２","tel":"043-291-1831","url":"http://www.chiba-reha.jp/","lat":35.5571727,"lng":140.19228631,"weekday":"10:00-14:00","saturday":"","sunday":"","holiday":"","closed":"土曜、日曜、国民の祝日、12月29日から1月3日まで","capacity":10,"id":"1250100292"},{"name":"ぽこあぽこ","nameKana":"ぽこあぽこ","corp":"特定非営利活動法人　poco a poco","serviceTypes":["児童発達支援","放課後等デイサービス"],"ward":"千葉市","address":"千葉県千葉市緑区平山町2005-2","tel":"043-420-8635","url":"","lat":35.57391275,"lng":140.18103519,"weekday":"","saturday":"","sunday":"","holiday":"","closed":"","capacity":null,"id":"1250100250"},{"name":"Bring up もりのみ幼児教室","nameKana":"ぶりんぐあっぷもりのみようじきょうしつ","corp":"特定非営利活動法人　ＥＰＯ","serviceTypes":["児童発達支援","放課後等デイサービス"],"ward":"千葉市","address":"千葉県千葉市緑区あすみが丘東２丁目５番11","tel":"043-226-5001","url":"https://www.epo-bringup.com/","lat":35.52660557,"lng":140.27756011,"weekday":"09:30-17:00","saturday":"","sunday":"","holiday":"","closed":"土曜日、日曜日、祝日等、8/14〜15、12/29〜1/3","capacity":10,"id":"1250100854"},{"name":"Bring up ちば子ども発達センター","nameKana":"ぶりんぐあっぷちばこどもはったつせんたー","corp":"特定非営利活動法人　ＥＰＯ","serviceTypes":["児童発達支援","放課後等デイサービス"],"ward":"千葉市","address":"千葉県千葉市美浜区高浜3-3-1","tel":"043-301-4570","url":"https://www.epo-bringup.com/","lat":35.62104275,"lng":140.06725117,"weekday":"09:30-16:30","saturday":"","sunday":"","holiday":"","closed":"土曜日、日曜日、国民の祝日等、8/14〜15、12/29〜1/3","capacity":30,"id":"1250101118"},{"name":"わくわくぎふと鎌取","nameKana":"わくわくぎふとかまとり","corp":"株式会社エシクス","serviceTypes":["児童発達支援","放課後等デイサービス"],"ward":"千葉市","address":"千葉県千葉市緑区おゆみ野３−３７−２","tel":"043-308-3475","url":"","lat":35.55952282,"lng":140.17464722,"weekday":"","saturday":"","sunday":"","holiday":"","closed":"","capacity":10,"id":"1250100946"},{"name":"ハートシード風","nameKana":"はーとしーどかぜ","corp":"株式会社ハートシード宮元","serviceTypes":["児童発達支援","放課後等デイサービス"],"ward":"千葉市","address":"千葉県千葉市緑区おゆみ野3-7-5鎌取セントラルマンション106号室","tel":"043-497-5111","url":"https://www.mana-kodomo.com/heartseed/","lat":35.5605588,"lng":140.1761669,"weekday":"09:00-16:30","saturday":"","sunday":"","holiday":"","closed":"土曜日、日曜日、祝祭日、年末年始、事業所の指定する日","capacity":10,"id":"1250101944"},{"name":"こども発達支援　ハートシード","nameKana":"こどもはったつしえんはーとしーど","corp":"株式会社ハートシード宮元","serviceTypes":["児童発達支援","放課後等デイサービス"],"ward":"千葉市","address":"千葉県千葉市緑区おゆみ野３−７−５","tel":"043-497-5111","url":"http://www.mana-kodomo.com/heartseed/","lat":35.56028386,"lng":140.17867271,"weekday":"10:00-17:30","saturday":"","sunday":"","holiday":"","closed":"土曜日、日曜日、祝祭日、年末年始、事業所の指定する日","capacity":10,"id":"1250100920"},{"name":"ドットジュニア　都町　第１教室（児童発達支援・放課後等デイサービス）","nameKana":"どっとじゅにあみやこちょうだいいちきょうしつ","corp":"株式会社ブリッジ","serviceTypes":["児童発達支援","放課後等デイサービス"],"ward":"千葉市","address":"千葉県千葉市中央区都町6-21-14高井ビル１B","tel":"043-309-8177","url":"https://kagayaki-machi.com/","lat":35.61470414,"lng":140.15106763,"weekday":"11:00-17:45","saturday":"10:00-16:00","sunday":"10:00-16:00","holiday":"10:00-16:00","closed":"12月30日から1月3日まで","capacity":10,"id":"1250101282"},{"name":"ドットジュニア　千葉中央　第１教室（児童発達支援・放課後等デイサービス）","nameKana":"どっとじゅにあちばちゅうおうだいいちきょうしつ","corp":"株式会社ブリッジ","serviceTypes":["児童発達支援","放課後等デイサービス"],"ward":"千葉市","address":"千葉県千葉市中央区本町三丁目７番５号べリスビル２０１","tel":"043-307-6485","url":"https://kagayaki-machi.com/","lat":35.60673766,"lng":140.12567264,"weekday":"11:00-17:45","saturday":"10:00-16:00","sunday":"10:00-16:00","holiday":"10:00-16:00","closed":"12月30日から1月3日まで","capacity":10,"id":"1250101514"},{"name":"ドットジュニア　千葉中央　第３教室（児童発達支援・放課後等デイサービス）","nameKana":"どっとじゅにあちばちゅうおうだいさんきょうしつ","corp":"株式会社ブリッジ","serviceTypes":["児童発達支援","放課後等デイサービス"],"ward":"千葉市","address":"千葉県千葉市中央区本町３−６−３メゾン本町２０１","tel":"043-306-3256","url":"https://kagayaki-machi.com/","lat":35.60691269,"lng":140.12610315,"weekday":"11:00-17:45","saturday":"10:00-16:00","sunday":"10:00-16:00","holiday":"10:00-16:00","closed":"12月30日から1月3日","capacity":10,"id":"1250101647"},{"name":"ドットジュニア　長沼原　第１教室（児童発達支援・放課後等デイサービス）","nameKana":"どっとじゅにあながぬまはらだいいちきょうしつ","corp":"株式会社ブリッジ","serviceTypes":["児童発達支援","放課後等デイサービス"],"ward":"千葉市","address":"千葉県千葉市稲毛区長沼原町317-1　ラ・ポルテ・ヴィス２A","tel":"043-310-3323","url":"https://kagayaki-machi.com/","lat":35.65544,"lng":140.12691424,"weekday":"11:00-17:45","saturday":"10:00-16:00","sunday":"10:00-16:00","holiday":"10:00-16:00","closed":"12月30日から1月3日","capacity":10,"id":"1250101704"},{"name":"ドットジュニア　浜野　第１教室（児童発達支援・放課後等デイサービス）","nameKana":"どっとじゅにあはまのだいいちきょうしつ","corp":"株式会社ブリッジ","serviceTypes":["児童発達支援","放課後等デイサービス"],"ward":"千葉市","address":"千葉県千葉市中央区浜野町１１６０A号室","tel":"043-312-7084","url":"https://kagayaki-machi.com/","lat":35.55719441,"lng":140.1279754,"weekday":"11:00-17:45","saturday":"10:00-16:00","sunday":"10:00-16:00","holiday":"10:00-16:00","closed":"12月30日から1月3日まで","capacity":10,"id":"1250101670"},{"name":"ドットジュニア　蘇我　第２教室（児童発達支援・放課後等デイサービス）","nameKana":"どっとじゅにあそがだいにきょうしつ","corp":"株式会社ブリッジ","serviceTypes":["児童発達支援","放課後等デイサービス"],"ward":"千葉市","address":"千葉県千葉市中央区南町2-22-14エースハイムちば202","tel":"043-420-8882","url":"https://kagayaki-machi.com/","lat":35.58013137,"lng":140.13465083,"weekday":"11:00-17:45","saturday":"10:00-16:00","sunday":"10:00-16:00","holiday":"10:00-16:00","closed":"12月30日から1月3日","capacity":10,"id":"1250101746"},{"name":"ドットジュニア　新千葉　第１教室（児童発達支援・放課後等デイサービス）","nameKana":"どっとじゅにあしんちばだいいちきょうしつ","corp":"株式会社ブリッジ","serviceTypes":["児童発達支援","放課後等デイサービス"],"ward":"千葉市","address":"千葉県千葉市中央区汐見丘町２３−１　千壽ビル１階A号室","tel":"043-441-7736","url":"https://kagayaki-machi.com/","lat":35.61602039,"lng":140.10686996,"weekday":"11:00-17:45","saturday":"10:00-16:00","sunday":"10:00-16:00","holiday":"10:00-16:00","closed":"12月30日から1月3日","capacity":10,"id":"1250101845"},{"name":"ドットジュニア　西千葉教室（児童発達支援・放課後等デイサービス）","nameKana":"どっとじゅにあにしちばきょうしつ","corp":"株式会社ブリッジ","serviceTypes":["児童発達支援","放課後等デイサービス"],"ward":"千葉市","address":"千葉県千葉市中央区松波２−９−１ベルメゾン松波１０４号","tel":"043-301-6635","url":"https://kagayaki-machi.com/","lat":35.6074345,"lng":140.1230949,"weekday":"11:00-17:45","saturday":"10:00-16:00","sunday":"10:00-16:00","holiday":"10:00-16:00","closed":"12月30日から1月3日","capacity":10,"id":"1250101977"},{"name":"ドットジュニア　新検見川教室（児童発達支援・放課後等デイサービス）","nameKana":"どっとじゅにあしんけみがわきょうしつ","corp":"株式会社ブリッジ","serviceTypes":["児童発達支援","放課後等デイサービス"],"ward":"千葉市","address":"千葉県千葉市花見川区南花園2-2-12アコルデ新検見川１階","tel":"043-307-1250","url":"https://kagayaki-machi.com/","lat":35.6628265,"lng":140.0690081,"weekday":"11:00-17:45","saturday":"10:00-16:00","sunday":"10:00-16:00","holiday":"10:00-16:00","closed":"12月30日から1月3日","capacity":10,"id":"1250102025"},{"name":"ドットジュニア　あすみが丘　第１教室（児童発達支援・放課後等デイサービス）","nameKana":"どっとじゅにああすみがおかだいいちきょうしつ","corp":"株式会社ブリッジ","serviceTypes":["児童発達支援","放課後等デイサービス"],"ward":"千葉市","address":"千葉県千葉市緑区あすみが丘２丁目１７−１５２丁目Ｍ店舗２階","tel":"043-488-5830","url":"https://kagayaki-machi.com/","lat":35.56055884,"lng":140.17616684,"weekday":"11:00-17:45","saturday":"10:00-16:00","sunday":"10:00-16:00","holiday":"10:00-16:00","closed":"12月30日から1月3日まで","capacity":10,"id":"1250102231"},{"name":"ドットジュニア　高浜教室（児童発達支援・放課後等デイサービス）","nameKana":"どっとじゅにあたかはまきょうしつ","corp":"株式会社ブリッジ","serviceTypes":["児童発達支援","放課後等デイサービス"],"ward":"千葉市","address":"千葉県千葉市美浜区高浜5-17-9松尾貸店舗1階","tel":"043-445-8781","url":"https://kagayaki-machi.com/","lat":35.62474781,"lng":140.06509015,"weekday":"11:00-17:45","saturday":"10:00-16:00","sunday":"10:00-16:00","holiday":"10:00-16:00","closed":"12月30日から1月3日","capacity":10,"id":"1250102363"},{"name":"ドットジュニア 真砂 第１教室（児童発達支援・放課後等デイサービス）","nameKana":"どっとじゅにあまさごだいいちきょうしつ","corp":"株式会社ブリッジ","serviceTypes":["児童発達支援","放課後等デイサービス"],"ward":"千葉市","address":"千葉県千葉市美浜区真砂5丁目21-3ユアサビル102","tel":"043-216-2537","url":"https://kagayaki-machi.com/","lat":35.64681169,"lng":140.06347297,"weekday":"11:00-17:45","saturday":"10:00-16:00","sunday":"10:00-16:00","holiday":"10:00-16:00","closed":"12月30日から1月3日","capacity":10,"id":"1250102462"},{"name":"ドットジュニア 小倉台教室（児童発達支援・放課後等デイサービス）","nameKana":"どっとじゅにあおぐらだいきょうしつ","corp":"株式会社ブリッジ","serviceTypes":["児童発達支援","放課後等デイサービス"],"ward":"千葉市","address":"千葉県千葉市若葉区小倉台３−２−１寒川ビル２０１","tel":"043-312-6067","url":"https://kagayaki-machi.com/","lat":35.62778488,"lng":140.17235841,"weekday":"11:00-17:45","saturday":"10:00-16:00","sunday":"10:00-16:00","holiday":"10:00-16:00","closed":"12月30日から1月3日まで","capacity":10,"id":"1250102777"},{"name":"ドットジュニア　幕張　第１教室（児童発達支援・放課後等デイサービス）","nameKana":"どっとじゅにあまくはりだいいちきょうしつ","corp":"株式会社ブリッジ","serviceTypes":["児童発達支援","放課後等デイサービス"],"ward":"千葉市","address":"千葉県千葉市花見川区幕張町４−６１４−５Ａ号室","tel":"043-304-5007","url":"https://kagayaki-machi.com/","lat":35.66058781,"lng":140.05729537,"weekday":"11:00-17:45","saturday":"10:00-16:00","sunday":"10:00-16:00","holiday":"10:00-16:00","closed":"12月30日から1月3日","capacity":10,"id":"1250102868"},{"name":"ドットジュニア　蘇我　第１教室（児童発達支援・放課後等デイサービス）","nameKana":"どっとじゅにあそがだいいちきょうしつ","corp":"株式会社ブリッジ","serviceTypes":["児童発達支援","放課後等デイサービス"],"ward":"千葉市","address":"千葉県千葉市中央区今井２−１７−４ＤｏｔＦＲＯＮＴ蘇我３階","tel":"043-312-1073","url":"https://kagayaki-machi.com/","lat":35.57941459,"lng":140.1280042,"weekday":"11:00-17:45","saturday":"10:00-16:00","sunday":"10:00-16:00","holiday":"10:00-16:00","closed":"12月30日から1月3日まで","capacity":10,"id":"1250101761"},{"name":"ドットジュニア　都賀　第１教室（児童発達支援・放課後等デイサービス）","nameKana":"どっとじゅにあつがだいいちきょうしつじどうはっつしえんほうかごとうでいさーびす","corp":"株式会社ブリッジ","serviceTypes":["児童発達支援","放課後等デイサービス"],"ward":"千葉市","address":"千葉県千葉市若葉区原町７７６−２Ａ号室","tel":"043-239-6022","url":"https://kagayaki-machi.com/","lat":35.63290663,"lng":140.14458075,"weekday":"11:00-17:45","saturday":"10:00-16:00","sunday":"10:00-16:00","holiday":"10:00-16:00","closed":"１２月３０日から１月３日まで","capacity":10,"id":"1250103080"},{"name":"ドットジュニア 花見川教室（児童発達支援・放課後等デイサービス）","nameKana":"どっとじゅにあはなみがわきょうしつ","corp":"株式会社ブリッジ","serviceTypes":["児童発達支援","放課後等デイサービス"],"ward":"千葉市","address":"千葉県千葉市花見川区作新台６−１０−１花見川サンハイツB棟　１１２号室","tel":"080-4670-4811","url":"https://kagayaki-machi.com/","lat":35.68768803,"lng":140.08925544,"weekday":"11:00-17:45","saturday":"10:00-16:00","sunday":"10:00-16:00","holiday":"10:00-16:00","closed":"12月30日から1月3日まで","capacity":10,"id":"1250103239"},{"name":"ドットジュニア 船橋浜町教室（児童発達支援・放課後等デイサービス）","nameKana":"どっとじゅにあふなばしはまちょうきょうしつ","corp":"株式会社ブリッジ","serviceTypes":["児童発達支援","放課後等デイサービス"],"ward":"船橋市","address":"千葉県船橋市浜町1-32-12レイグランジュ1階","tel":"047-404-3661","url":"https://kagayaki-machi.com/","lat":35.68840323,"lng":139.99263636,"weekday":"13:30-19:30","saturday":"10:00-16:00","sunday":"10:00-16:00","holiday":"10:00-16:00","closed":"12月30日から1月3日まで","capacity":10,"id":"1252800923"},{"name":"ドットジュニア 船橋習志野 第１教室（児童発達支援・放課後等デイサービス）","nameKana":"どっとじゅにあふなばしならしのだいいちきょうしつ","corp":"株式会社ブリッジ","serviceTypes":["児童発達支援","放課後等デイサービス"],"ward":"船橋市","address":"千葉県船橋市西習志野4-18-4ハマノヤビル2階","tel":"047-401-1450","url":"https://kagayaki-machi.com/","lat":35.71653411,"lng":140.04256698,"weekday":"11:00-17:45","saturday":"10:00-16:00","sunday":"10:00-16:00","holiday":"10:00-16:00","closed":"12月30日から1月3日まで","capacity":10,"id":"1252800931"},{"name":"ドットジュニア 薬円台教室（児童発達支援・放課後等デイサービス）","nameKana":"どっとじゅにあやくえんだいきょうしつ","corp":"株式会社ブリッジ","serviceTypes":["児童発達支援"],"ward":"船橋市","address":"千葉県船橋市滝台2-1-28薬園台ヒルズ101号室","tel":"047-404-6186","url":"https://kagayaki-machi.com/","lat":35.70831547,"lng":140.03719552,"weekday":"11:00-17:45","saturday":"10:00-16:00","sunday":"10:00-16:00","holiday":"10:00-16:00","closed":"12月30日から1月3日まで","capacity":10,"id":"1252801558"},{"name":"ドットジュニア 東船橋 第１教室（児童発達支援・放課後等デイサービス）","nameKana":"どっとじゅにあひがしふなばしだいいちきょうしつ","corp":"株式会社ブリッジ","serviceTypes":["児童発達支援","放課後等デイサービス"],"ward":"船橋市","address":"千葉県船橋市東船橋3-1-6フィエルテアネックス103号室","tel":"047-409-5001","url":"https://kagayaki-machi.com/","lat":35.70095179,"lng":140.00480705,"weekday":"11:00-17:45","saturday":"10:00-16:00","sunday":"10:00-16:00","holiday":"10:00-16:00","closed":"12月30日から1月3日まで","capacity":10,"id":"1252801541"},{"name":"ドットジュニア 東船橋 第2教室（児童発達支援・放課後等デイサービス）","nameKana":"どっとじゅにあひがしふなばしだいにきょうしつじどうはったつしえんほうかごとうでいさーびす","corp":"株式会社ブリッジ","serviceTypes":["児童発達支援","放課後等デイサービス"],"ward":"船橋市","address":"千葉県船橋市東船橋3-4-1ノースサイト201号室","tel":"047-455-8044","url":"https://kagayaki-machi.com/","lat":35.70010743,"lng":140.00517095,"weekday":"11:00-17:45","saturday":"10:00-16:00","sunday":"10:00-16:00","holiday":"10:00-16:00","closed":"12月30日から1月3日","capacity":10,"id":"1252801616"},{"name":"ドットジュニア さぎぬま 第２教室（児童発達支援・放課後等デイサービス）","nameKana":"どっとじゅにあさぎぬまだいにきょうしつじどうはったつしえんほうかごとうでいさーびす","corp":"株式会社コネクト","serviceTypes":["児童発達支援"],"ward":"習志野市","address":"千葉県習志野市鷺沼３−１９−３幕張インターウェルズ２１　Ｃ号室","tel":"047-409-9551","url":"https://kagayaki-machi.com/info_acc/kagayakinomachipkus-soga-6/","lat":35.67361363,"lng":140.02758127,"weekday":"14:50-18:50","saturday":"10:30-16:30","sunday":"10:30-16:30","holiday":"10:30-16:30","closed":"１２月３０日から１月３日まで","capacity":10,"id":"1250200365"},{"name":"ドットジュニア さぎぬま 第１教室（児童発達支援・放課後等デイサービス）","nameKana":"どっとじゅにあさぎぬまだいいちきょうしつ","corp":"株式会社ブリッジ","serviceTypes":["児童発達支援","放課後等デイサービス"],"ward":"習志野市","address":"千葉県習志野市鷺沼３−１９−３幕張インターウェルズ２１　Ａ号室","tel":"047-455-8450","url":"http://www.nobil-kids.com/","lat":35.67361363,"lng":140.02758128,"weekday":"12:00-18:00","saturday":"10:00-16:00","sunday":"10:00-16:00","holiday":"10:00-16:00","closed":"１２月３０日から１月３日","capacity":10,"id":"1250200357"},{"name":"てぃだまち倶楽部　検見川浜","nameKana":"てぃだまちくらぶけみがわはま","corp":"株式会社エルダーテイメント・ジャパン","serviceTypes":["児童発達支援"],"ward":"千葉市","address":"千葉県千葉市美浜区真砂2-24-8","tel":"043-445-8096","url":"https://www.tidamachi-club.com/","lat":35.64245667,"lng":140.0696614,"weekday":"09:45-17:00","saturday":"09:45-17:00","sunday":"","holiday":"","closed":"日曜日、祝日、年末年始","capacity":10,"id":"1250101787"},{"name":"てぃだまちジュニア　幕張ベイタウン教室","nameKana":"てぃだまちじゅにあまくはりべいたうんきょうしつ","corp":"株式会社エルダーテイメント・ジャパン","serviceTypes":["児童発達支援","放課後等デイサービス"],"ward":"千葉市","address":"千葉県千葉市美浜区打瀬３−７パティオス２１番街","tel":"043-441-8012","url":"","lat":35.63911802,"lng":140.04220856,"weekday":"14:30-18:00","saturday":"","sunday":"","holiday":"","closed":"土、日、祝日","capacity":10,"id":"1250102702"},{"name":"ドットジュニア　船橋習志野　第２教室（児童発達支援・放課後等デイサービス）","nameKana":"どっとじゅにあふなばしならしのだいにきょうしつ","corp":"株式会社ドットライン","serviceTypes":["児童発達支援","放課後等デイサービス"],"ward":"船橋市","address":"千葉県船橋市習志野台4-11-6マルトミビル104","tel":"047-402-3611","url":"https://kagayaki-machi.com/","lat":35.71700353,"lng":140.04372243,"weekday":"11:00-17:45","saturday":"10:00-16:00","sunday":"10:00-16:00","holiday":"10:00-16:00","closed":"12月30日から1月3日まで","capacity":10,"id":"1252801285"},{"name":"ドットジュニア 船橋法典教室（児童発達支援・放課後等デイサービス）","nameKana":"どっとじゅにあふなばしほうてんきょうしつじどうはったつしえんほうかごとうでいさーびす","corp":"株式会社ドットライン","serviceTypes":["児童発達支援","放課後等デイサービス"],"ward":"船橋市","address":"千葉県船橋市上山町1-82-10","tel":"047-382-5764","url":"https://kagayaki-machi.com/","lat":35.72669325,"lng":139.9684981,"weekday":"11:00-17:45","saturday":"10:00-16:00","sunday":"10:00-16:00","holiday":"10:00-16:00","closed":"12月30日から1月3日まで","capacity":10,"id":"1252801657"},{"name":"ドットジュニア　四街道　第一教室（児童発達支援・放課後等デイサービス）","nameKana":"どっとじゅにあよつかいどうだいいちきょうしつじどうはったつしえんほうかごとうでいさーびす","corp":"株式会社ドットライン","serviceTypes":["児童発達支援","放課後等デイサービス"],"ward":"四街道市","address":"千葉県四街道市大日69番地1","tel":"043-308-4316","url":"https://kagayaki-machi.com/","lat":35.67078651,"lng":140.1583091,"weekday":"11:00-17:45","saturday":"10:00-16:00","sunday":"10:00-16:00","holiday":"10:00-16:00","closed":"12月30日から1月3日まで","capacity":10,"id":"1254400375"},{"name":"ドットジュニア　都町　第２教室（児童発達支援・放課後等デイサービス）","nameKana":"どっとじゅにあみやこちょうだいにきょうしつ","corp":"株式会社コネクト","serviceTypes":["児童発達支援","放課後等デイサービス"],"ward":"千葉市","address":"千葉県千葉市中央区都町6-21-14高井ビル１A","tel":"043-310-6397","url":"https://kagayaki-machi.com/","lat":35.61470414,"lng":140.15106763,"weekday":"11:00-17:45","saturday":"10:00-16:00","sunday":"10:00-16:00","holiday":"10:00-16:00","closed":"12月30日から1月3日","capacity":10,"id":"1250101373"},{"name":"ドットジュニア　千葉中央　第２教室（児童発達支援・放課後等デイサービス）","nameKana":"どっとじゅにあちばちゅうおうだいにきょうしつ","corp":"株式会社コネクト","serviceTypes":["児童発達支援","放課後等デイサービス"],"ward":"千葉市","address":"千葉県千葉市中央区本町三丁目７番５号べリスビル２０２","tel":"043-307-9730","url":"https://kagayaki-machi.com/","lat":35.60673766,"lng":140.12567264,"weekday":"11:00-17:45","saturday":"10:00-16:00","sunday":"10:00-16:00","holiday":"10:00-16:00","closed":"12月30日から1月3日まで","capacity":10,"id":"1250101563"},{"name":"ドットジュニア　長沼原　第２教室（児童発達支援・放課後等デイサービス）","nameKana":"どっとじゅにあながぬまはらだいにきょうしつ","corp":"株式会社コネクト","serviceTypes":["児童発達支援","放課後等デイサービス"],"ward":"千葉市","address":"千葉県千葉市稲毛区長沼原町３１７−１ラ・ポルテ・ヴィス　２Ｂ","tel":"043-239-7016","url":"https://kagayaki-machi.com/","lat":35.65544,"lng":140.12691424,"weekday":"11:00-17:45","saturday":"10:00-16:00","sunday":"10:00-16:00","holiday":"10:00-16:00","closed":"12月30日から1月3日","capacity":10,"id":"1250101829"},{"name":"ドットジュニア　浜野　第２教室（児童発達支援・放課後等デイサービス）","nameKana":"どっとじゅにあはまのだいにきょうしつ","corp":"株式会社コネクト","serviceTypes":["児童発達支援","放課後等デイサービス"],"ward":"千葉市","address":"千葉県千葉市中央区浜野町1160　B号室","tel":"043-312-8735","url":"https://kagayaki-machi.com/","lat":35.55719441,"lng":140.1279754,"weekday":"11:00-17:45","saturday":"10:00-16:00","sunday":"10:00-16:00","holiday":"10:00-16:00","closed":"12月30日から1月3日","capacity":10,"id":"1250101803"},{"name":"ドットジュニア　新千葉　第２教室（児童発達支援・放課後等デイサービス）","nameKana":"どっとじゅにあしんちばだいにきょうしつ","corp":"株式会社コネクト","serviceTypes":["児童発達支援","放課後等デイサービス"],"ward":"千葉市","address":"千葉県千葉市中央区汐見丘町２３−１千壽ビル１階Ｂ号室","tel":"043-215-7155","url":"https://kagayaki-machi.com/","lat":35.61602039,"lng":140.10686997,"weekday":"11:00-17:45","saturday":"10:00-16:00","sunday":"10:00-16:00","holiday":"10:00-16:00","closed":"12月30日から1月3日","capacity":10,"id":"1250102801"},{"name":"ドットジュニア　真砂　第２教室（児童発達支援・放課後等デイサービス）","nameKana":"どっとじゅにあまさごだいにきょうしつ","corp":"株式会社コネクト","serviceTypes":["児童発達支援","放課後等デイサービス"],"ward":"千葉市","address":"千葉県千葉市美浜区真砂５−２１−３ユアサビル１０１","tel":"043-306-5713","url":"https://kagayaki-machi.com/","lat":35.64681169,"lng":140.06347297,"weekday":"11:00-17:45","saturday":"10:00-16:00","sunday":"10:00-16:00","holiday":"10:00-16:00","closed":"12月30日から1月3日","capacity":10,"id":"1250102827"},{"name":"ドットステイ　蘇我（医療多機能型生活介護）","nameKana":"どっとすていそが","corp":"株式会社コネクト","serviceTypes":["児童発達支援","放課後等デイサービス"],"ward":"千葉市","address":"千葉県千葉市中央区今井２−１７−４ＤｏｔＦＲＯＮＴ蘇我１階","tel":"043-310-6121","url":"","lat":35.57941459,"lng":140.1280042,"weekday":"15:00-17:00","saturday":"10:00-12:00","sunday":"10:00-12:00","holiday":"10:00-12:00","closed":"１２月３０日から１月３日","capacity":7,"id":"1250102967"},{"name":"ドットジュニア 都賀 第２教室（児童発達支援・放課後等デイサービス）","nameKana":"どっとじゅにあつがだいにきょうしつ","corp":"株式会社コネクト","serviceTypes":["児童発達支援","放課後等デイサービス"],"ward":"千葉市","address":"千葉県千葉市若葉区原町７７６−２B号室","tel":"043-441-7205","url":"https://kagayaki-machi.com/","lat":35.63290385,"lng":140.1445752,"weekday":"11:00-17:45","saturday":"10:00-16:00","sunday":"10:00-16:00","holiday":"10:00-16:00","closed":"12月30日から1月3日まで","capacity":10,"id":"1250103221"},{"name":"ドットジュニア 蘇我 第４教室（児童発達支援・放課後等デイサービス）","nameKana":"どっとじゅにあそがだいよんきょうしつ","corp":"株式会社コネクト","serviceTypes":["児童発達支援","放課後等デイサービス"],"ward":"千葉市","address":"千葉県千葉市中央区南町２−２２−１４エースハイム２０３号室","tel":"043-420-8882","url":"https://kagayaki-machi.com/","lat":35.58011748,"lng":140.13466194,"weekday":"11:00-17:45","saturday":"10:00-16:00","sunday":"10:00-16:00","holiday":"10:00-16:00","closed":"12月30日から1月3日まで","capacity":10,"id":"1250103213"},{"name":"ドットジュニア 幕張 第２教室（児童発達支援・放課後等デイサービス）","nameKana":"どっとじゅにあまくはりだいにきょうしつ","corp":"株式会社コネクト","serviceTypes":["児童発達支援","放課後等デイサービス"],"ward":"千葉市","address":"千葉県千葉市花見川区幕張町４−６１４−５B号室","tel":"043-310-3463","url":"https://kagayaki-machi.com/","lat":35.66063504,"lng":140.05728981,"weekday":"11:00-17:45","saturday":"10:00-16:00","sunday":"10:00-16:00","holiday":"10:00-16:00","closed":"12月30日から1月3日まで","capacity":10,"id":"1250103205"},{"name":"ドットジュニア　おゆみ野教室（児童発達支援・放課後等デイサービス）","nameKana":"どっとじゅにあおゆみのきょうしつ","corp":"株式会社ドットライン","serviceTypes":["児童発達支援","放課後等デイサービス"],"ward":"千葉市","address":"千葉県千葉市緑区おゆみ野中央３−３−１２おゆみ野中央３丁目倉庫付事務所Ｂ１０３","tel":"043-310-7023","url":"https://kagayaki-machi.com/","lat":35.56055884,"lng":140.17616684,"weekday":"11:00-17:45","saturday":"10:00-16:00","sunday":"10:00-16:00","holiday":"10:00-16:00","closed":"１２月３０日から１月３日","capacity":10,"id":"1250102348"},{"name":"ドットジュニア　蘇我　第３教室（児童発達支援・放課後等デイサービス）","nameKana":"どっとじゅにあそがだいさんきょうしつ","corp":"株式会社ドットライン","serviceTypes":["児童発達支援","放課後等デイサービス"],"ward":"千葉市","address":"千葉県千葉市中央区今井２−１７−４Ｄｏｔ ＦＲＯＮＴ 蘇我　２階","tel":"043-497-5427","url":"https://kagayaki-machi.com/","lat":35.57941459,"lng":140.1280042,"weekday":"11:00-17:45","saturday":"10:00-16:00","sunday":"10:00-16:00","holiday":"10:00-16:00","closed":"１２月３０日から１月３日まで","capacity":10,"id":"1250102850"},{"name":"ドットステイ　都賀（医療多機能型生活介護）","nameKana":"どっとすていつが","corp":"株式会社ドットライン","serviceTypes":["児童発達支援","放課後等デイサービス"],"ward":"千葉市","address":"千葉県千葉市若葉区都賀３−３１−５本橋ビル１階","tel":"043-312-2972","url":"","lat":35.637015,"lng":140.15303335,"weekday":"10:00-12:00","saturday":"10:00-12:00","sunday":"10:00-12:00","holiday":"10:00-12:00","closed":"１２月３０日から１月３日まで","capacity":10,"id":"1250102959"},{"name":"げんき","nameKana":"げんき","corp":"社会福祉法人千葉重症児･者を守る会","serviceTypes":["児童発達支援","放課後等デイサービス"],"ward":"千葉市","address":"千葉県千葉市美浜区稲毛海岸２−３−１","tel":"043-242-1230","url":"http://www.jyuushinn.info","lat":35.62992796,"lng":140.08564349,"weekday":"09:00-20:00","saturday":"","sunday":"","holiday":"","closed":"原則　土・日曜日　祝日","capacity":5,"id":"1250100151"},{"name":"童夢","nameKana":"どうむ","corp":"株式会社リトルガーデン","serviceTypes":["児童発達支援"],"ward":"千葉市","address":"千葉県千葉市花見川区幕張町１−１３１９−４５","tel":"043-301-3311","url":"http://www.doumu-jidou.com/","lat":35.66273463,"lng":140.04476045,"weekday":"10:00-14:00","saturday":"","sunday":"","holiday":"","closed":"土曜日・日曜日・祝日","capacity":15,"id":"1250100862"},{"name":"銚子市児童発達支援センターわかば","nameKana":"ちょうししじどうはったつしえんせんたーわかば","corp":"銚子市","serviceTypes":["児童発達支援","居宅訪問型児童発達支援"],"ward":"銚子市","address":"千葉県銚子市三崎町３丁目９６番地の１","tel":"0479-22-2742","url":"http://www.aozora-asahi.jp/","lat":35.70799039,"lng":140.78390263,"weekday":"09:30-15:30","saturday":"","sunday":"","holiday":"","closed":"土曜日　日曜日、国民の祝日、１２月２９日から１月３日まで","capacity":20,"id":"1251300016"},{"name":"えがおのサロン","nameKana":"えがおのさろん","corp":"特定非営利活動法人スマイル銚子","serviceTypes":["児童発達支援","放課後等デイサービス"],"ward":"銚子市","address":"千葉県銚子市新生町1-45-23","tel":"0479-21-6730","url":"https://smile-choshi.com/","lat":35.73206529,"lng":140.83783705,"weekday":"","saturday":"","sunday":"","holiday":"","closed":"","capacity":null,"id":"1251300099"},{"name":"スマイルケア","nameKana":"すまいるけあ","corp":"特定非営利活動法人スマイル銚子","serviceTypes":["児童発達支援","放課後等デイサービス"],"ward":"銚子市","address":"千葉県銚子市陣屋町4-28","tel":"0479-23-6030","url":"https://smile-choshi.com/","lat":35.73061822,"lng":140.83862866,"weekday":"","saturday":"","sunday":"","holiday":"","closed":"","capacity":null,"id":"1251300115"},{"name":"えがおの広場","nameKana":"えがおのひろば","corp":"特定非営利活動法人スマイル銚子","serviceTypes":["児童発達支援","放課後等デイサービス"],"ward":"銚子市","address":"千葉県銚子市陣屋町４−２８","tel":"0479-23-6030","url":"https://smile-choshi.com/","lat":35.73062377,"lng":140.83862032,"weekday":"","saturday":"","sunday":"","holiday":"","closed":"","capacity":null,"id":"1251300057"},{"name":"スタジオplus+西船橋教室","nameKana":"すたじおぷらすにしふなばしきょうしつ","corp":"特定非営利活動法人ダイバーシティ工房","serviceTypes":["児童発達支援","放課後等デイサービス"],"ward":"船橋市","address":"千葉県船橋市葛飾町2-383-1　バリアントＧ105号室","tel":"047-401-0979","url":"https://www.st-plus.org/","lat":35.70732934,"lng":139.95540808,"weekday":"15:00-16:00","saturday":"00:00-00:00","sunday":"00:00-00:00","holiday":"15:00-16:00","closed":"土日、GW、年末年始、法人研修日（年3回程度）","capacity":10,"id":"1252801293"},{"name":"ハッピーテラス本八幡第二教室","nameKana":"はっぴーてらすもとやわただいにきょうしつ","corp":"株式会社ＣｏｃｏＮａｎ","serviceTypes":["児童発達支援","放課後等デイサービス"],"ward":"市川市","address":"千葉県市川市八幡３丁目２９番２５号市川八幡ビル２階","tel":"047-321-4235","url":"https://happy-terrace.com/school/motoyawata2/","lat":35.72538836,"lng":139.92899006,"weekday":"13:00-19:00","saturday":"09:00-16:30","sunday":"","holiday":"","closed":"日曜日、祝日、夏季休暇、年末年始","capacity":10,"id":"1252700743"},{"name":"Ｋ’ｓ　ｇａｒｄｅｎ天子の森","nameKana":"けいずがーでんてんしのもり","corp":"株式会社Ｋ’ｓ　ｇａｒｄｅｎ","serviceTypes":["児童発達支援","放課後等デイサービス"],"ward":"市川市","address":"千葉県市川市市川１−３−２グランクルーアサミ１Ｆ","tel":"047-325-8366","url":"https://www.ksgarden.jp/tenshi/mori.html","lat":35.72960167,"lng":139.91025237,"weekday":"","saturday":"","sunday":"","holiday":"","closed":"","capacity":10,"id":"1252700842"},{"name":"放課後等デイサービスFORLIFE","nameKana":"ほうかごとうでいさーびすふぉーらいふ","corp":"株式会社Ｗｅｓｔｆｉｅｌｄ","serviceTypes":["児童発達支援","放課後等デイサービス"],"ward":"市川市","address":"千葉県市川市本北方３−７−１５","tel":"047-339-8301","url":"http://forlife-web.com","lat":35.72799325,"lng":139.9489774,"weekday":"","saturday":"","sunday":"","holiday":"","closed":"","capacity":null,"id":"1252700867"},{"name":"児童発達支援センターぷれも","nameKana":"じどうはったつしえんせんたーぷれも","corp":"特定非営利活動法人市川ことばの会","serviceTypes":["児童発達支援","放課後等デイサービス"],"ward":"いすみ市","address":"千葉県いすみ市岬町長者４１２−４４","tel":"0470-62-6131","url":"https://puremokotoba.com","lat":35.2973301,"lng":140.39028077,"weekday":"09:00-16:00","saturday":"09:00-16:00","sunday":"","holiday":"09:00-16:00","closed":"日曜日","capacity":12,"id":"1254900044"},{"name":"多機能型事業所ぷれも・もばら","nameKana":"たきのうがたじぎょうしょぷれももばら","corp":"特定非営利活動法人市川ことばの会","serviceTypes":["児童発達支援","放課後等デイサービス"],"ward":"茂原市","address":"千葉県茂原市高師235-1","tel":"0475-36-6603","url":"https://puremokotoba.com","lat":35.43775897,"lng":140.29770235,"weekday":"09:00-16:00","saturday":"09:00-16:00","sunday":"","holiday":"09:00-16:00","closed":"日曜日 　","capacity":10,"id":"1253100117"},{"name":"多機能型事業所ぷれも・白井","nameKana":"たきのうがたじぎょうしょぷれもしろい","corp":"特定非営利活動法人市川ことばの会","serviceTypes":["児童発達支援","放課後等デイサービス"],"ward":"白井市","address":"千葉県白井市清水口1-1-25白井駅前　セントラルビル2階","tel":"047-404-7941","url":"https://puremokotoba.com","lat":35.78551961,"lng":140.03215492,"weekday":"09:30-18:30","saturday":"08:45-17:45","sunday":"08:45-17:45","holiday":"08:45-17:45","closed":"第1.3日曜日","capacity":10,"id":"1254700139"},{"name":"多機能型事業所　ぷれも・市川ラボ","nameKana":"たきのうがたじぎょうしょぷれもいちかわらぼ","corp":"特定非営利活動法人市川ことばの会","serviceTypes":["児童発達支援","放課後等デイサービス"],"ward":"市川市","address":"千葉県市川市東菅野2-12-6","tel":"047-321-6643","url":"https://puremokotoba.com","lat":35.73219556,"lng":139.92845661,"weekday":"09:30-18:30","saturday":"09:00-16:00","sunday":"","holiday":"09:00-16:00","closed":"","capacity":10,"id":"1252701444"},{"name":"児童発達支援センターぷれも・しすい","nameKana":"じどうはったつしえんせんたーぷれもしすい","corp":"特定非営利活動法人市川ことばの会","serviceTypes":["児童発達支援"],"ward":"印旛郡酒々井町","address":"千葉県印旛郡酒々井町上本佐倉１８８−１","tel":"043-496-8833","url":"https://puremokotoba.com","lat":35.72009003,"lng":140.26012178,"weekday":"09:00-15:00","saturday":"09:00-16:00","sunday":"","holiday":"09:00-16:00","closed":"日曜日","capacity":12,"id":"1254100124"},{"name":"フォレストキッズ稲毛海岸教室","nameKana":"ふぉれすときっずいなげかいがんきょうしつ","corp":"株式会社Grandarbo","serviceTypes":["児童発達支援","放課後等デイサービス"],"ward":"千葉市","address":"千葉県千葉市美浜区高洲３−１４−８花澤高州ビル２Ｆ−Ｂ","tel":"043-270-2780","url":"https://x.gd/7oF2l","lat":35.62821962,"lng":140.07395029,"weekday":"09:30-17:00","saturday":"09:30-17:00","sunday":"09:30-17:00","holiday":"09:30-17:00","closed":"12月29日〜1月3日","capacity":10,"id":"1250102066"},{"name":"放課後等デイサービスforlife船橋","nameKana":"ほうかごとうでいさーびすふぉーらいふふなばし","corp":"株式会社Westfield","serviceTypes":["児童発達支援","放課後等デイサービス"],"ward":"船橋市","address":"千葉県船橋市二和東5-15-28","tel":"047-404-8181","url":"http://forlife-web.com/","lat":35.7546795,"lng":140.02005622,"weekday":"","saturday":"","sunday":"","holiday":"","closed":"","capacity":null,"id":"1252801178"},{"name":"フォレストキッズ行徳教室","nameKana":"ふぉれすときっずぎょうとくきょうしつ","corp":"株式会社Grandarbo","serviceTypes":["児童発達支援"],"ward":"市川市","address":"千葉県市川市行徳駅前2-8-3Y’sビル2階","tel":"047-723-7533","url":"https://forestkids.info","lat":35.68165609,"lng":139.91579534,"weekday":"10:00-18:00","saturday":"09:30-17:30","sunday":"09:30-17:30","holiday":"09:30-17:30","closed":"12月29日〜翌1月3日","capacity":10,"id":"1252701196"},{"name":"ブロッサムジュニア市川大野教室","nameKana":"ぶろっさむじゅにあいちかわおおのきょうしつ","corp":"株式会社ステイドリーム","serviceTypes":["児童発達支援"],"ward":"市川市","address":"千葉県市川市南大野2-30-17永野ビル１F","tel":"047-710-9108","url":"https://www.staydream.com/","lat":35.74868759,"lng":139.95266539,"weekday":"09:30-17:15","saturday":"","sunday":"","holiday":"09:00-15:10","closed":"土・日・年末年始","capacity":10,"id":"1252701204"},{"name":"学習サポートscrumPLUS千葉市川校","nameKana":"がくしゅうさぽーとすくらむぷらすちばいちかわこう","corp":"ミキテラス株式会社","serviceTypes":["児童発達支援","放課後等デイサービス"],"ward":"市川市","address":"千葉県市川市新田4-5-17ガーネットトラスト101","tel":"047-713-1037","url":"","lat":35.72791309,"lng":139.90994131,"weekday":"14:00-19:00","saturday":"13:00-17:00","sunday":"","holiday":"","closed":"","capacity":null,"id":"1252701238"},{"name":"サンライズキッズ","nameKana":"さんらいずきっず","corp":"株式会社育成会","serviceTypes":["児童発達支援","放課後等デイサービス"],"ward":"市川市","address":"千葉県市川市相之川１−８−１プラザ南行徳１階","tel":"047-702-5766","url":"https://www.sunrise-kids.jp","lat":35.68135061,"lng":139.89750234,"weekday":"10:00-17:00","saturday":"10:00-16:00","sunday":"","holiday":"10:00-16:00","closed":"","capacity":10,"id":"1252701345"},{"name":"ラポール市川","nameKana":"らぽーるいちかわ","corp":"一般社団法人Ｄｆｒｅｅ","serviceTypes":["児童発達支援","放課後等デイサービス"],"ward":"市川市","address":"千葉県市川市真間2丁目24-23","tel":"047-705-9587","url":"https://dfree2021.wixsite.com/rapport-ichikawa","lat":35.73589223,"lng":139.90748023,"weekday":"","saturday":"","sunday":"","holiday":"","closed":"","capacity":null,"id":"1252701030"},{"name":"多機能型児童デイのんのん","nameKana":"たきのうがたじどうでいのんのん","corp":"アシステンツァ合同会社","serviceTypes":["児童発達支援","放課後等デイサービス"],"ward":"市川市","address":"千葉県市川市湊15-12岩建ビル1階","tel":"047-399-8355","url":"https://non-non.jp/","lat":35.68285612,"lng":139.91062344,"weekday":"","saturday":"","sunday":"","holiday":"","closed":"","capacity":null,"id":"1252701063"},{"name":"すくすく原木中山きっずサポート","nameKana":"すくすくばらきなかやまきっずさぽーと","corp":"すくすく株式会社","serviceTypes":["児童発達支援"],"ward":"市川市","address":"千葉県市川市高谷２−１５−１６トラバースH2","tel":"047-727-0065","url":"https://suqsuq.jp/","lat":35.69899754,"lng":139.94098444,"weekday":"09:00-18:00","saturday":"","sunday":"","holiday":"","closed":"土日・祝日・年末年始","capacity":10,"id":"1252701303"},{"name":"あいりすえん","nameKana":"あいりすえん","corp":"特定非営利活動法人ひかりのこ福祉会","serviceTypes":["児童発達支援"],"ward":"市川市","address":"千葉県市川市相之川4-6-6ロイヤルブリス南行徳2階2号室","tel":"047-702-9834","url":"","lat":35.67330666,"lng":139.90198563,"weekday":"09:00-16:00","saturday":"09:00-16:00","sunday":"","holiday":"","closed":"日曜日、祝日","capacity":12,"id":"1252701378"},{"name":"言葉のにわ‐宝‐","nameKana":"ことばのにわたから","corp":"合同会社宝佑","serviceTypes":["児童発達支援","放課後等デイサービス"],"ward":"市川市","address":"千葉県市川市宝2‐10‐18安田ビル103","tel":"047-720-3805","url":"","lat":35.68078379,"lng":139.92237543,"weekday":"","saturday":"","sunday":"","holiday":"","closed":"","capacity":null,"id":"1252701220"},{"name":"言葉のにわ‐行徳駅前‐","nameKana":"ことばのにわぎょうとくえきまえ","corp":"合同会社宝佑","serviceTypes":["児童発達支援","放課後等デイサービス"],"ward":"市川市","address":"千葉県市川市行徳駅前2-22-2高橋ビル2階c号室","tel":"047-702-5300","url":"","lat":35.68235611,"lng":139.91250388,"weekday":"","saturday":"","sunday":"","holiday":"","closed":"","capacity":null,"id":"1252701410"},{"name":"言葉のにわ‐宝‐2","nameKana":"ことばのにわたからに","corp":"合同会社宝佑","serviceTypes":["児童発達支援","放課後等デイサービス"],"ward":"市川市","address":"千葉県市川市宝2-10-18-105","tel":"047-315-3753","url":"","lat":35.68078379,"lng":139.92237543,"weekday":"","saturday":"","sunday":"","holiday":"","closed":"","capacity":null,"id":"1252701576"},{"name":"美咲園","nameKana":"みさきえん","corp":"合同会社旭企画","serviceTypes":["児童発達支援","放課後等デイサービス","居宅訪問型児童発達支援"],"ward":"市川市","address":"千葉県市川市原木４丁目３ー５","tel":"047-317-2585","url":"https://misakids.jimdosite.com/","lat":35.6988528,"lng":139.9507615,"weekday":"10:00-17:30","saturday":"09:00-17:00","sunday":"","holiday":"10:00-17:00","closed":"日曜日　12/29〜1/3","capacity":10,"id":"1252700941"},{"name":"児童発達支援　放課後等デイサービス　はぴねす本八幡","nameKana":"じどうはったつしえんほうかごとうでいさーびすはぴねすもとやわた","corp":"合同会社はぴねす","serviceTypes":["児童発達支援","放課後等デイサービス"],"ward":"市川市","address":"千葉県市川市平田3-8-19市川遠山ビル１F","tel":"080-4686-6064","url":"","lat":35.72198075,"lng":139.92071572,"weekday":"","saturday":"","sunday":"","holiday":"","closed":"","capacity":null,"id":"1252701147"},{"name":"エメファミーユ市川国府台","nameKana":"えめふぁみーゆいちかわこうのだい","corp":"合同会社ブルー・アース","serviceTypes":["児童発達支援","放課後等デイサービス"],"ward":"市川市","address":"千葉県市川市市川4丁目5-10 国府台ステイツ101","tel":"047-711-7422","url":"","lat":35.73967216,"lng":139.90362487,"weekday":"10:00-17:00","saturday":"","sunday":"","holiday":"10:00-16:00","closed":"","capacity":10,"id":"1252701261"},{"name":"ココノハーツ鎌ケ谷馬込沢教室","nameKana":"ここのはーつかまがやまごめざわきょうしつ","corp":"ＮＹＡ株式会社","serviceTypes":["児童発達支援","放課後等デイサービス"],"ward":"鎌ケ谷市","address":"千葉県鎌ケ谷市東道野辺7-18-2松井ビル２階","tel":"047-401-0207","url":"","lat":35.74382181,"lng":139.99815329,"weekday":"09:00-17:00","saturday":"09:00-16:00","sunday":"09:00-16:00","holiday":"09:00-16:00","closed":"12月29日から1月3日まで","capacity":7,"id":"1252600281"},{"name":"キッズランド南行徳教室","nameKana":"きっずらんどみなみぎょうとくきょうしつ","corp":"株式会社ＴＮＣ","serviceTypes":["児童発達支援","放課後等デイサービス"],"ward":"市川市","address":"千葉県市川市新井三丁目16番29号レスポアール店舗205号室","tel":"047-712-8304","url":"http://tncgroup.co.jp/","lat":35.67458705,"lng":139.89638881,"weekday":"10:00-17:00","saturday":"10:00-13:00","sunday":"","holiday":"10:00-17:00","closed":"日、月","capacity":16,"id":"1252700883"},{"name":"キッズランド市川教室","nameKana":"きっずらんどいちかわきょうしつ","corp":"株式会社ＴＮＣ","serviceTypes":["児童発達支援","放課後等デイサービス"],"ward":"市川市","address":"千葉県市川市行徳駅前1‐1‐11階","tel":"047-311-4429","url":"http://tncgroup.co.jp/","lat":35.68551965,"lng":139.91541741,"weekday":"10:00-17:00","saturday":"10:00-16:00","sunday":"","holiday":"10:00-17:00","closed":"日　月","capacity":10,"id":"1252701253"},{"name":"キッズランド南行徳駅前","nameKana":"きっずらんどみなみぎょうとくえきまえ","corp":"株式会社ＴＮＣ","serviceTypes":["児童発達支援","放課後等デイサービス"],"ward":"市川市","address":"千葉県市川市南行徳3-1-2宮崎ビル　202号室","tel":"047-321-6220","url":"http://tncgroup.co.jp/","lat":35.67112897,"lng":139.90103854,"weekday":"09:00-17:00","saturday":"09:00-16:00","sunday":"","holiday":"09:00-16:00","closed":"日、月","capacity":10,"id":"1252700891"},{"name":"いちごハート","nameKana":"いちごはーと","corp":"合同会社悠々ハート","serviceTypes":["児童発達支援","放課後等デイサービス"],"ward":"市川市","address":"千葉県市川市大和田1-4-10","tel":"050-3613-2367","url":"","lat":35.71720662,"lng":139.91994923,"weekday":"10:30-17:30","saturday":"10:30-17:30","sunday":"","holiday":"","closed":"日曜日・祝日","capacity":10,"id":"1252701436"},{"name":"入園・入学準備教室クラス","nameKana":"にゅうえんにゅうがくじゅんびきょうしつくらす","corp":"クラス株式会社","serviceTypes":["児童発達支援"],"ward":"市川市","address":"千葉県市川市新井3丁目28-11","tel":"047-704-9045","url":"","lat":35.6702373,"lng":139.89895262,"weekday":"09:35-16:30","saturday":"","sunday":"","holiday":"","closed":"土日祝　12月29日〜1月3日","capacity":10,"id":"1252701188"},{"name":"美咲園第２前貝塚","nameKana":"みさきえんだいにまえかいづか","corp":"合同会社旭企画","serviceTypes":["児童発達支援","放課後等デイサービス"],"ward":"船橋市","address":"千葉県船橋市前貝塚町631-1","tel":"047-767-1042","url":"https://misakids.jimdosite.com/","lat":35.72699038,"lng":139.98322463,"weekday":"10:00-14:00","saturday":"09:00-18:00","sunday":"","holiday":"10:00-14:00","closed":"日曜日　12/29~1/3","capacity":10,"id":"1252801525"},{"name":"放課後等デイサービス　キラミラ香取店","nameKana":"ほうかごとうでいさーびすきらみらかんどりてん","corp":"株式会社Ｏｖｅｒテイク","serviceTypes":["児童発達支援","放課後等デイサービス"],"ward":"市川市","address":"千葉県市川市香取1-15-27","tel":"090-2900-3170","url":"","lat":35.68187564,"lng":139.90475451,"weekday":"","saturday":"","sunday":"","holiday":"","closed":"","capacity":null,"id":"1252701600"},{"name":"放課後等デイサービス　キラミラ行徳店","nameKana":"ほうかごとうでいさーびすきらみらぎょうとくてん","corp":"株式会社Ｏｖｅｒテイク","serviceTypes":["児童発達支援","放課後等デイサービス"],"ward":"市川市","address":"千葉県市川市行徳駅前2-9-262001ビル　B101号室","tel":"090-2900-3170","url":"","lat":35.68052841,"lng":139.91563706,"weekday":"","saturday":"","sunday":"","holiday":"","closed":"","capacity":null,"id":"1252701493"},{"name":"放課後等デイサービス　キラミラ南行徳店","nameKana":"ほうかごとうでいさーびすきらみらみなみぎょうとくてん","corp":"株式会社Ｏｖｅｒテイク","serviceTypes":["児童発達支援","放課後等デイサービス"],"ward":"市川市","address":"千葉県市川市南行徳三丁目18-22醍醐ビル1階","tel":"090-2900-3170","url":"","lat":35.67059287,"lng":139.90005808,"weekday":"","saturday":"","sunday":"","holiday":"","closed":"","capacity":null,"id":"1252701279"},{"name":"放課後等デイサービスキラミラ","nameKana":"ほうかごとうでいさーびすきらみら","corp":"株式会社Ｏｖｅｒテイク","serviceTypes":["児童発達支援","放課後等デイサービス"],"ward":"市川市","address":"千葉県市川市相之川四丁目11-22シャトーリッチ高橋1階B号室","tel":"090-2900-3170","url":"","lat":35.67443991,"lng":139.89991631,"weekday":"","saturday":"","sunday":"","holiday":"","closed":"","capacity":null,"id":"1252701246"},{"name":"放課後等デイサービスキラミラ欠真間店","nameKana":"ほうかごでいさーびすきらみらかけままてん","corp":"株式会社Ｏｖｅｒテイク","serviceTypes":["児童発達支援","放課後等デイサービス"],"ward":"市川市","address":"千葉県市川市欠真間2-14-1トゥッティアロッジオ103号室","tel":"070-8994-6475","url":"","lat":35.67757872,"lng":139.90497969,"weekday":"","saturday":"","sunday":"","holiday":"","closed":"","capacity":null,"id":"1252701675"},{"name":"学習サポートscrumPLUS原木中山校","nameKana":"がくしゅうさぽーとすくらむぷらすばらきなかやまこう","corp":"ミキテラス株式会社","serviceTypes":["児童発達支援","放課後等デイサービス"],"ward":"船橋市","address":"千葉県船橋市本中山7-10-7N-Fierte2B","tel":"047-318-3754","url":"","lat":35.7040052,"lng":139.94156479,"weekday":"","saturday":"","sunday":"","holiday":"","closed":"","capacity":null,"id":"1252801640"},{"name":"市川市あおぞらキッズ","nameKana":"いちかわしあおぞらきっず","corp":"市川市","serviceTypes":["児童発達支援"],"ward":"市川市","address":"千葉県市川市大洲４丁目１８番３号","tel":"047-376-1113","url":"http://www.city.ichikawa.lg.jp/chi05/1331000001.html","lat":35.72270567,"lng":139.90646943,"weekday":"10:00-14:30","saturday":"","sunday":"","holiday":"","closed":"土曜　日曜　祝日　12月29日〜1月3日","capacity":50,"id":"1252700024"},{"name":"市川市そよかぜキッズ","nameKana":"いちかわしそよかぜきっず","corp":"市川市","serviceTypes":["児童発達支援","放課後等デイサービス"],"ward":"市川市","address":"千葉県市川市稲荷木１−14−1","tel":"047-712-6555","url":"http://yukeikai-fg.jp/","lat":35.71178256,"lng":139.92083266,"weekday":"10:00-14:00","saturday":"00:00-00:00","sunday":"00:00-00:00","holiday":"00:00-00:00","closed":"土日、国民の休日、１２月２９日から１月３日、市が認めた休業日","capacity":30,"id":"1252700347"},{"name":"児童デイサービスコンブリオ","nameKana":"じどうでいさーびすこんぶりお","corp":"株式会社エルチェ","serviceTypes":["児童発達支援","放課後等デイサービス"],"ward":"市川市","address":"千葉県市川市富浜２丁目１２番１８号ＫＩＹビル２階A","tel":"047-704-9926","url":"https://elche.co.jp","lat":35.68848014,"lng":139.92386944,"weekday":"13:30-18:00","saturday":"","sunday":"","holiday":"","closed":"土曜日、日曜日、祝日、12月29日から1月3日","capacity":10,"id":"1252700065"},{"name":"コンブリオ第二事業所","nameKana":"こんぶりおだいにじぎょうしょ","corp":"株式会社エルチェ","serviceTypes":["児童発達支援","放課後等デイサービス"],"ward":"市川市","address":"千葉県市川市富浜２丁目１２番１８号ＫＩＹビル２階Ｂ","tel":"047-704-9926","url":"https://elche.co.jp","lat":35.68848014,"lng":139.92386944,"weekday":"10:00-16:00","saturday":"10:00-16:00","sunday":"","holiday":"","closed":"日曜日、祝日、12月29日から1月3日","capacity":10,"id":"1252700073"},{"name":"コンブリオ第三事業所","nameKana":"こんぶりおだいさんじぎょうしょ","corp":"株式会社エルチェ","serviceTypes":["児童発達支援","放課後等デイサービス"],"ward":"市川市","address":"千葉県市川市富浜二丁目12番18号ＫＩＹビル１階店舗Ａ号室","tel":"047-704-9926","url":"https://elche.co.jp","lat":35.68848014,"lng":139.92386944,"weekday":"13:30-18:00","saturday":"","sunday":"","holiday":"","closed":"土曜日、日曜日、祝日、12月29日から1月3日","capacity":10,"id":"1252700156"},{"name":"発達療育レンテ市川","nameKana":"はったつりょういくれんていちかわ","corp":"株式会社エルチェ","serviceTypes":["児童発達支援","放課後等デイサービス"],"ward":"市川市","address":"千葉県市川市平田２−２２−５","tel":"047-712-5691","url":"https://elche.co.jp","lat":35.72694934,"lng":139.91764359,"weekday":"09:30-16:30","saturday":"09:30-16:30","sunday":"09:30-16:30","holiday":"09:30-16:30","closed":"12月29日から1月3日","capacity":10,"id":"1252700214"},{"name":"陽","nameKana":"ひだまり","corp":"社会福祉法人一路会","serviceTypes":["児童発達支援","放課後等デイサービス"],"ward":"市川市","address":"千葉県市川市柏井町３丁目６３７番１","tel":"047-337-1333","url":"","lat":35.74468545,"lng":139.9618675,"weekday":"15:00-17:00","saturday":"10:00-16:00","sunday":"","holiday":"10:00-16:00","closed":"","capacity":5,"id":"1252700149"},{"name":"こども発達支援センターやわた","nameKana":"こどもはったつしえんせんたーやわた","corp":"社会福祉法人春濤会","serviceTypes":["児童発達支援"],"ward":"市川市","address":"千葉県市川市本北方３−１３−１１通所棟","tel":"047-303-5007","url":"http://yawatagakuen.or.jp/","lat":35.72706281,"lng":139.95117725,"weekday":"09:30-14:30","saturday":"","sunday":"","holiday":"","closed":"土、日、祝日","capacity":15,"id":"1252700115"},{"name":"ハッピーテラス本八幡教室","nameKana":"はっぴーてらすもとやわたきょうしつ","corp":"株式会社ワークスクリエイティブ","serviceTypes":["児童発達支援","放課後等デイサービス"],"ward":"市川市","address":"千葉県市川市八幡３丁目２９番２５号市川八幡ビル２階","tel":"047-318-3552","url":"http://happy-terrace.com/school/motoyawata/","lat":35.72538836,"lng":139.92899006,"weekday":"13:00-19:00","saturday":"09:00-16:30","sunday":"09:00-16:30","holiday":"09:00-16:30","closed":"12月29日〜1月3日、ＧＷ期間中の日曜日と祝日、夏季休暇","capacity":10,"id":"1252700420"},{"name":"児童発達支援　ホップ","nameKana":"じどうはったつしえんほっぷ","corp":"特定非営利活動法人ホップ","serviceTypes":["児童発達支援"],"ward":"市川市","address":"千葉県市川市鬼越１丁目１５番２０号","tel":"047-705-4332","url":"https://hop-onigoe.net","lat":35.71847538,"lng":139.93849511,"weekday":"09:00-17:30","saturday":"10:00-16:00","sunday":"","holiday":"","closed":"土曜日（第1.3.5）・日曜日・国民の祝日・ホップが定める定休日","capacity":10,"id":"1252700461"},{"name":"多機能型事業所　ぷれも","nameKana":"たきのうがたじぎょうしょぷれも","corp":"特定非営利活動法人市川ことばの会","serviceTypes":["児童発達支援","放課後等デイサービス"],"ward":"千葉市","address":"千葉県千葉市中央区都町１丁目５５番２号","tel":"043-234-6363","url":"https://puremokotoba.com","lat":35.61362641,"lng":140.14280152,"weekday":"09:00-16:00","saturday":"09:00-16:00","sunday":"","holiday":"09:00-16:00","closed":"日曜日 年末年始(12/29〜1/3)","capacity":10,"id":"1250100953"},{"name":"こどもプラス原木中山教室","nameKana":"こどもぷらすばらきなかやまきょうしつ","corp":"げんキッズ株式会社","serviceTypes":["児童発達支援","放課後等デイサービス"],"ward":"船橋市","address":"千葉県船橋市本中山７−８−１５−１０２","tel":"047-316-0293","url":"https://kp-baraki.com","lat":35.6944804,"lng":139.9824537,"weekday":"13:00-17:00","saturday":"09:00-13:00","sunday":"","holiday":"09:00-13:00","closed":"日曜日","capacity":10,"id":"1252800527"},{"name":"おもちゃ箱やちよ緑が丘","nameKana":"おもちゃばこやちよみどりがおか","corp":"合同会社ピースマイル","serviceTypes":["児童発達支援","放課後等デイサービス"],"ward":"八千代市","address":"千葉県八千代市緑が丘4-7-4ロフティーグリーン2-103","tel":"070-1255-6112","url":"https://psml.jp/","lat":35.72921975,"lng":140.0818821,"weekday":"10:00-17:00","saturday":"","sunday":"","holiday":"10:00-16:00","closed":"土曜日　日曜日","capacity":10,"id":"1250400429"},{"name":"おもちゃ箱いんざい","nameKana":"おもちゃばこいんざい","corp":"合同会社ピースマイル","serviceTypes":["児童発達支援","放課後等デイサービス"],"ward":"印西市","address":"千葉県印西市木下東3-3-15","tel":"070-5082-5109","url":"https://psml.jp/","lat":35.84101579,"lng":140.16491093,"weekday":"10:00-17:00","saturday":"","sunday":"","holiday":"10:00-16:00","closed":"土曜　日曜","capacity":10,"id":"1252500283"},{"name":"こるおれ","nameKana":"こるおれ","corp":"特定非営利活動法人くーおん","serviceTypes":["児童発達支援","放課後等デイサービス"],"ward":"船橋市","address":"千葉県船橋市高根台6-19-24","tel":"047-494-5247","url":"http://kuon2012.jp/coluore/","lat":35.72942975,"lng":140.03535881,"weekday":"10:00-16:00","saturday":"10:00-17:10","sunday":"10:00-15:00","holiday":"","closed":"土日祝","capacity":10,"id":"1252800659"},{"name":"とれいる","nameKana":"とれいる","corp":"特定非営利活動法人くーおん","serviceTypes":["児童発達支援","放課後等デイサービス"],"ward":"船橋市","address":"千葉県船橋市習志野台2-16-10","tel":"047-419-1643","url":"https://kuon2012.jp/trail/","lat":35.72841885,"lng":140.04001402,"weekday":"14:30-18:40","saturday":"10:00-17:10","sunday":"","holiday":"","closed":"日曜日、月曜日","capacity":10,"id":"1252800154"},{"name":"かりんキッズ","nameKana":"かりんきっず","corp":"株式会社華輪","serviceTypes":["児童発達支援","放課後等デイサービス"],"ward":"船橋市","address":"千葉県船橋市二和西5-3-10","tel":"047-402-2418","url":"","lat":35.74749377,"lng":140.01001876,"weekday":"","saturday":"","sunday":"","holiday":"","closed":"","capacity":null,"id":"1252800667"},{"name":"おんりーone","nameKana":"おんりーわん","corp":"株式会社華輪","serviceTypes":["児童発達支援","放課後等デイサービス"],"ward":"船橋市","address":"千葉県船橋市高根台4-22-7","tel":"047-404-9342","url":"","lat":35.72912433,"lng":140.03977236,"weekday":"10:00-17:00","saturday":"","sunday":"","holiday":"10:00-17:00","closed":"","capacity":10,"id":"1252801236"},{"name":"おんりーone公園前店","nameKana":"おんりーわんこうえんまえてん","corp":"株式会社華輪","serviceTypes":["児童発達支援","放課後等デイサービス"],"ward":"船橋市","address":"千葉県船橋市大穴南5-24-3","tel":"047-407-1667","url":"","lat":35.73439866,"lng":140.03621971,"weekday":"10:00-17:00","saturday":"","sunday":"","holiday":"10:00-17:00","closed":"","capacity":10,"id":"1252801632"},{"name":"GISELE","nameKana":"じぜる","corp":"合同会社A","serviceTypes":["児童発達支援","放課後等デイサービス"],"ward":"船橋市","address":"千葉県船橋市習志野台2-26-22","tel":"047-460-9174","url":"","lat":35.72544979,"lng":140.04252781,"weekday":"10:00-18:00","saturday":"10:00-18:00","sunday":"10:00-18:00","holiday":"10:00-18:00","closed":"なし","capacity":10,"id":"1252800766"},{"name":"てるてるキッズ","nameKana":"てるてるきっず","corp":"社会福祉法人　福祉共生会","serviceTypes":["児童発達支援","放課後等デイサービス"],"ward":"習志野市","address":"千葉県習志野市津田沼７−１−１０","tel":"047-405-2248","url":"https://www.kyouseikai2020.com/","lat":35.6781463,"lng":140.01942917,"weekday":"10:00-17:00","saturday":"","sunday":"","holiday":"","closed":"土曜・日曜・祝日・8/12〜8/15・12/30〜１/3","capacity":5,"id":"1250200456"},{"name":"児童発達支援　みかんのき　津田沼教室","nameKana":"じどうはったつしえんみかんのきつだぬまきょうしつ","corp":"株式会社One Company","serviceTypes":["児童発達支援"],"ward":"船橋市","address":"千葉県船橋市前原西2-7-9三真ビルA棟1階","tel":"047-409-3830","url":"https://orange.onecompany.co.jp/","lat":35.69344175,"lng":140.0188062,"weekday":"","saturday":"","sunday":"","holiday":"","closed":"","capacity":10,"id":"1252800907"},{"name":"みかんのき薬円台教室","nameKana":"みかんのきやくえんだいきょうしつ","corp":"株式会社One Company","serviceTypes":["児童発達支援","放課後等デイサービス"],"ward":"船橋市","address":"千葉県船橋市滝台町106-2 ツナソウビル2階","tel":"047-401-1556","url":"","lat":35.71004306,"lng":140.03703713,"weekday":"","saturday":"","sunday":"","holiday":"","closed":"","capacity":null,"id":"1252801426"},{"name":"放課後等デイサービスMUA","nameKana":"ほうかごとうでいさーびすむあ","corp":"合同会社Mahalo","serviceTypes":["児童発達支援","放課後等デイサービス"],"ward":"船橋市","address":"千葉県船橋市高野台1-8-12","tel":"047-440-5607","url":"","lat":35.76404575,"lng":140.025427,"weekday":"","saturday":"","sunday":"","holiday":"","closed":"","capacity":null,"id":"1252800964"},{"name":"船橋青い空こどもクリニック併設「虹の教室」","nameKana":"ふなばしあおいそらこどもくりにっくへいせつにじのきょうしつ","corp":"医療法人社団一歩会","serviceTypes":["児童発達支援","放課後等デイサービス"],"ward":"船橋市","address":"千葉県船橋市米ケ崎町651-1","tel":"047-407-0204","url":"","lat":35.71120067,"lng":140.00537325,"weekday":"","saturday":"","sunday":"","holiday":"","closed":"土曜日、日曜日、国民の祝日、8/13〜15、年末年始12/29〜1/3","capacity":10,"id":"1252801012"},{"name":"グリーンベア　アルファ","nameKana":"ぐりーんべああるふぁ","corp":"株式会社ＧＢソリューション","serviceTypes":["児童発達支援"],"ward":"船橋市","address":"千葉県船橋市本町6-4-15グリーンエステイトビル101号室","tel":"047-411-8116","url":"https://ssl.greenbear-english.net/alpha/","lat":35.70444025,"lng":139.98761114,"weekday":"09:15-14:30","saturday":"","sunday":"","holiday":"","closed":"土曜日・日曜日・祝祭日・年末年始12月29日〜1月3日","capacity":10,"id":"1252801020"},{"name":"いちごキッズ","nameKana":"いちごきっず","corp":"NPO法人Breath Of Life","serviceTypes":["児童発達支援"],"ward":"船橋市","address":"千葉県船橋市丸山4-55-3","tel":"047-436-8946","url":"https://ichigokids.crayonsite.com/","lat":35.7480574,"lng":139.99643941,"weekday":"08:30-16:30","saturday":"","sunday":"","holiday":"08:30-16:30","closed":"土曜日・日曜日","capacity":10,"id":"1252801046"},{"name":"放課後等デイサービス　ウィズ・ユー船橋芝山5","nameKana":"ほうかごとうでいさーびすうぃずゆーふなばししばやまご","corp":"株式会社KAM　WHITE","serviceTypes":["児童発達支援","放課後等デイサービス"],"ward":"船橋市","address":"千葉県船橋市芝山5-44-1芝山フォーレスト2階","tel":"047-401-7809","url":"https://www.with-ac.com/shisetu/shibayama5/","lat":35.72436346,"lng":140.02685419,"weekday":"","saturday":"","sunday":"","holiday":"","closed":"","capacity":10,"id":"1252801095"},{"name":"児童発達支援 みかんのき 妙典教室","nameKana":"じどうはったつしえんみかんのきみょうでんきょうしつ","corp":"株式会社 One Company","serviceTypes":["児童発達支援"],"ward":"市川市","address":"千葉県市川市塩焼1‐2‐29第一萩原ビル1階","tel":"047-329-2778","url":"https://orange.onecompany.co.jp/","lat":35.68842444,"lng":139.92766916,"weekday":"","saturday":"","sunday":"","holiday":"","closed":"","capacity":10,"id":"1252700800"},{"name":"てらぴぁぽけっと　船橋駅南教室","nameKana":"てらぴぁぽけっとふなばしえきみなみきょうしつ","corp":"株式会社オーリンク","serviceTypes":["児童発達支援","放課後等デイサービス"],"ward":"船橋市","address":"千葉県船橋市本町3-5-31将泰庵ビル3階","tel":"047-406-5630","url":"https://terapiapocket-63.com/","lat":35.69734107,"lng":139.98785306,"weekday":"","saturday":"","sunday":"","holiday":"","closed":"祝日","capacity":10,"id":"1252801160"},{"name":"てらぴぁぽけっと　下総中山教室","nameKana":"てらぴぁぽけっとしもうさなかやまきょうしつ","corp":"株式会社オーリンク","serviceTypes":["児童発達支援","放課後等デイサービス"],"ward":"船橋市","address":"千葉県船橋市本中山2-15-10EPガーデン本中山1階","tel":"047-316-0930","url":"","lat":35.71522853,"lng":139.94380593,"weekday":"","saturday":"","sunday":"","holiday":"","closed":"","capacity":null,"id":"1252801327"},{"name":"ハーモニー","nameKana":"はーもにー","corp":"ふくろう珈琲合同会社","serviceTypes":["児童発達支援","放課後等デイサービス"],"ward":"市川市","address":"千葉県市川市若宮3-30-3","tel":"047-706-5664","url":"","lat":35.72631566,"lng":139.95367986,"weekday":"10:00-13:00","saturday":"","sunday":"","holiday":"","closed":"土日祝日","capacity":10,"id":"1252701451"},{"name":"子どもデイ チャイルドハウスふぁむ","nameKana":"こどもでいちゃいるどはうすふぁむ","corp":"株式会社 CIRCLE of FAM","serviceTypes":["児童発達支援","放課後等デイサービス"],"ward":"船橋市","address":"千葉県船橋市山手2-1-21","tel":"070-9299-0845","url":"","lat":35.71142568,"lng":139.97408424,"weekday":"13:30-17:30","saturday":"10:00-16:00","sunday":"","holiday":"","closed":"日曜、祝日、お盆、年末年始","capacity":10,"id":"1252801343"},{"name":"放課後等デイサービス ウィズ・ユー白井","nameKana":"ほうかごとうでいさーびすうぃずゆーしろい","corp":"株式会社Ｍ．Ａ．Ｃ．Ｅ","serviceTypes":["児童発達支援","放課後等デイサービス"],"ward":"白井市","address":"千葉県白井市冨士118-4-101ソレイユ","tel":"047-498-9795","url":"https://www.with-ac.com/shisetu/shiroi/","lat":35.76601195,"lng":140.02043859,"weekday":"11:00-17:00","saturday":"10:00-16:00","sunday":"","holiday":"10:00-16:00","closed":"日曜日・12月30日〜1月3日","capacity":10,"id":"1254700162"},{"name":"放課後等デイサービス　ウィズ・ユー鎌ヶ谷","nameKana":"ほうかごとうでいさーびすうぃずゆーかまがや","corp":"株式会社Ｍ．Ａ．Ｃ．Ｅ","serviceTypes":["児童発達支援","放課後等デイサービス"],"ward":"鎌ケ谷市","address":"千葉県鎌ケ谷市東初富5-8-49","tel":"047-404-7801","url":"https://www.with-ac.com/shisetu/kamagaya/","lat":35.76449504,"lng":140.01535329,"weekday":"11:00-17:00","saturday":"10:00-16:00","sunday":"","holiday":"10:00-16:00","closed":"日曜日・12月30日〜1月3日","capacity":10,"id":"1252600356"},{"name":"児童発達支援事業所ponopono","nameKana":"じどうはったつしえんじぎょうしょぽのぽの","corp":"合同会社ponopono","serviceTypes":["児童発達支援"],"ward":"船橋市","address":"千葉県船橋市本中山2-16-1プラザなかやま2F","tel":"047-316-2399","url":"https://ponopono.org/","lat":35.71476749,"lng":139.94370317,"weekday":"10:30-16:30","saturday":"10:30-16:30","sunday":"","holiday":"","closed":"日曜、月曜、祝祭日、年末年始","capacity":10,"id":"1252801350"},{"name":"てらぴぁぽけっと　船橋飯山満教室","nameKana":"てらぴぁぽけっとふなばしはさまきょうしつ","corp":"合同会社ゴールドエクスペリエンス","serviceTypes":["児童発達支援"],"ward":"船橋市","address":"千葉県船橋市芝山三丁目11番3号リアルジョイ船橋壱番館101号室","tel":"047-404-6433","url":"https://terapia-96.com/","lat":35.71590878,"lng":140.02143271,"weekday":"10:00-17:00","saturday":"10:00-17:00","sunday":"","holiday":"10:00-17:00","closed":"日曜日、月曜日","capacity":10,"id":"1252801400"},{"name":"FCCキッズ東船橋","nameKana":"えふしーしーきっずひがしふなばし","corp":"合同会社ファミリーコミュニケーションケアセンターＦＣＣ","serviceTypes":["児童発達支援"],"ward":"船橋市","address":"千葉県船橋市東船橋1-29-15　東船橋ウェルズ21A","tel":"047-411-7476","url":"https://fcckids.com","lat":35.6984437,"lng":140.00270455,"weekday":"09:45-16:45","saturday":"09:45-16:45","sunday":"","holiday":"","closed":"日曜、月曜、12月30日〜1月4日","capacity":null,"id":"1252801509"},{"name":"ウィズ・ユー印西","nameKana":"うぃずゆーいんざい","corp":"株式会社道","serviceTypes":["児童発達支援","放課後等デイサービス"],"ward":"印西市","address":"千葉県印西市高花２−３−４サクラファミリア別棟","tel":"0476-36-5468","url":"https://www.with-ac.com/shisetu/inzai/","lat":35.7971744,"lng":140.14163758,"weekday":"10:00-17:00","saturday":"10:00-16:00","sunday":"","holiday":"10:00-16:00","closed":"日曜日・年末年始","capacity":10,"id":"1254600289"},{"name":"キッズサポートひふみい二和","nameKana":"きっずさぽーとひふみいふたわ","corp":"ひふみいネットワーク株式会社","serviceTypes":["児童発達支援"],"ward":"船橋市","address":"千葉県船橋市二和東6-17-38白井ビル2階","tel":"0477790932","url":"","lat":35.755949,"lng":140.02346131,"weekday":"","saturday":"","sunday":"","holiday":"","closed":"","capacity":null,"id":"1252800832"},{"name":"スクールみらい丸山校","nameKana":"すくーるみらいまるやまこう","corp":"合同会社Future Creation","serviceTypes":["児童発達支援","放課後等デイサービス"],"ward":"船橋市","address":"千葉県船橋市丸山2-15-11","tel":"047-401-8815","url":"","lat":35.7493128,"lng":139.98808176,"weekday":"","saturday":"","sunday":"","holiday":"","closed":"","capacity":10,"id":"1252801368"},{"name":"伸栄学習会　北栄教室","nameKana":"しんえいがくしゅうかいきたざかえきょうしつ","corp":"大和田オフィス株式会社","serviceTypes":["児童発達支援","放課後等デイサービス"],"ward":"浦安市","address":"千葉県浦安市北栄３−３３−１０ビッグウッドビルド１階","tel":"047-318-2301","url":"https://ho-kago-day.com/","lat":35.66611539,"lng":139.8984334,"weekday":"15:00-19:00","saturday":"15:00-19:00","sunday":"00:00-00:00","holiday":"15:00-19:00","closed":"日曜日","capacity":10,"id":"1251900120"},{"name":"伸栄学習会　妙典５丁目教室","nameKana":"しんえいがくしゅうかいみょうでんごちょうめきょうしつ","corp":"大和田オフィス株式会社","serviceTypes":["児童発達支援","放課後等デイサービス"],"ward":"市川市","address":"千葉県市川市妙典５−１７−１９２F","tel":"047-712-8818","url":"","lat":35.69089618,"lng":139.93196041,"weekday":"12:45-20:00","saturday":"13:15-20:00","sunday":"00:00-00:00","holiday":"12:45-20:00","closed":"","capacity":10,"id":"1252700826"},{"name":"クラップジュニア","nameKana":"くらっぷじゅにあ","corp":"合同会社ＣＲＯＰ","serviceTypes":["児童発達支援","放課後等デイサービス"],"ward":"習志野市","address":"千葉県習志野市本大久保3-11-15","tel":"047-411-9077","url":"","lat":35.68490435,"lng":140.04879259,"weekday":"","saturday":"","sunday":"","holiday":"","closed":"","capacity":null,"id":"1250200308"},{"name":"クラップ習志野校　第2教室","nameKana":"くらっぷならしのこうだいにきょうしつ","corp":"合同会社ＣＲＯＰ","serviceTypes":["児童発達支援"],"ward":"習志野市","address":"千葉県習志野市大久保1-18-10NSビル301号","tel":"047-494-9962","url":"https://day.crop.jp/narashino2nd/","lat":35.68766237,"lng":140.04861194,"weekday":"14:00-21:00","saturday":"","sunday":"","holiday":"09:00-16:00","closed":"","capacity":10,"id":"1250200522"},{"name":"クラップ印西牧の原校","nameKana":"くらっぷいんざいまきのはらこう","corp":"合同会社ＣＲＯＰ","serviceTypes":["児童発達支援","放課後等デイサービス"],"ward":"印西市","address":"千葉県印西市原1-2BIGHOPガーデンモール印西内","tel":"0476-85-6232","url":"","lat":35.80312676,"lng":140.16248872,"weekday":"13:00-18:00","saturday":"09:30-16:30","sunday":"","holiday":"09:30-16:30","closed":"","capacity":10,"id":"1254600263"},{"name":"とらのこキッズ","nameKana":"とらのこきっず","corp":"社会福祉法人さざんか会","serviceTypes":["児童発達支援"],"ward":"船橋市","address":"千葉県船橋市二和西5-7-28","tel":"047-440-6650","url":"","lat":35.74739666,"lng":140.01339068,"weekday":"","saturday":"","sunday":"","holiday":"","closed":"","capacity":null,"id":"1252800022"},{"name":"さざんかキッズ","nameKana":"さざんかきっず","corp":"社会福祉法人さざんか会","serviceTypes":["児童発達支援"],"ward":"船橋市","address":"千葉県船橋市行田2丁目8番1号","tel":"047-404-1234","url":"https://www.e-sazankakai.or.jp","lat":35.72192716,"lng":139.97195907,"weekday":"08:30-16:30","saturday":"08:30-16:30","sunday":"","holiday":"","closed":"センターが指定した土曜日・日曜日・祝日","capacity":70,"id":"1252800287"},{"name":"放課後等デイサービス　ひだまりの家","nameKana":"ほうかごとうでいさーびすひだまりのいえ","corp":"有限会社アシスト","serviceTypes":["児童発達支援","放課後等デイサービス"],"ward":"船橋市","address":"千葉県船橋市松が丘4-56-5","tel":"047-402-2971","url":"","lat":35.728694,"lng":140.04811613,"weekday":"10:00-14:00","saturday":"","sunday":"","holiday":"10:00-14:00","closed":"土日、１２月３０日〜１月３日","capacity":5,"id":"1252800840"},{"name":"船橋市西簡易マザーズホーム","nameKana":"ふなばししにしかんいまざーずほーむ","corp":"船橋市","serviceTypes":["児童発達支援"],"ward":"船橋市","address":"千葉県船橋市海神町2-264-5海神児童ホーム3階","tel":"047-433-8438","url":"https://www.city.funabashi.lg.jp/shisetsu/hokenfukushiiryo/0006/0006/0002/p009737.html","lat":35.70113527,"lng":139.97501508,"weekday":"","saturday":"","sunday":"","holiday":"","closed":"","capacity":null,"id":"1252800790"},{"name":"船橋市こども発達相談センターひまわり親子教室","nameKana":"ふなばししこどもはったつそうだんせんたーひまわりおやこきょうしつ","corp":"船橋市","serviceTypes":["児童発達支援"],"ward":"船橋市","address":"千葉県船橋市本郷町457-1西部消防保健センター5階","tel":"047-336-6637","url":"https://www.city.funabashi.lg.jp/kodomo/hattatsu/003/p001223.html","lat":35.7083098,"lng":139.95398315,"weekday":"","saturday":"","sunday":"","holiday":"","closed":"","capacity":null,"id":"1252800816"},{"name":"船橋市東簡易マザーズホーム","nameKana":"ふなばししひがしかんいまざーずほーむ","corp":"船橋市","serviceTypes":["児童発達支援"],"ward":"船橋市","address":"千葉県船橋市薬円台5-31-1社会福祉会館1階","tel":"047-466-1543","url":"https://www.city.funabashi.lg.jp/kodomo/hattatsu/003/p017380.html","lat":35.71444825,"lng":140.04344197,"weekday":"","saturday":"","sunday":"","holiday":"","closed":"","capacity":null,"id":"1252800048"},{"name":"船橋市こども発達相談センターたんぽぽ親子教室","nameKana":"ふなばししこどもはったつそうだんせんたーたんぽぽおやこきょうしつ","corp":"船橋市","serviceTypes":["児童発達支援"],"ward":"船橋市","address":"千葉県船橋市高根台2-1-1　高根台子育て支援センター2階","tel":"047-465-1631","url":"https://www.city.funabashi.lg.jp/kodomo/hattatsu/003/p009738.html","lat":35.73460956,"lng":140.02862316,"weekday":"","saturday":"","sunday":"","holiday":"","closed":"","capacity":null,"id":"1252800055"},{"name":"つくしんぼ","nameKana":"つくしんぼ","corp":"まえはら子育てネットワーク","serviceTypes":["児童発達支援"],"ward":"船橋市","address":"千葉県船橋市前原西６−１−６４","tel":"047-476-7802","url":"http://genkinet.ciao.jp","lat":35.70293802,"lng":140.02296924,"weekday":"09:00-14:15","saturday":"09:00-12:15","sunday":"","holiday":"","closed":"日曜・祝日　、夏季・冬季・春季休業あり","capacity":10,"id":"1252800063"},{"name":"障害者支援施設ローゼンヴィラ藤原","nameKana":"しょうがいしゃしえんしせつろーぜんびぃらふじわら","corp":"社会福祉法人千葉県福祉援護会","serviceTypes":["児童発達支援","放課後等デイサービス"],"ward":"船橋市","address":"千葉県船橋市藤原８−１７−１","tel":"047-430-7900","url":"https://engokai.or.jp/","lat":35.75001548,"lng":139.98294329,"weekday":"09:30-13:30","saturday":"","sunday":"","holiday":"","closed":"土・日、国民の祝日、12月29日から1月3日","capacity":5,"id":"1252800089"},{"name":"kiitos!なかにわ","nameKana":"きーとすなかにわ","corp":"株式会社水平線","serviceTypes":["児童発達支援"],"ward":"船橋市","address":"千葉県船橋市前貝塚町425-5","tel":"07031499503","url":"","lat":35.72427681,"lng":139.98399132,"weekday":"10:00-17:00","saturday":"","sunday":"","holiday":"10:00-16:00","closed":"土、日","capacity":10,"id":"1252800857"},{"name":"kiitos!BASE","nameKana":"きーとすべーす","corp":"株式会社水平線","serviceTypes":["児童発達支援"],"ward":"船橋市","address":"千葉県船橋市前貝塚町1007-6","tel":"047-401-1205","url":"","lat":35.72415183,"lng":139.98241369,"weekday":"09:00-16:00","saturday":"","sunday":"","holiday":"","closed":"土日祝日","capacity":10,"id":"1252801475"},{"name":"おもちゃ箱かしわ","nameKana":"おもちゃばこかしわ","corp":"合同会社ピースマイル","serviceTypes":["児童発達支援","放課後等デイサービス"],"ward":"柏市","address":"千葉県柏市旭町八丁目５番２号建物名なし","tel":"07055557255","url":"https://psml.jp/","lat":35.85860756,"lng":139.95548541,"weekday":"10:00-16:00","saturday":"","sunday":"","holiday":"10:00-13:30","closed":"土曜　日曜","capacity":10,"id":"1252100696"},{"name":"多機能型支援事業所くろーばぁ","nameKana":"たきのうがたしえんじぎょうしょくろーばぁ","corp":"株式会社ＴＣＭ","serviceTypes":["児童発達支援","放課後等デイサービス"],"ward":"館山市","address":"千葉県館山市八幡643番地2","tel":"0470-29-3735","url":"https://www.clover-tc.com","lat":35.00371247,"lng":139.86206022,"weekday":"","saturday":"","sunday":"","holiday":"","closed":"","capacity":null,"id":"1253600082"},{"name":"こどもサポートセンターおてて","nameKana":"こどもさぽーとせんたーおてて","corp":"株式会社てとて","serviceTypes":["児童発達支援"],"ward":"館山市","address":"千葉県館山市長須賀556-23","tel":"0470-29-5859","url":"https://tetote5.wixsite.com/my-site-2","lat":34.98908683,"lng":139.86257155,"weekday":"10:00-16:00","saturday":"","sunday":"","holiday":"","closed":"土・日・祝祭日・国民の休日・8/13〜8/15・12/29〜1/3","capacity":10,"id":"1253600066"},{"name":"児童デイセンターこすもす","nameKana":"じどうでいせんたーこすもす","corp":"社会福祉法人安房広域福祉会","serviceTypes":["児童発達支援","放課後等デイサービス"],"ward":"館山市","address":"千葉県館山市国分４４番地6","tel":"0470-25-7115","url":"http://nakazato.or.jp","lat":34.99738914,"lng":139.88947975,"weekday":"09:00-18:00","saturday":"","sunday":"","holiday":"09:00-18:00","closed":"土曜、日曜","capacity":20,"id":"1253600017"},{"name":"児童発達支援事業所あず・放課後等デイサービスあず教室第３","nameKana":"じどうはったつしえんじぎょうしょあずほうかごとうでいさーびすあずきょうしつだいさん","corp":"株式会社ＡＺ","serviceTypes":["児童発達支援","放課後等デイサービス"],"ward":"木更津市","address":"千葉県木更津市ほたる野一丁目29番5","tel":"0438-97-7097","url":"https://az-26.com/","lat":35.37273547,"lng":139.96324285,"weekday":"09:00-13:00","saturday":"","sunday":"","holiday":"09:00-17:00","closed":"土曜日、日曜日、8月13日〜8月15日、12月29日〜1月3日","capacity":15,"id":"1251000392"},{"name":"ホエール学園らいとはうす","nameKana":"ほえーるがくえんらいとはうす","corp":"株式会社ＮＫライフ","serviceTypes":["児童発達支援","放課後等デイサービス"],"ward":"木更津市","address":"千葉県木更津市千束台１−１７−４","tel":"0438-38-5180","url":"https://nk-l.co.jp","lat":35.36737787,"lng":139.93670032,"weekday":"10:00-15:00","saturday":"","sunday":"","holiday":"","closed":"土日祝日　夏季・年末年始","capacity":10,"id":"1251000202"},{"name":"発達支援　くぅぽの","nameKana":"はったつしえんくぅぽの","corp":"合同会社ｋｕｐｏｎｏ","serviceTypes":["児童発達支援","放課後等デイサービス","居宅訪問型児童発達支援"],"ward":"木更津市","address":"千葉県木更津市真舟2−30−2","tel":"0438-38-5473","url":"https://www.kupono.info","lat":35.36091768,"lng":139.93357583,"weekday":"09:00-18:00","saturday":"09:00-18:00","sunday":"","holiday":"09:00-18:00","closed":"日曜","capacity":10,"id":"1251000244"},{"name":"てらぴぁぽけっと姉ヶ崎駅前教室","nameKana":"てらぴぁぽけっとあねがさきえきまえきょうしつ","corp":"株式会社フルカウント","serviceTypes":["児童発達支援"],"ward":"市原市","address":"千葉県市原市姉崎西2-2-6水田ビル101号室","tel":"0436-37-2573","url":"https://sites.google.com/view/terapiapocketanegasaki/","lat":35.47852908,"lng":140.04088747,"weekday":"10:00-17:00","saturday":"10:00-17:00","sunday":"","holiday":"10:00-17:00","closed":"日曜日・月曜日","capacity":10,"id":"1250600408"},{"name":"児童発達支援つぼみ","nameKana":"じどうはったつしえんつぼみ","corp":"合同会社つぼみのゆめ","serviceTypes":["児童発達支援"],"ward":"木更津市","address":"千葉県木更津市東中央1-5-12豊田ビル2階","tel":"0438-38-6647","url":"","lat":35.38205341,"lng":139.92822603,"weekday":"10:00-15:30","saturday":"","sunday":"","holiday":"","closed":"土日祝日（盆・年末年始・ＧＷ）","capacity":10,"id":"1251000335"},{"name":"プログラミング療育放デイ エスタシオン 木更津教室","nameKana":"ぷろぐらみんぐりょういくほうでいえすたしおんきさらずきょうしつ","corp":"株式会社エスタシオンホールディングス","serviceTypes":["児童発達支援","放課後等デイサービス"],"ward":"木更津市","address":"千葉県木更津市木更津２ー１６−２１","tel":"050-3551-5435","url":"https://www.estacion.ch/","lat":35.38328387,"lng":139.93289484,"weekday":"15:30-18:00","saturday":"10:00-17:00","sunday":"10:00-17:00","holiday":"15:30-18:00","closed":"","capacity":10,"id":"1251000343"},{"name":"はなまるキッズ畑沢教室","nameKana":"はなまるきっずはたざわきょうしつ","corp":"株式会社ＳＫコミュニケーションズ","serviceTypes":["児童発達支援","放課後等デイサービス"],"ward":"木更津市","address":"千葉県木更津市畑沢2-38-2","tel":"0438-38-5635","url":"","lat":35.34498643,"lng":139.90133766,"weekday":"","saturday":"","sunday":"","holiday":"","closed":"","capacity":null,"id":"1251000293"},{"name":"プログラミング療育放デイ エスタシオン 稲毛教室","nameKana":"ぷろぐらみんぐりょういくほうでいえすたしおんいなげきょうしつ","corp":"株式会社エスタシオンホールディングス","serviceTypes":["児童発達支援","放課後等デイサービス"],"ward":"千葉市","address":"千葉県千葉市稲毛区小仲台７丁目２番１号","tel":"080-4686-3551","url":"https://www.estacion.ch/","lat":35.64086283,"lng":140.09044551,"weekday":"15:30-18:00","saturday":"10:00-12:00","sunday":"10:00-12:00","holiday":"15:30-18:00","closed":"","capacity":10,"id":"1250102942"},{"name":"君津郡市広域市町村圏事務組合児童発達支援センターきみつ愛児園","nameKana":"きみつぐんしこういきしちょうそんけんじむくみあいじどうはったつしえんせんたーきみつあいじえん","corp":"君津郡市広域市町村圏事務組合","serviceTypes":["児童発達支援"],"ward":"君津市","address":"千葉県君津市外箕輪１０４１番","tel":"0439-53-1161","url":"https://www.kouiki-kimitsu.jp","lat":35.32030974,"lng":139.93135792,"weekday":"10:00-14:30","saturday":"","sunday":"","holiday":"","closed":"国民の祝日、１月２日、１月３日及び１２月２９日から１２月３１日","capacity":60,"id":"1251100010"},{"name":"らいおんきっず","nameKana":"らいおんきっず","corp":"有限会社リ・ライフ","serviceTypes":["児童発達支援","放課後等デイサービス"],"ward":"木更津市","address":"千葉県木更津市犬成９０６","tel":"07032086431","url":"","lat":35.37568514,"lng":139.98642475,"weekday":"10:00-16:00","saturday":"","sunday":"","holiday":"","closed":"土曜日・日曜日・祝日","capacity":5,"id":"1251000186"},