[{"name":"発達支援教室アウル宮前","nameKana":"はったつしえんきょうしつあうるみやまえ","corp":"社会福祉法人天寿園会","serviceTypes":["児童発達支援"],"ward":"杉並区","address":"東京都杉並区宮前２−１１−１１","tel":"03-5941-5112","url":"https://tenjuen.net/","lat":35.69279583,"lng":139.61025145,"weekday":"09:00-17:00","saturday":"09:00-17:00","sunday":"","holiday":"","closed":"日曜、祝日","capacity":10,"id":"1351500788"},{"name":"日本重症心身障害児支援協会　多機能型ステーション　望（のぞみ）一之江","nameKana":"にほんじゅうしょうしんしんしょうがいじしえんきょうかいたきのうがたすてーしょんのぞみいちのえ","corp":"株式会社中川","serviceTypes":["児童発達支援","放課後等デイサービス"],"ward":"江戸川区","address":"東京都江戸川区一之江八丁目11番29号","tel":"0368240865","url":"","lat":35.68483808,"lng":139.88320886,"weekday":"09:30-16:30","saturday":"","sunday":"","holiday":"","closed":"土日、祝日、12月30日〜1月3日迄","capacity":5,"id":"1352301434"},{"name":"児童支援事業所　ぷらみんぽーと","nameKana":"じどうはったつしえんじぎょうしょぷらみんぽーと","corp":"社会福祉法人南東北福祉事業団","serviceTypes":["児童発達支援","放課後等デイサービス"],"ward":"世田谷区","address":"東京都世田谷区松原６−３７−１東京リハビリテーションセンター世田谷","tel":"03-6379-0427","url":"","lat":35.65717331,"lng":139.65047998,"weekday":"09:30-16:30","saturday":"","sunday":"","holiday":"","closed":"土日祝日及び12月31日から1月3日","capacity":70,"id":"1351200926"},{"name":"コペルプラス千歳船橋教室","nameKana":"こぺるぷらすちとせふなばしきょうしつ","corp":"株式会社ブックエース","serviceTypes":["児童発達支援"],"ward":"世田谷区","address":"東京都世田谷区船橋一丁目９番１８号ファミリオ９１０　１０１号室","tel":"03-6413-7612","url":"https://copelplus.copel.co.jp/school/chitose-funabashi/","lat":35.64824583,"lng":139.62362973,"weekday":"10:00-18:00","saturday":"09:00-17:00","sunday":"09:00-17:00","holiday":"","closed":"国民の祝日及び8月13日から15日、12月30日から翌年の1月3日","capacity":10,"id":"1351200983"},{"name":"コペルプラス　千歳船橋第二教室","nameKana":"こぺるぷらすちとせふなばしだいにきょうしつ","corp":"株式会社ブックエース","serviceTypes":["児童発達支援"],"ward":"世田谷区","address":"東京都世田谷区船橋3-14-12アーバニティちとふな１階","tel":"03-5787-7013","url":"https://copelplus.copel.co.jp/school/chitose-funabashi2/","lat":35.6531202,"lng":139.62166027,"weekday":"10:00-18:00","saturday":"09:00-17:00","sunday":"09:00-17:00","holiday":"","closed":"月曜日・祝日   8月13日〜15日、12月30日〜翌年の1月3日休み","capacity":10,"id":"1351201122"},{"name":"児童はったつ支援室まるソラ谷保","nameKana":"じどうはったつしえんしつまるそらやほ","corp":"株式会社国立療育センター","serviceTypes":["児童発達支援"],"ward":"国立市","address":"東京都国立市富士見台２−１５−７富士商事ビル２階","tel":"042-577-0005","url":"https://www.marusora.com/","lat":35.68232361,"lng":139.44667136,"weekday":"09:30-18:30","saturday":"09:30-18:30","sunday":"","holiday":"","closed":"日曜日、祝日","capacity":10,"id":"1353400284"},{"name":"児童はったつ支援室まるソラぷらす","nameKana":"じどうはったつしえんしつまるそらぷらす","corp":"株式会社国立療育センター","serviceTypes":["児童発達支援","居宅訪問型児童発達支援"],"ward":"国立市","address":"東京都国立市富士見台４−１０−３ＡＤＡＭＡＳ国立１階","tel":"042-572-0003","url":"https://www.marusora.com/","lat":35.6855339,"lng":139.43178365,"weekday":"","saturday":"","sunday":"","holiday":"","closed":"日曜日・祝日","capacity":10,"id":"1353400300"},{"name":"児童はったつ支援室まるソラ","nameKana":"じどうはったつしえんしつまるそら","corp":"株式会社国立療育センター","serviceTypes":["児童発達支援"],"ward":"国立市","address":"東京都国立市富士見台４−９−３　佐藤ビル２０７号室","tel":"042-505-9634","url":"https://www.marusora.com/","lat":35.68549225,"lng":139.4321114,"weekday":"","saturday":"","sunday":"","holiday":"","closed":"日曜日、祝日","capacity":10,"id":"1353400243"},{"name":"ネクストエール万願寺教室","nameKana":"ねくすとえーるまんがんじきょうしつ","corp":"一般社団法人日本フリースクール機構","serviceTypes":["児童発達支援","放課後等デイサービス"],"ward":"日野市","address":"東京都日野市万願寺３−８−２２アルマコート万願寺１０３号室","tel":"042-843-1466","url":"","lat":35.67341819,"lng":139.41671591,"weekday":"","saturday":"","sunday":"","holiday":"","closed":"","capacity":null,"id":"1353500414"},{"name":"絆ＫＩＤＳおうじ","nameKana":"きずなきっずおうじ","corp":"社会福祉法人絆友会","serviceTypes":["児童発達支援"],"ward":"北区","address":"東京都北区滝野川２−４３−３第二木村ビル１０１","tel":"03-5980-8502","url":"https://www.honbu.hanyuukai.biz/kids","lat":35.74931498,"lng":139.73401086,"weekday":"09:00-17:00","saturday":"","sunday":"","holiday":"","closed":"土・日、祝日、年末年始等","capacity":null,"id":"1351700651"},{"name":"コペルプラス中板橋教室","nameKana":"こぺるぷらすなかいたばしきょうしつ","corp":"ララ・トラスト","serviceTypes":["児童発達支援"],"ward":"板橋区","address":"東京都板橋区弥生町49-11NYBuilding中板橋2階","tel":"03-6909-5131","url":"https://copelplus.copel.co.jp/school/nakaitabashi/","lat":35.75508827,"lng":139.69249463,"weekday":"10:00-18:00","saturday":"10:00-18:00","sunday":"10:00-18:00","holiday":"10:00-18:00","closed":"なし","capacity":10,"id":"1351900889"},{"name":"放課後等デイサービス　ウィズ・ユー西台","nameKana":"ほうかごとうでいさーびすうぃずゆーにしだい","corp":"合同会社のん","serviceTypes":["児童発達支援","放課後等デイサービス"],"ward":"板橋区","address":"東京都板橋区高島平1-56-3サニーヒルズ高島平101号室","tel":"03-6824-1828","url":"https://www.with-ac.com/shisetu/takashimadaira/","lat":35.7849924,"lng":139.67352844,"weekday":"","saturday":"","sunday":"","holiday":"","closed":"","capacity":null,"id":"1351900913"},{"name":"コペルプラス　洗足池教室","nameKana":"こぺるぷらすせんぞくいけきょうしつ","corp":"株式会社スマイルエス","serviceTypes":["児童発達支援"],"ward":"大田区","address":"東京都大田区上池台２−１５−１共立上池台ビル２階","tel":"03-6451-7864","url":"https://copelplus.copel.co.jp/school/senzokuike/","lat":35.60024761,"lng":139.69265606,"weekday":"09:30-17:30","saturday":"09:30-17:30","sunday":"09:30-17:30","holiday":"","closed":"月曜日と国民の祝日および１２月３１日〜１月３日","capacity":10,"id":"1351101181"},{"name":"児童デイサービス　プラス砧","nameKana":"じどうでいさーびすぷらすきぬた","corp":"PLUSケアサービス株式会社","serviceTypes":["児童発達支援","放課後等デイサービス"],"ward":"世田谷区","address":"東京都世田谷区砧四丁目１０番１７号１階","tel":"03-6805-8137","url":"https://s-k-y-g.com/","lat":35.64040768,"lng":139.6132337,"weekday":"13:30-17:30","saturday":"10:00-16:00","sunday":"","holiday":"","closed":"日祝","capacity":10,"id":"1351201080"},{"name":"てらぴぁぽけっと　板橋本町教室","nameKana":"てらぴぁぽけっといたばしほんちょうきょうしつ","corp":"株式会社おむすび","serviceTypes":["児童発達支援"],"ward":"板橋区","address":"東京都板橋区本町39-11シティ・ヴィラ本町201","tel":"03-6909-6147","url":"","lat":35.75924097,"lng":139.70685994,"weekday":"","saturday":"","sunday":"","holiday":"","closed":"","capacity":null,"id":"1351900954"},{"name":"ネクストエール立川教室","nameKana":"ねくすとえーるたちかわきょうしつ","corp":"株式会社ＣＯＬＯＲＳ","serviceTypes":["児童発達支援","放課後等デイサービス"],"ward":"立川市","address":"東京都立川市柏町２−４０−１メゾン咲１０３・１０５","tel":"042-537-8622","url":"https://www.next-ere.com/","lat":35.7212404,"lng":139.41155905,"weekday":"10:00-13:00","saturday":"10:00-16:00","sunday":"","holiday":"","closed":"日曜・祝日　/　他)8月13日〜16日　/　12月29日〜1月3日","capacity":10,"id":"1353000308"},{"name":"ネクストエール立川上砂教室","nameKana":"ねくすとえーるたちかわかみすなきょうしつ","corp":"株式会社ＣＯＬＯＲＳ","serviceTypes":["児童発達支援","放課後等デイサービス"],"ward":"立川市","address":"東京都立川市上砂町５−４５−１ヴェルディール武蔵砂川１０２・１０３","tel":"042-537-8267","url":"https://www.next-ere.com/","lat":35.72935014,"lng":139.39289665,"weekday":"14:00-17:30","saturday":"10:00-16:00","sunday":"","holiday":"","closed":"","capacity":10,"id":"1353000332"},{"name":"ネクストエール小金井本町教室","nameKana":"ねくすとえーるこがねいほんちょうきょうしつ","corp":"有限会社エス・アイ・ピー","serviceTypes":["児童発達支援","放課後等デイサービス"],"ward":"小金井市","address":"東京都小金井市本町５−２−２５たかはしビル２階","tel":"042-316-4207","url":"https://www.next-ere.com/","lat":35.70120067,"lng":139.50335192,"weekday":"10:00-13:00","saturday":"10:00-13:00","sunday":"","holiday":"","closed":"日曜、祝日、お盆（8/13〜8/16）、年末年始（12/29〜1/3）","capacity":10,"id":"1354100289"},{"name":"コペルプラス上野おかちまち教室","nameKana":"こぺるぷらすうえのおかちまちきょうしつ","corp":"株式会社アローズ","serviceTypes":["児童発達支援"],"ward":"台東区","address":"東京都台東区台東４−１７−２偕楽ビル（台東）２階","tel":"03-3839-5101","url":"https://copelplus.copel.co.jp/school/ueno-okachimachi/","lat":35.7064656,"lng":139.77949552,"weekday":"10:00-18:00","saturday":"10:00-18:00","sunday":"","holiday":"","closed":"日曜日、月曜日、祝日、8月13日〜15日、12月30日〜1月3日","capacity":10,"id":"1350600316"},{"name":"ほめてこあきる野教室","nameKana":"ほめてこあきるのきょうしつ","corp":"株式会社キーホームズ","serviceTypes":["児童発達支援","放課後等デイサービス"],"ward":"あきる野市","address":"東京都あきる野市秋川１−２−１阿伎留ビル１階　１０２号室","tel":"042-533-3515","url":"https://www.hometeco.com","lat":35.72814464,"lng":139.28806365,"weekday":"","saturday":"","sunday":"","holiday":"","closed":"","capacity":null,"id":"1355200179"},{"name":"ほめてこ羽村教室","nameKana":"ほめてこはむらきょうしつ","corp":"株式会社ディー・ホワイト","serviceTypes":["児童発達支援","放課後等デイサービス"],"ward":"羽村","address":"東京都羽村市五ノ神４−１−８日芳ビル２階","tel":"042-533-4175","url":"https://www.hometeco.com","lat":35.76031389,"lng":139.31476309,"weekday":"","saturday":"","sunday":"","holiday":"","closed":"","capacity":null,"id":"1355300078"},{"name":"てらぴぁぽけっと 早稲田教室","nameKana":"てらぴぁぽけっとわせだきょうしつ","corp":"株式会社士心","serviceTypes":["児童発達支援"],"ward":"新宿区","address":"東京都新宿区西早稲田１−２３−１３ＡＺ西早稲田２階","tel":"03-6380-2836","url":"https://terapia-waseda.com/","lat":35.71234382,"lng":139.71826367,"weekday":"10:00-17:00","saturday":"10:00-17:00","sunday":"10:00-17:00","holiday":"10:00-17:00","closed":"","capacity":null,"id":"1350400543"},{"name":"ドルフィンキッズ","nameKana":"どるふぃんきっず","corp":"社会福祉法人一粒","serviceTypes":["児童発達支援"],"ward":"杉並区","address":"東京都杉並区天沼2-4-1井上ビル3号館203号","tel":"03-5335-7690","url":"http://dolphin-kids.jp","lat":35.7052614,"lng":139.6233166,"weekday":"09:00-17:00","saturday":"09:00-17:00","sunday":"","holiday":"","closed":"日曜、祝日、年末年始（12月29日〜1月3日）","capacity":10,"id":"1351500192"},{"name":"第２ドルフィンキッズ","nameKana":"だいにどるふぃんきっず","corp":"社会福祉法人一粒","serviceTypes":["児童発達支援"],"ward":"杉並区","address":"東京都杉並区上荻1-4-5村上ビル5階","tel":"03-6279-9408","url":"http://dolphin-kids.jp","lat":35.70505584,"lng":139.62225003,"weekday":"","saturday":"","sunday":"","holiday":"","closed":"","capacity":null,"id":"1351500325"},{"name":"アイル板橋こども園","nameKana":"あいるいたばしこどもえん","corp":"社会福祉法人一樹福祉会","serviceTypes":["児童発達支援"],"ward":"板橋区","address":"東京都板橋区大谷口上町7-10クリオ中板橋壱番館1階","tel":"03-6909-3706","url":"http://ichiju-fukushi.or.jp/itabashi.html","lat":35.75088604,"lng":139.69377251,"weekday":"09:00-17:00","saturday":"","sunday":"","holiday":"","closed":"土日祝、年末年始","capacity":10,"id":"1351900905"},{"name":"からふるＫｉｄｓ綾瀬","nameKana":"からふるきっずあやせ","corp":"株式会社キャン・プランナー","serviceTypes":["児童発達支援","放課後等デイサービス"],"ward":"足立区","address":"東京都足立区綾瀬２−４６−６　河合ビル１階","tel":"03-6662-7518","url":"https://houkago-kids.com/","lat":35.76218273,"lng":139.83059076,"weekday":"09:55-17:00","saturday":"09:55-17:00","sunday":"09:55-17:00","holiday":"09:55-17:00","closed":"なし","capacity":10,"id":"1352100711"},{"name":"療育ルーム　みもも","nameKana":"りょういくるーむみもも","corp":"特定非営利活動法人みもものまま","serviceTypes":["児童発達支援","放課後等デイサービス"],"ward":"足立区","address":"東京都足立区梅田３−９−８大原店舗　１階","tel":"03-5888-5082","url":"https://infomimomonomama.wixsite.com/ryoikuroommimomo","lat":35.76365689,"lng":139.79647432,"weekday":"10:00-17:00","saturday":"10:00-17:00","sunday":"","holiday":"","closed":"","capacity":5,"id":"1352101172"},{"name":"すかいきっず","nameKana":"すかいきっず","corp":"株式会社Ｋ−ＳＴＡＧＥ","serviceTypes":["児童発達支援","放課後等デイサービス"],"ward":"足立区","address":"東京都足立区西保木間１−２１−７−１０１","tel":"03-5856-6136","url":"","lat":35.7756335,"lng":139.8045009,"weekday":"13:00-16:00","saturday":"10:00-16:00","sunday":"","holiday":"10:00-16:00","closed":"","capacity":10,"id":"1352100422"},{"name":"放課後等デイサービス　ウィズ・ユーくめがわ","nameKana":"ほうかごなどでいさーびすうぃずゆーくめがわ","corp":"Ｍｉｒａｉｏｒ株式会社","serviceTypes":["児童発達支援","放課後等デイサービス"],"ward":"東村","address":"東京都東村山市栄町２−４０−３２シュークル久米川２階","tel":"042-204-2985","url":"","lat":35.7472445,"lng":139.46936958,"weekday":"","saturday":"","sunday":"","holiday":"","closed":"","capacity":null,"id":"1352700254"},{"name":"放課後等デイサービス　ウィズ・ユーやさか","nameKana":"ほうかごとうでいさーびすうぃずゆーやさか","corp":"Ｍｉｒａｉｏｒ株式会社","serviceTypes":["児童発達支援","放課後等デイサービス"],"ward":"東村","address":"東京都東村山市栄町３−１０−３野村ビル２階","tel":"042-204-1138","url":"https://with-you-miraior.jp/","lat":35.74683893,"lng":139.46703369,"weekday":"","saturday":"","sunday":"","holiday":"","closed":"","capacity":null,"id":"1352700270"},{"name":"コペルプラス立川教室","nameKana":"こぺるぷらすたちかわきょうしつ","corp":"アイデアル株式会社","serviceTypes":["児童発達支援"],"ward":"立川市","address":"東京都立川市錦町３−２−２Ｔ・Ｍタワー１階","tel":"042-595-9681","url":"https://copelplus.copel.co.jp/school/tachikawa/","lat":35.6944603,"lng":139.41931213,"weekday":"09:30-17:30","saturday":"09:30-17:30","sunday":"09:30-17:30","holiday":"","closed":"祝日","capacity":10,"id":"1353000290"},{"name":"コペルプラス八王子教室","nameKana":"こぺるぷらすはちおうじきょうしつ","corp":"アイデアル株式会社","serviceTypes":["児童発達支援"],"ward":"八王子市","address":"東京都八王子市子安町２−１−１１エスポワールサトー１０１号室","tel":"042-649-8915","url":"https://copelplus.copel.co.jp/school/hachioji/","lat":35.65178009,"lng":139.33904536,"weekday":"09:30-17:30","saturday":"09:30-17:30","sunday":"09:30-17:30","holiday":"","closed":"金曜日、祝日、12月30日から翌年1月3日","capacity":10,"id":"1352901035"},{"name":"コペルプラス八王子北野教室","nameKana":"こぺるぷらすはちおうじきたのきょうしつ","corp":"アイデアル株式会社","serviceTypes":["児童発達支援"],"ward":"八王子市","address":"東京都八王子市打越町２００１−６Grand　Bell　Malle　１階","tel":"042-683-2228","url":"https://copelplus.copel.co.jp/school/hachioji-kitano/","lat":35.64446737,"lng":139.35278883,"weekday":"09:30-17:30","saturday":"09:30-17:30","sunday":"09:30-17:30","holiday":"","closed":"月曜日、祝日、年末年始(12/30〜1/3)","capacity":10,"id":"1352901167"},{"name":"アプリ児童デイサービス東向島","nameKana":"あぷりじどうでいさーびすひがしむこうじま","corp":"株式会社マウンテンフィールド","serviceTypes":["児童発達支援","放課後等デイサービス"],"ward":"墨田区","address":"東京都墨田区東向島五丁目３１番３号　エビハラビル１階","tel":"03-6657-3401","url":"","lat":35.72859338,"lng":139.82226933,"weekday":"","saturday":"","sunday":"","holiday":"","closed":"","capacity":null,"id":"1350700280"},{"name":"たちばな","nameKana":"たちばな","corp":"NPO法人かぷあ","serviceTypes":["児童発達支援","放課後等デイサービス"],"ward":"江戸川区","address":"東京都江戸川区東松本2-17-15","tel":"03-6657-9877","url":"","lat":35.72218861,"lng":139.88100198,"weekday":"11:45-17:45","saturday":"11:00-17:00","sunday":"","holiday":"11:00-17:00","closed":"日曜日・年末年始","capacity":10,"id":"1352301392"},{"name":"放課後等デイサービス　ウィズ・ユー落合南長崎","nameKana":"ほうかごとうでいさーびすうぃずゆーおちあいみなみながさき","corp":"株式会社ラウレア","serviceTypes":["児童発達支援","放課後等デイサービス"],"ward":"豊島区","address":"東京都豊島区南長崎４−４３−３ＳＯＣＩＥＴＹ　ＯＰＵＳ−ＯＮＥ１階","tel":"03-4363-8764","url":"https://www.with-ac.com/shisetu/minaminagasaki/","lat":35.72804114,"lng":139.68579361,"weekday":"","saturday":"","sunday":"","holiday":"","closed":"","capacity":null,"id":"1351600356"},{"name":"こころとことばの教室こっこ　葛西校","nameKana":"こころとことばのきょうしつこっこかさいこう","corp":"ＮＰＯ法人発達わんぱく会","serviceTypes":["児童発達支援"],"ward":"江戸川区","address":"東京都江戸川区中葛西４−９−１８　ｉ・ｅビル　３階","tel":"03-6456-0995","url":"http://www.wanpaku.org/kokko/index.html","lat":35.66823312,"lng":139.86851357,"weekday":"09:00-16:45","saturday":"09:00-16:45","sunday":"00:00-00:00","holiday":"09:00-16:45","closed":"日曜日","capacity":10,"id":"1352300287"},{"name":"こころとことばの教室こっこ葛西駅前校","nameKana":"こころとことばのきょうしつこっこかさいえきまえこう","corp":"ＮＰＯ法人発達わんぱく会","serviceTypes":["児童発達支援"],"ward":"江戸川区","address":"東京都江戸川区東葛西 6丁目 2−9武企画Ⅱビル 5 階","tel":"03-5878-1192","url":"http://www.wanpaku.org/kokko/index.html","lat":35.66280622,"lng":139.87369941,"weekday":"09:00-16:30","saturday":"00:00-00:00","sunday":"00:00-00:00","holiday":"09:00-16:30","closed":"土・日曜日","capacity":10,"id":"1352301038"},{"name":"ジュガール放課後デイ（児童発達支援併設）西新小岩","nameKana":"じゅがーるほうかごでいじどうはったつしえんへいせつにししんこいわ","corp":"一般社団法人EmGaWa","serviceTypes":["児童発達支援","放課後等デイサービス"],"ward":"葛飾区","address":"東京都葛飾区西新小岩３−２６−５","tel":"03-5654-6211","url":"","lat":35.7226429,"lng":139.84878004,"weekday":"10:00-17:30","saturday":"","sunday":"","holiday":"","closed":"土曜日・日曜日・祝日・年末年始（12月29日〜1月3日）","capacity":20,"id":"1352200875"},{"name":"放課後等デイサービス　ウィズ・ユー世田谷奥沢","nameKana":"ほうかごとうでいさーびすうぃずゆーせたがやおくさわ","corp":"株式会社オプティマム・キャピタル・アドバイザリー","serviceTypes":["児童発達支援","放課後等デイサービス"],"ward":"世田谷区","address":"東京都世田谷区奥沢４−４−６ＡＬＥＸ奥沢１階","tel":"03-6451-7209","url":"https://www.with-ac.com/shisetu/okusawa/","lat":35.59976115,"lng":139.66986653,"weekday":"10:00-12:00","saturday":"10:00-16:00","sunday":"","holiday":"10:00-16:00","closed":"日曜日、12/30~1/3","capacity":10,"id":"1351201171"},{"name":"ブロッサムジュニア　三ノ輪教室","nameKana":"ぶろっさむじゅにあみのわきょうしつ","corp":"株式会社ＹＫＲ","serviceTypes":["児童発達支援","放課後等デイサービス"],"ward":"台東区","address":"東京都台東区竜泉３−４２−７","tel":"03-6802-4596","url":"https://www.blo-minowa.com/","lat":35.72636657,"lng":139.79179326,"weekday":"10:30-17:30","saturday":"","sunday":"","holiday":"09:30-15:30","closed":"","capacity":10,"id":"1350600365"},{"name":"リニエプラッツ二子玉川","nameKana":"りにえぷらっつふたこたまがわ","corp":"株式会社リニエＲ","serviceTypes":["児童発達支援"],"ward":"世田谷区","address":"東京都世田谷区上野毛2−22−14CORTILETAMAGAWA　B棟2階","tel":"03-6432-2520","url":"https://linie-group.jp/office/platz-futagotamagawa/","lat":35.60937338,"lng":139.63499165,"weekday":"","saturday":"","sunday":"","holiday":"","closed":"","capacity":null,"id":"1351201254"},{"name":"まんまるちとせ西葛西","nameKana":"まんまるちとせにしかさい","corp":"社会福祉法人ちとせ交友会","serviceTypes":["児童発達支援"],"ward":"江戸川区","address":"東京都江戸川区西葛西5-6-19西葛西内宮ビル4階","tel":"03-6456-0407","url":"https://www.chitosek.or.jp/manmaruchitose/nishikasai","lat":35.66469434,"lng":139.86100046,"weekday":"09:00-16:45","saturday":"09:00-16:45","sunday":"","holiday":"","closed":"日・月・祝日・夏季休業・冬季休業","capacity":10,"id":"1352301566"},{"name":"まんまるちとせ瑞江","nameKana":"まんまるちとせみずえ","corp":"社会福祉法人ちとせ交友会","serviceTypes":["児童発達支援"],"ward":"江戸川区","address":"東京都江戸川区南篠崎町三丁目３番１号スイートヒルズ瑞江１階","tel":"03-5879-8720","url":"https://www.chitosek.or.jp/manmaruchitose/mizue","lat":35.693897,"lng":139.90031533,"weekday":"","saturday":"","sunday":"","holiday":"","closed":"土曜日・日曜日・祝日・年末年始","capacity":null,"id":"1352301632"},{"name":"コペルプラス　立花教室","nameKana":"こぺるぷらすたちばなきょうしつ","corp":"株式会社アイ・エス・シー","serviceTypes":["児童発達支援"],"ward":"墨田区","address":"東京都墨田区立花４−１６−４オーバルコート立花101","tel":"03-6657-3891","url":"https://copelplus.copel.co.jp/school/tachibana/","lat":35.71046349,"lng":139.83239585,"weekday":"10:00-18:00","saturday":"10:00-18:00","sunday":"10:00-18:00","holiday":"","closed":"国民の祝日・お盆・年末年始","capacity":10,"id":"1350700561"},{"name":"ハッピートライアングル亀戸","nameKana":"はっぴーとらいあんぐるかめいど","corp":"ベストリハ株式会社","serviceTypes":["児童発達支援","放課後等デイサービス"],"ward":"江東区","address":"東京都江東区亀戸１−４３−８コープ野村亀戸中央棟1階B区画","tel":"03-5628-7010","url":"https://www.happy-triangle.com/","lat":35.69657233,"lng":139.82083161,"weekday":"10:00-16:30","saturday":"10:00-16:30","sunday":"","holiday":"10:00-16:30","closed":"日曜及び12/30~1/3","capacity":10,"id":"1350800627"},{"name":"ハッピートライアングル竹ノ塚","nameKana":"はっぴーとらいあんぐるたけのつか","corp":"ベストリハ株式会社","serviceTypes":["児童発達支援","放課後等デイサービス"],"ward":"足立区","address":"東京都足立区竹の塚１−３０−１コンフォール１階店舗Ａ","tel":"03-5851-7151","url":"https://www.happy-triangle.com/","lat":35.79156743,"lng":139.79218736,"weekday":"10:00-16:30","saturday":"10:00-16:30","sunday":"","holiday":"10:00-16:30","closed":"日曜及び12/30~1/3","capacity":10,"id":"1352100851"},{"name":"ハッピートライアングル竹ノ塚第2教室","nameKana":"はっぴーとらいあんぐるにしあらいにし","corp":"ベストリハ株式会社","serviceTypes":["児童発達支援","放課後等デイサービス"],"ward":"足立区","address":"東京都足立区竹の塚1-35-1レジデンスヤマガタⅢ 1階","tel":"03-5647-8852","url":"https://www.happy-triangle.com/","lat":35.79190911,"lng":139.79403441,"weekday":"10:00-16:30","saturday":"10:00-16:30","sunday":"","holiday":"10:00-16:30","closed":"日曜及び12/30~1/3","capacity":10,"id":"1352100935"},{"name":"リニエプラッツ台東（重心）","nameKana":"りにえぷらっつたいとう","corp":"株式会社リニエＲ","serviceTypes":["児童発達支援"],"ward":"台東区","address":"東京都台東区上野桜木２−１９−２クリーンハイツ１０１","tel":"03-5842-1934","url":"","lat":35.72280009,"lng":139.77326188,"weekday":"","saturday":"","sunday":"","holiday":"","closed":"","capacity":null,"id":"1350600332"},{"name":"リニエプラッツ台東（重心外）","nameKana":"りにえぷらっつたいとう","corp":"株式会社リニエＲ","serviceTypes":["児童発達支援"],"ward":"台東区","address":"東京都台東区上野桜木２−１９−２クリーンハイツ１０１","tel":"03-5842-1934","url":"","lat":35.72280009,"lng":139.77326188,"weekday":"","saturday":"","sunday":"","holiday":"","closed":"","capacity":null,"id":"1350600332"},{"name":"リニエプラッツ吉祥寺","nameKana":"りにえぷらっつきちじょうじ","corp":"株式会社リニエＲ","serviceTypes":["児童発達支援","放課後等デイサービス"],"ward":"武蔵野市","address":"東京都武蔵野市吉祥寺北町３−５−８イトーピア吉祥寺１階−１１０","tel":"0422-50-0323","url":"https://linie-group.jp/office/platz-kichijoji/","lat":35.71048728,"lng":139.57104286,"weekday":"09:30-17:30","saturday":"09:30-17:30","sunday":"","holiday":"09:30-17:30","closed":"日曜日　","capacity":10,"id":"1353300096"},{"name":"リニエプラッツ武蔵野","nameKana":"りにえぷらっつむさしの","corp":"株式会社リニエＲ","serviceTypes":["児童発達支援","放課後等デイサービス"],"ward":"武蔵野市","address":"東京都武蔵野市中町１−１９−８　シティハイツ武蔵野１階","tel":"0422-38-5073","url":"","lat":35.70499885,"lng":139.56267163,"weekday":"09:30-17:30","saturday":"09:30-17:30","sunday":"00:00-00:00","holiday":"09:30-17:30","closed":"日曜日、年末年始","capacity":10,"id":"1353300187"},{"name":"障害児保育園ヘレン中村橋","nameKana":"しょうがいじほいくえんへれんなかむらばし","corp":"特定非営利活動法人フローレンス","serviceTypes":["児童発達支援"],"ward":"練馬区","address":"東京都練馬区光が丘２−６−１-","tel":"03-5848-8282","url":"https://helen-hoiku.jp/school/nakamurabashi","lat":35.76175536,"lng":139.63222177,"weekday":"","saturday":"","sunday":"","holiday":"","closed":"土・日・祝日・年末年始","capacity":null,"id":"1352000739"},{"name":"障害児保育園ヘレン東雲","nameKana":"しょうがいじほいくえんへれんしののめ","corp":"特定非営利活動法人フローレンス","serviceTypes":["児童発達支援"],"ward":"江東区","address":"東京都江東区東雲２−１−２２キャッスルビル東雲１階","tel":"03-6380-7432","url":"https://helen-hoiku.jp/school/shinonome","lat":35.64382857,"lng":139.80148951,"weekday":"","saturday":"","sunday":"","holiday":"","closed":"土・日・祝日・年末年始","capacity":5,"id":"1350800577"},{"name":"障害児保育園ヘレン","nameKana":"しょうがいじほいくえんへれん","corp":"特定非営利活動法人フローレンス","serviceTypes":["児童発達支援"],"ward":"杉並区","address":"東京都杉並区天沼三丁目１２番１２号-","tel":"03-6383-5721","url":"https://helen-hoiku.jp/school/ogikubo","lat":35.70835532,"lng":139.61662811,"weekday":"","saturday":"","sunday":"","holiday":"","closed":"土・日・祝日・年末年始","capacity":null,"id":"1351500390"},{"name":"スマートキッズソリス南砂町","nameKana":"すまーときっずそりすみなみすなまち","corp":"スマートキッズ株式会社","serviceTypes":["児童発達支援","放課後等デイサービス"],"ward":"江東区","address":"東京都江東区東砂６−１２−３ＴＥＣ　Ｇｒｅｅｎ　Ｒｅｓｉｄｅｎｃｅ２階","tel":"03-6458-6657","url":"","lat":35.67209011,"lng":139.84109072,"weekday":"","saturday":"","sunday":"","holiday":"","closed":"","capacity":10,"id":"1350800841"},{"name":"スマートキッズソリス両国","nameKana":"すまーときっずそりすりょうごく","corp":"スマートキッズ株式会社","serviceTypes":["児童発達支援","放課後等デイサービス"],"ward":"墨田区","address":"東京都墨田区亀沢1-24-1アーバンコーポ両国2階201号室","tel":"03-6458-5456","url":"https://smart-kids.co.jp/","lat":35.69848065,"lng":139.7976149,"weekday":"10:00-18:00","saturday":"10:00-16:00","sunday":"","holiday":"","closed":"祝日・日曜日","capacity":10,"id":"1350700082"},{"name":"スマートキッズソリス東大島","nameKana":"すまーときっずそりすがしおおじま","corp":"スマートキッズ株式会社","serviceTypes":["児童発達支援","放課後等デイサービス"],"ward":"江東区","address":"東京都江東区大島9-4-1東大島ファミールハイツ1号館１階116号室","tel":"03-5858-8434","url":"https://smart-kids.co.jp/","lat":35.69114604,"lng":139.84458715,"weekday":"","saturday":"","sunday":"","holiday":"","closed":"","capacity":10,"id":"1350800064"},{"name":"スマートキッズプラス豊洲","nameKana":"すまーときっずぷらすとよす","corp":"スマートキッズ株式会社","serviceTypes":["児童発達支援","放課後等デイサービス"],"ward":"江東区","address":"東京都江東区枝川２−１５−２　　大岩ビル１階","tel":"03-6666-4517","url":"https://smart-kids.co.jp/","lat":35.65771603,"lng":139.80720522,"weekday":"13:30-18:00","saturday":"10:00-16:00","sunday":"","holiday":"10:00-16:00","closed":"","capacity":10,"id":"1350800148"},{"name":"アプリ児童デイサービス清瀬","nameKana":"あぷりじどうでいさーびすきよせ","corp":"テラスワールド株式会社","serviceTypes":["児童発達支援","放課後等デイサービス"],"ward":"清瀬市","address":"東京都清瀬市梅園３−２−２１","tel":"042-497-9907","url":"","lat":35.76888456,"lng":139.50191881,"weekday":"13:30-17:30","saturday":"10:00-16:00","sunday":"10:00-16:00","holiday":"10:00-16:00","closed":"なし","capacity":10,"id":"1354700195"},{"name":"ぴかいち","nameKana":"ぴかいち","corp":"一般社団法人Ｄ＆Ａ　Ｎｅｔｗｏｒｋｓ","serviceTypes":["児童発達支援","放課後等デイサービス"],"ward":"千代田区","address":"東京都千代田区平河町2丁目12-4フジビル2階","tel":"03-3239-0686","url":"https://www.d-and-a-networks.jp/pikaichi/","lat":35.68062844,"lng":139.74153507,"weekday":"10:00-18:00","saturday":"10:00-18:00","sunday":"","holiday":"","closed":"日曜、祝日、12月29日〜1月3日","capacity":30,"id":"1350100036"},{"name":"ジョブサＵ１８立川南口教室","nameKana":"じょぶさゆーいちはちたちかわみなみぐちきょうしつ","corp":"株式会社ロクマル","serviceTypes":["児童発達支援"],"ward":"立川市","address":"東京都立川市柴崎町２−４−１５　ほまれ屋本社ビル２０２号室","tel":"042-595-6730","url":"https://jobsa-kids.jp/","lat":35.69685978,"lng":139.40993222,"weekday":"10:00-16:45","saturday":"10:00-16:45","sunday":"","holiday":"","closed":"日曜、祝日、12月30日〜1月4日","capacity":10,"id":"1353000258"},{"name":"ロディ・ジョブサキッズ＆Ｕ１８赤羽教室","nameKana":"ろでぃじょぶさきっずあんどゆーいちはちあかばねきょうしつ","corp":"株式会社ロクマル","serviceTypes":["児童発達支援","放課後等デイサービス"],"ward":"北区","address":"東京都北区赤羽西１−１８−８アネックス若松１階","tel":"03-5948-4555","url":"https://jobsa-kids.jp/","lat":35.77637801,"lng":139.71799721,"weekday":"11:00-18:15","saturday":"10:00-17:15","sunday":"","holiday":"","closed":"日曜、祝日、12月30日〜1月4日","capacity":10,"id":"1351700594"},{"name":"TODAY児童デイサービス白金２号館","nameKana":"とぅでいじどうでいさーびすしろがねにごうかん","corp":"ＡＨＣグループ株式会社","serviceTypes":["児童発達支援","放課後等デイサービス"],"ward":"港区","address":"東京都港区白金五丁目６番９号田中ビル１階","tel":"03-5422-7853","url":"","lat":35.6450848,"lng":139.7278904,"weekday":"13:35-17:35","saturday":"10:00-16:00","sunday":"10:00-16:00","holiday":"10:00-16:00","closed":"年末年始12/31〜1/2","capacity":10,"id":"1350300438"},{"name":"ＴＯＤＡＹ児童デイサービス白金","nameKana":"とぅでいじどうでいさーびすしろがね","corp":"ＡＨＣグループ株式会社","serviceTypes":["児童発達支援","放課後等デイサービス"],"ward":"港区","address":"東京都港区白金３−１６−９","tel":"03-6450-2157","url":"","lat":35.64441822,"lng":139.72802097,"weekday":"13:35-17:35","saturday":"10:00-16:00","sunday":"10:00-16:00","holiday":"10:00-16:00","closed":"年末年始12/31〜1/2","capacity":10,"id":"1350300230"},{"name":"コペルプラス西五反田教室","nameKana":"こぺるぷらすにしごたんだきょうしつ","corp":"株式会社アイ・エス・シー","serviceTypes":["児童発達支援"],"ward":"品川区","address":"東京都品川区西五反田３−８−８ＮＴＴ大崎ビル１階","tel":"03-5747-9301","url":"https://copelplus.copel.co.jp/","lat":35.62643118,"lng":139.7178419,"weekday":"10:00-18:00","saturday":"10:00-18:00","sunday":"","holiday":"","closed":"日曜・月曜・国民の祝日・8月13日〜15日・12月29日〜1月3日","capacity":10,"id":"1350900534"},{"name":"アプリ児童デイサービス若林","nameKana":"あぷりじどうでいさーびすわかばやし","corp":"ＡＨＣグループ株式会社","serviceTypes":["児童発達支援","放課後等デイサービス"],"ward":"世田谷区","address":"東京都世田谷区若林四丁目２番５号","tel":"03-6453-2992","url":"","lat":35.64651367,"lng":139.65940458,"weekday":"14:05-18:05","saturday":"10:00-16:00","sunday":"10:00-16:00","holiday":"","closed":"12/31〜1/2","capacity":10,"id":"1351200520"},{"name":"アプリ児童デイサービス桜丘","nameKana":"あぷりじどうでいさーびすさくらがおか","corp":"ＡＨＣグループ株式会社","serviceTypes":["児童発達支援","放課後等デイサービス"],"ward":"世田谷区","address":"東京都世田谷区桜丘二丁目２１番３号","tel":"03-6432-6812","url":"","lat":35.64605998,"lng":139.62375203,"weekday":"14:05-18:05","saturday":"10:00-16:00","sunday":"10:00-16:00","holiday":"","closed":"12/31〜1/2","capacity":10,"id":"1351200546"},{"name":"アプリ児童デイサービス千歳台","nameKana":"あぷりじどうでいさーびすちとせだい","corp":"ＡＨＣグループ株式会社","serviceTypes":["児童発達支援","放課後等デイサービス"],"ward":"世田谷区","address":"東京都世田谷区千歳台３−３１−２０","tel":"03-6277-9973","url":"","lat":35.65373097,"lng":139.6124193,"weekday":"13:55-17:55","saturday":"10:00-16:00","sunday":"10:00-16:00","holiday":"","closed":"12/31〜1/2","capacity":10,"id":"1351200579"},{"name":"障害児保育園へレン経堂","nameKana":"しょうがいじほいくえんへれんきょうどう","corp":"特定非営利活動法人フローレンス","serviceTypes":["児童発達支援"],"ward":"世田谷区","address":"東京都世田谷区宮坂３−１５−１５子ども・子育て総合センター２階","tel":"03-6413-5606","url":"https://helen-hoiku.jp/school/kyodo","lat":35.65397055,"lng":139.63730617,"weekday":"","saturday":"","sunday":"","holiday":"","closed":"土・日・祝日・年末年始","capacity":10,"id":"1351200793"},{"name":"リニエプラッツ板橋","nameKana":"りにえぷらっついたばし","corp":"株式会社リニエR","serviceTypes":["児童発達支援","放課後等デイサービス"],"ward":"板橋区","address":"東京都板橋区高島平1-74-14ＥＳＰＥＲＡＮＺＡ１０１","tel":"03-6906-6563","url":"","lat":35.7866726,"lng":139.66911769,"weekday":"","saturday":"","sunday":"","holiday":"","closed":"","capacity":null,"id":"1351900814"},{"name":"リニエプラッツ浮間舟渡","nameKana":"りにえぷらっつうきまふなと","corp":"株式会社リニエR","serviceTypes":["児童発達支援"],"ward":"板橋区","address":"東京都板橋区舟渡2-11-2ウキマパークコート1F","tel":"03-6279-8230","url":"https://linie-group.jp/office/platz-ukimafunato/","lat":35.79428607,"lng":139.69009338,"weekday":"10:00-17:30","saturday":"10:00-17:30","sunday":"","holiday":"","closed":"日曜、年末・年始、その他事業所の定めた休業日","capacity":15,"id":"1351901028"},{"name":"アプリ児童デイサービス高島平２号館","nameKana":"あぷりじどうでいさーびすたかしまだいらにごうかん","corp":"ＡＨＣグループ株式会社","serviceTypes":["児童発達支援","放課後等デイサービス"],"ward":"板橋区","address":"東京都板橋区高島平７丁目１８番１８号　高島平セントラルコート１階","tel":"03-6915-6293","url":"","lat":35.79091605,"lng":139.65653819,"weekday":"13:30-17:30","saturday":"10:00-16:00","sunday":"","holiday":"10:00-16:00","closed":"日、12月31日〜1月2日","capacity":10,"id":"1351900392"},{"name":"東京ＹＷＣＡキッズガーデン","nameKana":"とうきょうわいだぶりゅーしーえーきっずがーでん","corp":"公益財団法人東京ＹＷＣＡ","serviceTypes":["児童発達支援","放課後等デイサービス"],"ward":"板橋区","address":"東京都板橋区坂下１−３４−２５東京YWCA板橋ｾﾝﾀｰ","tel":"03-5914-1854","url":"http://www.tokyo.ywca.or.jp/","lat":35.78099327,"lng":139.68450534,"weekday":"10:00-14:00","saturday":"10:00-14:00","sunday":"","holiday":"","closed":"日曜日・祝祭日","capacity":30,"id":"1351900046"},{"name":"スマートキッズソリス葛西","nameKana":"すまーときっずそりすかさい","corp":"スマートキッズ株式会社","serviceTypes":["児童発達支援","放課後等デイサービス"],"ward":"江戸川区","address":"東京都江戸川区西葛西６−２７−８　ＮＥＸＴ　Ｖ０００１号室","tel":"03-6458-5456","url":"https://smart-kids.co.jp/","lat":35.66250022,"lng":139.86242263,"weekday":"","saturday":"","sunday":"","holiday":"","closed":"","capacity":10,"id":"1352300337"},{"name":"スマートキッズソリス船堀","nameKana":"すまーときっずそりすふなぼり","corp":"スマートキッズ株式会社","serviceTypes":["児童発達支援","放課後等デイサービス"],"ward":"江戸川区","address":"東京都江戸川区松江４−１２−７　山種小松川ビル１階","tel":"03-6458-5456","url":"https://smart-kids.co.jp/","lat":35.69556066,"lng":139.87151236,"weekday":"","saturday":"","sunday":"","holiday":"","closed":"","capacity":10,"id":"1352300378"},{"name":"スマートキッズプラス北葛西","nameKana":"すまーときっずぷらすきたかさい","corp":"スマートキッズ株式会社","serviceTypes":["児童発達支援"],"ward":"江戸川区","address":"東京都江戸川区北葛西四丁目２２−１１号　Ｙ・Ｓビル１階","tel":"03-6458-5456","url":"https://smart-kids.co.jp/","lat":35.67069384,"lng":139.8664859,"weekday":"","saturday":"","sunday":"","holiday":"","closed":"","capacity":null,"id":"1352300428"},{"name":"ポジリブ　ミニ","nameKana":"ぽじりぶみに","corp":"株式会社フェリビータ","serviceTypes":["児童発達支援"],"ward":"中央区","address":"東京都中央区東日本橋２−２４−１２東日本橋槇町ビル１階","tel":"03-5829-5915","url":"https://pojilive.com/","lat":35.69440596,"lng":139.78647951,"weekday":"10:00-17:10","saturday":"10:00-17:10","sunday":"","holiday":"","closed":"日曜日・祝日","capacity":10,"id":"1350200232"},{"name":"てらぴぁぽけっと　住吉駅前教室","nameKana":"てらぴぁぽけっとすみよしえきまえきょうしつ","corp":"パイオニア企画株式会社","serviceTypes":["児童発達支援"],"ward":"江東区","address":"東京都江東区住吉2-16-7住吉コートクハイム２階","tel":"0366669436","url":"https://terapia-sumiyoshi.com/","lat":35.69007887,"lng":139.81539087,"weekday":"10:00-17:00","saturday":"10:00-17:00","sunday":"","holiday":"10:00-17:00","closed":"日曜日、12/30〜1/3","capacity":10,"id":"1350800718"},{"name":"てらぴぁぽけっと　北千住教室","nameKana":"てらぴぁぽけっときたせんじゅきょうしつ","corp":"パイオニア企画株式会社","serviceTypes":["児童発達支援"],"ward":"足立区","address":"東京都足立区千住曙町４１−２シテヌーブ北千住３０　Ｂ棟１１１号","tel":"03-5284-9727","url":"https://terapiapocket.com/","lat":35.74289085,"lng":139.81234421,"weekday":"10:00-17:00","saturday":"10:00-17:00","sunday":"","holiday":"10:00-17:00","closed":"日曜日、月曜日、12/30〜1/3","capacity":10,"id":"1352101107"},{"name":"コアヴィレッジ","nameKana":"こあう゛ぃれっじ","corp":"コアファイズ株式会社","serviceTypes":["児童発達支援","放課後等デイサービス"],"ward":"中央区","address":"東京都中央区日本橋小網町９−５　２階","tel":"03-6264-8474","url":"https://corevillage.jp/","lat":35.68309866,"lng":139.78022941,"weekday":"13:00-16:00","saturday":"10:00-12:00","sunday":"","holiday":"","closed":"祝日、12月30日〜1月3日","capacity":10,"id":"1350200240"},{"name":"アストハピコ　人形町教室","nameKana":"あすとはぴこにんぎょうちょうきょうしつ","corp":"トップブロッサン株式会社","serviceTypes":["児童発達支援","放課後等デイサービス"],"ward":"中央区","address":"東京都中央区日本橋人形町２−１７−１０人形町小池ビル２階","tel":"03-6661-7347","url":"https://www.astohapico.co.jp/dayservice#a01","lat":35.68036537,"lng":139.77167985,"weekday":"15:30-18:00","saturday":"09:30-15:30","sunday":"09:30-15:30","holiday":"09:30-15:30","closed":"第1日曜日・第3日曜日","capacity":10,"id":"1350200257"},{"name":"アストハピコ","nameKana":"あすとはぴこ","corp":"トップブロッサン株式会社","serviceTypes":["児童発達支援","放課後等デイサービス"],"ward":"中央区","address":"東京都中央区日本橋浜町２−４２−９浜町中央ビル２階","tel":"03-6661-9047","url":"https://www.astohapico.co.jp/dayservice#a01","lat":35.6880123,"lng":139.78770768,"weekday":"10:30-17:30","saturday":"09:30-15:30","sunday":"09:30-15:30","holiday":"09:30-15:30","closed":"","capacity":10,"id":"1350200166"},{"name":"みらいキッズ東陽公園","nameKana":"みらいきっずとうようこうえん","corp":"みらいキッズ株式会社","serviceTypes":["児童発達支援","放課後等デイサービス"],"ward":"江東区","address":"東京都江東区東陽３−２３−２８ＦＭビル２階","tel":"03-6666-6160","url":"https://mirai-kids.jp","lat":35.67002867,"lng":139.81388213,"weekday":"13:00-15:00","saturday":"10:00-16:00","sunday":"","holiday":"13:00-15:00","closed":"土曜日、日曜日、5/3〜5/6、8/13〜8/16、12/29〜1/3　","capacity":10,"id":"1350800973"},{"name":"ぽかぽかステップ　豊田教室","nameKana":"ぽかぽかすてっぷとよだきょうしつ","corp":"株式会社会議室コンシェルジュ","serviceTypes":["児童発達支援","放課後等デイサービス"],"ward":"日野市","address":"東京都日野市豊田３−１９−５Abundantia　UkiUki Toyoda １F","tel":"050-3821-8122","url":"https://poka-step.jp/","lat":35.65422233,"lng":139.37968065,"weekday":"09:30-18:00","saturday":"09:30-18:00","sunday":"09:30-18:00","holiday":"09:30-18:00","closed":"","capacity":null,"id":"1353500364"},{"name":"ぽかぽかステップ　ミュージック","nameKana":"ぽかぽかすてっぷみゅーじっく","corp":"株式会社会議室コンシェルジュ","serviceTypes":["児童発達支援","放課後等デイサービス"],"ward":"日野市","address":"東京都日野市多摩平１−６−３TKビル１F","tel":"050-38208807","url":"https://music.poka-step.jp/","lat":35.66258244,"lng":139.3780361,"weekday":"","saturday":"","sunday":"","holiday":"","closed":"","capacity":null,"id":"1353500398"},{"name":"トリプル・ワーク","nameKana":"とりぷるわーく","corp":"株式会社トリプル・ワーク","serviceTypes":["児童発達支援","放課後等デイサービス"],"ward":"中央区","address":"東京都中央区湊１−９−８　２階","tel":"0362603960","url":"https://www.triple-work.jp/","lat":35.67291364,"lng":139.78032931,"weekday":"11:30-17:30","saturday":"","sunday":"","holiday":"11:30-17:30","closed":"","capacity":10,"id":"1350200265"},{"name":"とも育","nameKana":"ともいく","corp":"株式会社シックスエル","serviceTypes":["児童発達支援","放課後等デイサービス"],"ward":"中央区","address":"東京都中央区日本橋富沢町４−１ミズホビル３階","tel":"03-6826-2670","url":"https://six-l.net/tomoiku/","lat":35.68782881,"lng":139.78281292,"weekday":"10:00-17:00","saturday":"10:00-17:00","sunday":"","holiday":"","closed":"日曜日、祝日、12月30日〜1月3日","capacity":10,"id":"1350200307"},{"name":"ワールドキッズ大森教室","nameKana":"わーるどきっずおおもりきょうしつ","corp":"合同会社ｓｗｉｍｍｙ","serviceTypes":["児童発達支援","放課後等デイサービス"],"ward":"大田区","address":"東京都大田区大森北１−２７−３　大森北一ビル２階大森北一ビル２階","tel":"03-6459-6124","url":"https://worldkids.jp/userguide-omori","lat":35.58528082,"lng":139.72859802,"weekday":"10:00-19:00","saturday":"10:00-19:00","sunday":"10:00-19:00","holiday":"10:00-19:00","closed":"なし","capacity":10,"id":"1351101157"},{"name":"スターゴールドキッズ","nameKana":"すたーごーるどきっず","corp":"株式会社トパーズ","serviceTypes":["児童発達支援","放課後等デイサービス"],"ward":"中央区","address":"東京都中央区八丁堀４−９−４ＶＯＲＴ八丁堀２ビル　２階","tel":"03-6555-2331","url":"","lat":35.67443006,"lng":139.77759337,"weekday":"10:00-19:00","saturday":"09:00-18:00","sunday":"09:00-18:00","holiday":"09:00-18:00","closed":"元旦のみ","capacity":10,"id":"1350200323"},{"name":"コペルプラス　下井草教室","nameKana":"こぺるぷらすしもいぐさきょうしつ","corp":"株式会社ディスカバリープラス","serviceTypes":["児童発達支援"],"ward":"杉並区","address":"東京都杉並区下井草４−３３−５レスト佐武１階","tel":"03-6454-7264","url":"https://copelplus.copel.co.jp/school/shimoigusa/","lat":35.72418982,"lng":139.62067147,"weekday":"10:00-18:00","saturday":"10:00-18:00","sunday":"00:00-00:00","holiday":"00:00-00:00","closed":"日曜・月曜・祝日","capacity":10,"id":"1351500838"},{"name":"コペルプラススカイツリー駅前教室","nameKana":"こぺるぷらすすかいつりーえきまえきょうしつ","corp":"株式会社ディスカバリープラス","serviceTypes":["児童発達支援"],"ward":"墨田区","address":"東京都墨田区東駒形４−２３−２ウエストレジデンス１０１","tel":"03-6658-5350","url":"https://copelplus.copel.co.jp/school/skytree/","lat":35.70787409,"lng":139.80703729,"weekday":"10:00-18:00","saturday":"10:00-18:00","sunday":"00:00-00:00","holiday":"00:00-00:00","closed":"日曜日・祝日","capacity":10,"id":"1350700660"},{"name":"ひかりの森","nameKana":"ひかりのもり","corp":"株式会社おん","serviceTypes":["児童発達支援","放課後等デイサービス"],"ward":"中央区","address":"東京都中央区築地６−２２−３ウィンド築地Ⅱビル　２階","tel":"03-6278-8848","url":"https://www.corp-on.com/","lat":35.66428102,"lng":139.77196649,"weekday":"10:00-17:30","saturday":"10:00-16:00","sunday":"","holiday":"10:00-16:00","closed":"日曜日・GW・夏季・年末年始","capacity":5,"id":"1350200380"},{"name":"トリプル・ハート","nameKana":"とりぷるはーと","corp":"株式会社トリプル・ハート","serviceTypes":["児童発達支援","放課後等デイサービス"],"ward":"中央区","address":"東京都中央区日本橋茅場町2-5-6 2階","tel":"03-6222-9822","url":"https://www.triple-heart.jp","lat":35.67893793,"lng":139.77845151,"weekday":"10:30-17:15","saturday":"09:30-16:15","sunday":"09:30-16:15","holiday":"10:30-17:15","closed":"","capacity":10,"id":"1350200141"},{"name":"ハビー立川教室","nameKana":"はびーたちかわきょうしつ","corp":"ウェルビー株式会社","serviceTypes":["児童発達支援"],"ward":"立川市","address":"東京都立川市錦町１−１０−２５Ｙ・Ｓ錦町ビル２階","tel":"042-519-3217","url":"https://www.habii.jp/classroom/tachikawa/","lat":35.69567962,"lng":139.41947596,"weekday":"09:45-17:00","saturday":"09:45-17:00","sunday":"09:45-17:00","holiday":"09:45-17:00","closed":"当社で定めた年末年始休暇","capacity":10,"id":"1353000209"},{"name":"ハッピーテラス拝島駅前","nameKana":"はっぴーてらすはいじまえきまえ","corp":"株式会社クエスト","serviceTypes":["児童発達支援","放課後等デイサービス"],"ward":"昭島市","address":"東京都昭島市松原町４−１２−２０フィル・パーク拝島駅前２階","tel":"042-519-6140","url":"https://happy-terrace.com/school/haijima-ekimae/","lat":35.71972783,"lng":139.34307063,"weekday":"11:00-18:30","saturday":"11:00-18:30","sunday":"","holiday":"","closed":"","capacity":10,"id":"1354000232"},{"name":"ハッピーテラスキッズ国立ルーム","nameKana":"はっぴーてらすきっずくにたちるーむ","corp":"株式会社クエスト","serviceTypes":["児童発達支援"],"ward":"国立市","address":"東京都国立市東１−１５−３４　北島第一ビル２０３号室","tel":"042-505-4306","url":"http://ht-kids.com/","lat":35.69693313,"lng":139.44855956,"weekday":"10:00-17:00","saturday":"09:30-17:00","sunday":"","holiday":"","closed":"日曜日、国民の祝日、12月29日から1月3日まで","capacity":10,"id":"1353400250"},{"name":"中央区立子ども発達支援センター","nameKana":"ちゅうおうくりつこどもはったつしえんせんたー","corp":"中央区","serviceTypes":["児童発達支援"],"ward":"中央区","address":"東京都中央区明石町１２−１","tel":"03-3545-9844","url":"http://www.city.chuo.lg.jp/","lat":35.66650591,"lng":139.7770354,"weekday":"09:00-17:00","saturday":"","sunday":"","holiday":"","closed":"土・日曜日、祝日、12月29日から翌年1月3日","capacity":26,"id":"1350200018"},{"name":"みらいキッズ月島","nameKana":"みらいきっずつきしま","corp":"ケア・プランニング株式会社","serviceTypes":["児童発達支援","放課後等デイサービス"],"ward":"中央区","address":"東京都中央区月島３−１７−２岡崎ビル２階","tel":"03-6228-2420","url":"https://mirai-kids.jp","lat":35.66260922,"lng":139.78056303,"weekday":"10:00-16:30","saturday":"10:00-16:30","sunday":"","holiday":"10:00-16:30","closed":"日曜日　","capacity":10,"id":"1350200208"},{"name":"みらいキッズ東陽町","nameKana":"みらいきっずとうようちょう","corp":"ケア・プランニング株式会社","serviceTypes":["児童発達支援","放課後等デイサービス"],"ward":"江東区","address":"東京都江東区石島９−１４　シャンテ石島１階","tel":"03-6660-2155","url":"https://www.mirai-kids.jp","lat":35.68001355,"lng":139.81372993,"weekday":"10:00-16:30","saturday":"10:00-16:00","sunday":"","holiday":"10:00-16:00","closed":"日曜日","capacity":10,"id":"1350800544"},{"name":"こぱんはうすさくら　本木教室","nameKana":"こぱんはうすさくらもとぎきょうしつ","corp":"株式会社デイサービス","serviceTypes":["児童発達支援","放課後等デイサービス"],"ward":"足立区","address":"東京都足立区本木西町１−２０宮内サンハイツ１階","tel":"03-5809-5383","url":"","lat":35.7600707,"lng":139.78067853,"weekday":"10:00-13:00","saturday":"10:00-16:00","sunday":"10:00-16:00","holiday":"10:00-16:00","closed":"","capacity":10,"id":"1352100729"},{"name":"すてっぷわん","nameKana":"すてっぷわん","corp":"アイピートーク株式会社","serviceTypes":["児童発達支援"],"ward":"港区","address":"東京都港区高輪１−１７−１５　オーク高輪ビル２階","tel":"03-5860-2378","url":"","lat":35.64038823,"lng":139.73320674,"weekday":"","saturday":"","sunday":"","holiday":"","closed":"","capacity":null,"id":"1350300347"},{"name":"こぱんはうすさくら　品川中延教室","nameKana":"こぱんはうすさくらしながわなかのぶきょうしつ","corp":"株式会社こぱんはうすさくら","serviceTypes":["児童発達支援","放課後等デイサービス"],"ward":"品川区","address":"東京都品川区二葉４−１−２０ＭＣ中延ビル１階","tel":"03-6426-2970","url":"https://copain-sakura.com/school/4645/","lat":35.60353365,"lng":139.7135735,"weekday":"10:00-13:00","saturday":"10:00-16:00","sunday":"10:00-16:00","holiday":"10:00-16:00","closed":"無し（12月30日〜1月3日除く）","capacity":10,"id":"1350900559"},{"name":"ハビー上板橋教室","nameKana":"はびーかみいたばしきょうしつ","corp":"ウェルビー株式会社","serviceTypes":["児童発達支援"],"ward":"板橋区","address":"東京都板橋区上板橋２−３１−２メゾン・ド・ルミエール１階","tel":"03-6906-7540","url":"https://www.habii.jp/classroom/kamiitabashi/","lat":35.76201465,"lng":139.67496801,"weekday":"09:45-17:00","saturday":"09:45-17:00","sunday":"09:45-17:00","holiday":"09:45-17:00","closed":"当社で定めた年末年始休暇","capacity":10,"id":"1351900673"},{"name":"たいよう篠崎","nameKana":"たいようしのざき","corp":"株式会社ライトサンズグループ","serviceTypes":["児童発達支援","放課後等デイサービス"],"ward":"江戸川区","address":"東京都江戸川区篠崎町7丁目30番5号Plaisir Ohnuki　1階","tel":"0358798505","url":"","lat":35.70740639,"lng":139.90250627,"weekday":"09:30-12:30","saturday":"10:00-16:00","sunday":"","holiday":"10:00-16:00","closed":"土曜日、日曜日、祝日","capacity":5,"id":"1352301483"},{"name":"メルケア　プリスクーリング","nameKana":"めるけあぷりすくーりんぐ","corp":"特定非営利活動法人メルケアみなとセンター","serviceTypes":["児童発達支援"],"ward":"千代田区","address":"東京都千代田区霞が関3-5-1近鉄霞ヶ関ビル１階","tel":"03-6550-8585","url":"https://www.melcare.org","lat":35.67143509,"lng":139.74525177,"weekday":"08:30-15:30","saturday":"08:30-15:30","sunday":"","holiday":"08:30-15:30","closed":"日曜日、年末年始","capacity":10,"id":"1350300354"},{"name":"あいの風キッズステーション","nameKana":"あいのかぜきっずすてーしょん","corp":"株式会社日本在宅ケア教育研究所","serviceTypes":["児童発達支援","放課後等デイサービス"],"ward":"練馬区","address":"東京都練馬区関町東２−１５−８　マンション柚子１０１号","tel":"03-5903-8493","url":"","lat":35.72845212,"lng":139.57900814,"weekday":"10:00-15:00","saturday":"","sunday":"","holiday":"","closed":"祝日　土曜日　日曜日　12月３0日から1月3日","capacity":5,"id":"1352000630"},{"name":"コペルプラス　大鳥居教室","nameKana":"こぺるぷらすおおとりいきょうしつ","corp":"東食品株式会社","serviceTypes":["児童発達支援"],"ward":"大田区","address":"東京都大田区西糀谷３−３７−１８","tel":"03-6423-7510","url":"","lat":35.55260804,"lng":139.73921879,"weekday":"10:00-18:00","saturday":"10:00-18:00","sunday":"","holiday":"","closed":"水・日・祝日","capacity":null,"id":"1351100969"},{"name":"アイビーキッズ布田","nameKana":"あいびーきっずふだ","corp":"ＨＩＴＯＷＡキッズライフ株式会社","serviceTypes":["児童発達支援"],"ward":"調布市","address":"東京都調布市国領町１−９−３小谷田ビル","tel":"042-444-7182","url":"https://www.kidslife-nursery.com/aibe-ing-kids/supportfacility/fuda/","lat":35.65115775,"lng":139.55196912,"weekday":"09:30-17:30","saturday":"09:30-17:30","sunday":"","holiday":"","closed":"月曜日、日曜日、祝日","capacity":10,"id":"1354200469"},{"name":"アイビーキッズ越中島","nameKana":"あいびーきっずえっちゅうじま","corp":"ＨＩＴＯＷＡキッズライフ株式会社","serviceTypes":["児童発達支援"],"ward":"江東区","address":"東京都江東区越中島２−１−３０越中島ＳＴビル２階","tel":"03-6240-3345","url":"https://www.kidslife-nursery.com/aibe-ing-kids/supportfacility/etchujima/","lat":35.66538711,"lng":139.79503139,"weekday":"09:30-17:00","saturday":"09:30-17:00","sunday":"","holiday":"","closed":"","capacity":10,"id":"1350800882"},{"name":"エデュリー発達支援本郷三丁目教室","nameKana":"えでゅりーはったつしえんほんごうさんちょうめきょうしつ","corp":"株式会社エデュリー","serviceTypes":["児童発達支援"],"ward":"文京区","address":"東京都文京区本郷３−１９−７本郷三宝ビル２階","tel":"03-5990-9861","url":"https://edulead.jp/school/hongo","lat":35.70565961,"lng":139.76282131,"weekday":"","saturday":"","sunday":"","holiday":"","closed":"","capacity":null,"id":"1350500334"},{"name":"ブロッサムジュニア　東中野教室","nameKana":"ぶろっさむじゅにあひがしなかのきょうしつ","corp":"メルー株式会社","serviceTypes":["児童発達支援","放課後等デイサービス"],"ward":"中野区","address":"東京都中野区東中野2ｰ3ｰ8T.Park’sHIGASHINAKANO101号室","tel":"0353589600","url":"","lat":35.70106074,"lng":139.68112014,"weekday":"09:00-12:00","saturday":"","sunday":"","holiday":"","closed":"土日祝日","capacity":10,"id":"1351400542"},{"name":"ｕｎｉｃｏ世田谷上北沢","nameKana":"ゆにこせたがやかみきたざわ","corp":"Ｃ−ｓｕｉｔｅ合同会社","serviceTypes":["児童発達支援"],"ward":"世田谷区","address":"東京都世田谷区上北沢３−１８−７幸作ビル１Ｆ","tel":"03-6750-8768","url":"https://unico-jp.net/","lat":35.66785475,"lng":139.62454011,"weekday":"09:00-15:00","saturday":"09:00-15:00","sunday":"","holiday":"09:00-15:00","closed":"日曜日","capacity":10,"id":"1351201197"},{"name":"ブロッサムジュニア　大塚・帝京大学駅前教室","nameKana":"ぶろっさむじゅにあおおつかていきょうだいがくえきまえきょうしつ","corp":"トゥモローテーブルカンパニー株式会社","serviceTypes":["児童発達支援","放課後等デイサービス"],"ward":"八王子市","address":"東京都八王子市大塚１４７２−１０エルレアン１階店舗","tel":"042-689-4930","url":"","lat":35.63655029,"lng":139.4165561,"weekday":"09:30-17:00","saturday":"","sunday":"","holiday":"09:30-16:00","closed":"土曜日・日曜日","capacity":10,"id":"1352901480"},{"name":"言語聴覚支援センター","nameKana":"げんごちょうかくしえんせんたー","corp":"一般社団法人言語聴覚支援協会","serviceTypes":["児童発達支援"],"ward":"千代田区","address":"東京都千代田区霞が関３−５−１近鉄霞が関ビル１階","tel":"03-6811-3261","url":"https://www.slht.jp","lat":35.67143509,"lng":139.74525177,"weekday":"08:30-16:30","saturday":"08:30-16:30","sunday":"","holiday":"08:30-16:30","closed":"日曜日、年末年始","capacity":10,"id":"1350100085"},{"name":"放課後等デイサービス　ウィズ・ユー世田谷駒沢","nameKana":"ほうかごとうでいさーびすうぃずゆーせたがやこまざわ","corp":"ゴーストノートスティングレイ合同会社","serviceTypes":["児童発達支援","放課後等デイサービス"],"ward":"世田谷区","address":"東京都世田谷区野沢2-14-4MUプレイス1階","tel":"03-4332-9708","url":"","lat":35.63292104,"lng":139.66875976,"weekday":"","saturday":"","sunday":"","holiday":"","closed":"","capacity":null,"id":"1351201213"},{"name":"マイシェルパジュニア　馬込−上池台","nameKana":"まいしぇるぱじゅにあまごめかみいけだい","corp":"株式会社マイシェルパ","serviceTypes":["児童発達支援","放課後等デイサービス"],"ward":"大田区","address":"東京都大田区中馬込１−９−２２グローリオ長原夫婦坂２０６","tel":"050-5830-9458","url":"","lat":35.59650373,"lng":139.70354128,"weekday":"","saturday":"","sunday":"","holiday":"","closed":"","capacity":null,"id":"1351101264"},{"name":"En.療育ラボ新宿スタジオ","nameKana":"えんりょういくらぼ","corp":"株式会社サムシンググッド","serviceTypes":["児童発達支援","放課後等デイサービス"],"ward":"新宿区","address":"東京都新宿区中落合２−８−９モナーク新宿下落合１階","tel":"03-6908-1281","url":"https://www.en-ryouiku.jp/","lat":35.71709815,"lng":139.69390449,"weekday":"","saturday":"","sunday":"","holiday":"","closed":"","capacity":null,"id":"1350400329"},{"name":"ＤＲＫ青山スタジオ","nameKana":"でぃーあーるけいあおやますたじお","corp":"株式会社デジタル療育研究所","serviceTypes":["児童発達支援","放課後等デイサービス"],"ward":"港区","address":"東京都港区南青山２−２４−１０ヒロビル２階","tel":"03-5843-0982","url":"https://www.digital-ryouiku.jp/","lat":35.67004852,"lng":139.71798201,"weekday":"09:40-18:00","saturday":"09:40-18:00","sunday":"09:40-15:20","holiday":"09:40-18:00","closed":"12月31日〜１月３日","capacity":10,"id":"1350300453"},{"name":"UPDATE新江古田スタジオ","nameKana":"あっぷでーとしんえごたすたじお","corp":"株式会社デジタル療育研究所","serviceTypes":["児童発達支援","放課後等デイサービス"],"ward":"中野区","address":"東京都中野区江原町３−３５−８　グローリオ中野新江古田105号","tel":"0359065563","url":"https://www.update-shinegota.jp/","lat":35.73281795,"lng":139.67101413,"weekday":"","saturday":"","sunday":"","holiday":"","closed":"","capacity":null,"id":"1351400518"},{"name":"マイシェルパジュニア　常盤台","nameKana":"まいしぇるぱじゅにあときわだい","corp":"株式会社マイシェルパ","serviceTypes":["児童発達支援","放課後等デイサービス"],"ward":"板橋区","address":"東京都板橋区常盤台二丁目27番11号Considerate常盤台１F","tel":"050-5810-2967","url":"https://junior.my-sherpa.co.jp/","lat":35.76303997,"lng":139.69016943,"weekday":"13:00-15:00","saturday":"10:00-16:00","sunday":"","holiday":"","closed":"日祝日","capacity":10,"id":"1351900996"},{"name":"TAKUMI練馬武蔵関","nameKana":"たくみねりまむさしせき","corp":"イニシアス株式会社","serviceTypes":["児童発達支援","放課後等デイサービス"],"ward":"練馬区","address":"東京都練馬区関町北１−１５−１５","tel":"03-5903-8880","url":"","lat":35.72534134,"lng":139.57821388,"weekday":"13:00-17:45","saturday":"10:00-15:40","sunday":"10:00-15:40","holiday":"13:00-17:45","closed":"法人が定める休業日、年末年始","capacity":10,"id":"1352000655"},{"name":"TAKUMI","nameKana":"たくみ","corp":"イニシアス株式会社","serviceTypes":["児童発達支援","放課後等デイサービス"],"ward":"三鷹市","address":"東京都三鷹市下連雀３−１７−２０　１０１号室","tel":"0422-24-8733","url":"","lat":35.6990523,"lng":139.56246079,"weekday":"13:00-17:45","saturday":"10:00-15:40","sunday":"10:00-15:40","holiday":"13:00-17:45","closed":"法人が定める休業日、年末年始","capacity":10,"id":"1353600164"},{"name":"メルケアみなとセンター","nameKana":"めるけあみなとせんたー","corp":"特定非営利活動法人メルケアみなとセンター","serviceTypes":["児童発達支援"],"ward":"港区","address":"東京都港区港区新橋4-27-4新橋吉樹ビル","tel":"03-6205-4077","url":"http://www.melcare.jp","lat":35.6642278,"lng":139.75502066,"weekday":"08:30-15:30","saturday":"08:30-15:30","sunday":"","holiday":"08:30-15:30","closed":"日曜日","capacity":10,"id":"1350300370"},{"name":"児童発達支援・放課後等デイサービス　キッズプレイスたかなわだい","nameKana":"じどうはったつしえんほうかごとうでいさーびすきっずぷれいすたかなわだい","corp":"一般社団法人日本発達障害支援協会Humane　Place","serviceTypes":["児童発達支援","放課後等デイサービス"],"ward":"港区","address":"東京都港区高輪３−６−２３　エステート高輪１０２Ａエステート高輪１０２Ａ","tel":"03-5422-7049","url":"https://www.kp-t.org/","lat":35.63397782,"lng":139.73216817,"weekday":"","saturday":"","sunday":"","holiday":"","closed":"","capacity":10,"id":"1350300362"},{"name":"ハッピーテラス芝浦教室","nameKana":"はっぴーてらすしばうらきょうしつ","corp":"デコボコベース株式会社","serviceTypes":["児童発達支援","放課後等デイサービス"],"ward":"港区","address":"東京都港区芝浦４−１２−３１　ＶＯＲＴ芝浦　Ｗａｔｅｒ　Ｆｒｏｎｔ　１階","tel":"03-6435-3386","url":"http://www.happy-terrace.com/","lat":35.64002206,"lng":139.74908872,"weekday":"13:00-19:00","saturday":"10:00-17:00","sunday":"","holiday":"","closed":"","capacity":10,"id":"1350300222"},{"name":"港区立児童発達支援センター","nameKana":"みなとくりつじどうはったつしえんせんたー","corp":"港区","serviceTypes":["児童発達支援","放課後等デイサービス","居宅訪問型児童発達支援"],"ward":"港区","address":"東京都港区南麻布４−６−１３","tel":"03-6277-3106","url":"","lat":35.65043419,"lng":139.72749858,"weekday":"09:30-17:30","saturday":"09:00-16:00","sunday":"","holiday":"","closed":"土日祝","capacity":82,"id":"1350300388"},{"name":"むすびヶ丘　旗の台","nameKana":"むすびがおかはたのだい","corp":"株式会社チャイルドビジョン","serviceTypes":["児童発達支援"],"ward":"品川区","address":"東京都品川区旗の台２−１０−１９","tel":"03-6421-6671","url":"https://musubigaoka.jp/top/","lat":35.6058749,"lng":139.70093289,"weekday":"09:30-16:30","saturday":"09:30-16:30","sunday":"","holiday":"","closed":"日曜日、祝日、12月29日〜1月3日","capacity":10,"id":"1350900377"},{"name":"むすびヶ丘大崎","nameKana":"むすびがおかおおさき","corp":"株式会社チャイルドビジョン","serviceTypes":["児童発達支援"],"ward":"品川区","address":"東京都品川区西品川２−７−１０","tel":"03-6417-9345","url":"https://musubigaoka.jp/","lat":35.61396888,"lng":139.7259555,"weekday":"09:30-17:00","saturday":"09:30-17:00","sunday":"","holiday":"","closed":"日曜日、祝日、12月29日〜1月3日","capacity":10,"id":"1350900484"},{"name":"TAKUMI祖師ヶ谷大蔵","nameKana":"たくみそしがやおおくら","corp":"イニシアス株式会社","serviceTypes":["児童発達支援","放課後等デイサービス"],"ward":"世田谷区","address":"東京都世田谷区砧２−１７−７Ｅ・スペース２階","tel":"03-5429-6500","url":"http://initias.co.jp/","lat":35.64456551,"lng":139.61558053,"weekday":"13:00-17:45","saturday":"10:00-15:40","sunday":"10:00-15:40","holiday":"13:00-17:45","closed":"法人が定める休業日、年末年始","capacity":10,"id":"1351200801"},{"name":"En.療育ラボ新井薬師スタジオ","nameKana":"えんりょういくらぼあらいやくしすたじお","corp":"株式会社サムシンググッド","serviceTypes":["児童発達支援","放課後等デイサービス"],"ward":"中野区","address":"東京都中野区新井１−２３−２２　プルメリア２０２号","tel":"03-5318-9817","url":"https://www.en-ryouiku.jp/","lat":35.71160911,"lng":139.6672848,"weekday":"","saturday":"","sunday":"","holiday":"","closed":"","capacity":null,"id":"1351400377"},{"name":"ハッピーテラスキッズ　中野ルーム","nameKana":"はっぴーてらすきっずなかのるーむ","corp":"デコボコベース株式会社","serviceTypes":["児童発達支援"],"ward":"中野区","address":"東京都中野区本町６−１４−２　和田ビル１階","tel":"03-5328-1810","url":"http://www.happy-terrace.com/school/kids_nakano/","lat":35.69589704,"lng":139.66681884,"weekday":"10:00-17:00","saturday":"10:00-17:00","sunday":"","holiday":"","closed":"日曜・祝日","capacity":10,"id":"1351400344"},{"name":"TAKUMI南千住","nameKana":"たくみみなみせんじゅ","corp":"イニシアス株式会社","serviceTypes":["児童発達支援","放課後等デイサービス"],"ward":"荒川区","address":"東京都荒川区南千住６−５７−１１","tel":"03-5604-9330","url":"","lat":35.73630772,"lng":139.79511529,"weekday":"13:00-17:45","saturday":"10:00-15:40","sunday":"10:00-15:40","holiday":"13:00-17:45","closed":"法人が定める休業日、年末年始","capacity":10,"id":"1351800295"},{"name":"いっといっぽ下落合教室","nameKana":"いっといっぽしもおちあいきょうしつ","corp":"特定非営利活動法人いっと","serviceTypes":["児童発達支援","放課後等デイサービス"],"ward":"新宿区","address":"東京都新宿区上落合１−１８−２柚原ビル１階","tel":"03-6821-1007","url":"https://www.npo-itto.net/","lat":35.71602881,"lng":139.69332403,"weekday":"10:00-16:00","saturday":"10:00-16:00","sunday":"","holiday":"","closed":"日・祝日　　年末年始　お盆","capacity":10,"id":"1350400352"},{"name":"エイビイシイひまわり教室","nameKana":"えいびいしいひまわりきょうしつ","corp":"社会福祉法人杉の子会","serviceTypes":["児童発達支援","放課後等デイサービス"],"ward":"新宿区","address":"東京都新宿区大久保２−５−２０シティプラザ新宿１０２号","tel":"03-3232-2160","url":"","lat":35.70275295,"lng":139.70805383,"weekday":"09:00-16:30","saturday":"09:00-16:30","sunday":"","holiday":"","closed":"日曜・祝日・12月２９日〜１月３日","capacity":10,"id":"1350400345"},{"name":"ＩＣＯＰＡキッズ西落合","nameKana":"いこぱきっずにしおちあい","corp":"一般社団法人ICOPA","serviceTypes":["児童発達支援"],"ward":"新宿区","address":"東京都新宿区西落合３−３０−１８ＭＮビル１階","tel":"03-3565-6761","url":"https://icopa.or.jp/","lat":35.72384689,"lng":139.67624461,"weekday":"09:30-16:00","saturday":"","sunday":"","holiday":"09:30-16:00","closed":"土曜日、日曜日、12/30〜1/3","capacity":5,"id":"1350400402"},{"name":"てらぴぁぽけっと　目白教室","nameKana":"てらぴぁぽけっとめじろきょうしつ","corp":"合同会社ＹＴＫ","serviceTypes":["児童発達支援"],"ward":"新宿区","address":"東京都新宿区下落合４−２０−１５目白ロイヤルホームズ１０１","tel":"03-6915-3211","url":"https://terapiapocket.com/","lat":35.72173662,"lng":139.69752899,"weekday":"10:00-17:00","saturday":"10:00-17:00","sunday":"10:00-17:00","holiday":"10:00-17:00","closed":"なし","capacity":10,"id":"1350400428"},{"name":"てらぴぁぽけっと　清澄白河教室","nameKana":"てらぴぁぽけっときよすみしらかわきょうしつ","corp":"合同会社ＹＴＫ","serviceTypes":["児童発達支援"],"ward":"江東区","address":"東京都江東区白河２−８−５三栄ビル2階","tel":"03-5809-9744","url":"https://terapiapocket.com/","lat":35.68208825,"lng":139.80250693,"weekday":"10:00-17:00","saturday":"10:00-17:00","sunday":"10:00-17:00","holiday":"10:00-17:00","closed":"","capacity":10,"id":"1350800858"},{"name":"てらぴぁぽけっと　御茶ノ水教室","nameKana":"てらぴぁぽけっとおちゃのみずきょうしつ","corp":"合同会社ＹＴＫ","serviceTypes":["児童発達支援"],"ward":"千代田区","address":"東京都千代田区神田駿河台３−３−５小林ビル２階","tel":"03-6285-1077","url":"","lat":35.6958635,"lng":139.76416333,"weekday":"10:00-17:00","saturday":"10:00-17:00","sunday":"10:00-17:00","holiday":"10:00-17:00","closed":"","capacity":10,"id":"1350100077"},{"name":"フレンズスクエア","nameKana":"ふれんずすくえあ","corp":"特定非営利活動法人フレンズスクエア","serviceTypes":["児童発達支援"],"ward":"新宿区","address":"東京都新宿区西落合３−１０−１８","tel":"03-3952-4192","url":"https://www.fsq.jp","lat":35.72325542,"lng":139.6809609,"weekday":"","saturday":"","sunday":"","holiday":"","closed":"","capacity":null,"id":"1350400436"},{"name":"KID ACADEMY+西新宿５丁目校","nameKana":"きっどあかでみーぷらすにししんじゅくごちょうめこう","corp":"ＩＢＪファイナンシャルアドバイザリー株式会社","serviceTypes":["児童発達支援"],"ward":"渋谷区","address":"東京都渋谷区本町３−２２−３","tel":"03-6383-3023","url":"https://kid-academy.jp/school-info/kida-nishi-shinjuku/","lat":35.69140637,"lng":139.68380641,"weekday":"10:00-17:00","saturday":"10:00-17:00","sunday":"","holiday":"","closed":"日曜・祝日","capacity":10,"id":"1351300296"},{"name":"アイビージュニア　初台","nameKana":"あいびーじゅにあはつだい","corp":"ＩＢＪファイナンシャルアドバイザリー株式会社","serviceTypes":["児童発達支援","放課後等デイサービス"],"ward":"渋谷区","address":"東京都渋谷区本町２−２７−１一二三薬局ビル２階","tel":"03-5309-2150","url":"https://junior.ibjapan.jp/","lat":35.68376274,"lng":139.6808792,"weekday":"10:00-17:00","saturday":"10:00-17:00","sunday":"","holiday":"","closed":"日曜・祝日","capacity":10,"id":"1351300304"},{"name":"てらぴぁぽけっと　西新宿教室","nameKana":"てらぴぁぽけっとにししんじゅくきょうしつ","corp":"リベライフ株式会社","serviceTypes":["児童発達支援"],"ward":"新宿区","address":"東京都新宿区西新宿４−２５−９アーティスコア　２０１号室","tel":"03-6276-1242","url":"","lat":35.68651255,"lng":139.68602586,"weekday":"10:00-17:00","saturday":"10:00-17:00","sunday":"10:00-17:00","holiday":"10:00-17:00","closed":"１２月３１日〜１月３日は、お休みになります","capacity":null,"id":"1350400451"},{"name":"コペルプラス都立家政教室","nameKana":"こぺるぷらすとりつかせいきょうしつ","corp":"株式会社実務教育出版","serviceTypes":["児童発達支援"],"ward":"中野区","address":"東京都中野区若宮３ー１７ー５都立家政ビル２階","tel":"0353568026","url":"https://copelplus.copel.co.jp/school/toritsu-kasei/","lat":35.72190179,"lng":139.64454463,"weekday":"10:00-18:00","saturday":"10:00-18:00","sunday":"","holiday":"","closed":"日曜日・月曜日・祝日","capacity":10,"id":"1351400476"},{"name":"感覚統合スタジオ　ワールドキッズ新宿","nameKana":"かんかくとうごうすたじおわーるどきっずしんじゅく","corp":"ワールドキッズ株式会社","serviceTypes":["児童発達支援"],"ward":"新宿区","address":"東京都新宿区荒木町１３−３８　ＨＡＮＴ四谷２階HANT四谷２F","tel":"03-5315-4506","url":"https://worldkids.jp","lat":35.69047694,"lng":139.72389735,"weekday":"","saturday":"","sunday":"","holiday":"","closed":"","capacity":null,"id":"1350400485"},{"name":"Ｆｒｏｎｔｉｅｒｋｉｄｓ　Ｍｉｏ　Ｔｅｓｏｒｏ","nameKana":"ふろんてぃあきっずみおてぞーろ","corp":"株式会社フューチャーフロンティアーズ","serviceTypes":["児童発達支援"],"ward":"新宿区","address":"東京都新宿区市谷仲之町３−３４遠藤ビル１階","tel":"03-5357-7124","url":"https://www.futurefrontiers.co.jp/facility/cds/fmt/","lat":35.69497364,"lng":139.72295837,"weekday":"09:00-16:00","saturday":"09:00-16:00","sunday":"","holiday":"","closed":"日・月・祝祭日・年末年始","capacity":10,"id":"1350400519"},{"name":"リンク　秋川教室","nameKana":"りんくあきがわきょうしつ","corp":"株式会社ｃｏｎｎｅｃｔ","serviceTypes":["児童発達支援"],"ward":"あきる野市","address":"東京都あきる野市雨間２３０−３一恵ビル２階","tel":"042-508-3363","url":"https://www.connect-cds.com/","lat":35.72828646,"lng":139.29277155,"weekday":"09:30-17:00","saturday":"","sunday":"","holiday":"","closed":"土日祝日及び事業所が定めた日","capacity":10,"id":"1355200237"},{"name":"リンク　福生教室","nameKana":"りんくふっさきょうしつ","corp":"株式会社ｃｏｎｎｅｃｔ","serviceTypes":["児童発達支援"],"ward":"福生市","address":"東京都福生市牛浜１２８コートエレガンスＬ　１０３号","tel":"070-9221-5972","url":"https://www.connect-cds.com/","lat":35.73427308,"lng":139.33414033,"weekday":"10:30-17:00","saturday":"09:30-16:00","sunday":"","holiday":"","closed":"日曜日、祝日、事業所が定めた日","capacity":10,"id":"1354400150"},{"name":"てらぴぁぽけっと　日本橋浜町教室","nameKana":"てらぴぁぽけっとにほんばしはまちょうきょうしつ","corp":"合同会社みんなで育児","serviceTypes":["児童発達支援"],"ward":"中央区","address":"東京都中央区日本橋浜町２−１０−９日本橋浜町二丁目ビル２階","tel":"03-5801-9872","url":"","lat":35.68767892,"lng":139.78535746,"weekday":"","saturday":"","sunday":"","holiday":"","closed":"","capacity":null,"id":"1350200315"},{"name":"てらぴぁぽけっと池袋教室","nameKana":"てらぴぁぽけっといけぶくろきょうしつ","corp":"リベライフ株式会社","serviceTypes":["児童発達支援"],"ward":"豊島区","address":"東京都豊島区池袋3-34-13伊勢宗ビル1階","tel":"03-5810-3211","url":"","lat":35.73701567,"lng":139.70428888,"weekday":"10:00-17:00","saturday":"10:00-17:00","sunday":"10:00-17:00","holiday":"10:00-17:00","closed":"","capacity":null,"id":"1351600455"},{"name":"放課後等デイサービス　ウィズ・ユー中板橋","nameKana":"ほうかごとうでいさーびすうぃずゆーなかいたばし","corp":"株式会社ロウキル","serviceTypes":["児童発達支援","放課後等デイサービス"],"ward":"板橋区","address":"東京都板橋区中板橋4-12ボヌール101","tel":"03-6318-3141","url":"https://www.with-ac.com/shisetu/nakaitabashi/","lat":35.75621338,"lng":139.70014397,"weekday":"10:00-17:00","saturday":"10:00-16:00","sunday":"","holiday":"10:00-16:00","closed":"日曜日","capacity":10,"id":"1351901010"},{"name":"ワールドキッズ御苑前教室","nameKana":"わーるどきっずぎょえんまえきょうしつ","corp":"合同会社ＢＲＩＯ","serviceTypes":["児童発達支援","放課後等デイサービス"],"ward":"新宿区","address":"東京都新宿区新宿１−１９−１０サンモール第３マンション２０２号","tel":"03-5944-0485","url":"","lat":35.689574,"lng":139.71295391,"weekday":"","saturday":"","sunday":"","holiday":"","closed":"","capacity":null,"id":"1350400550"},{"name":"てらぴぁぽけっと中野教室","nameKana":"てらぴぁぽけっとなかのきょうしつ","corp":"リベライフ株式会社","serviceTypes":["児童発達支援"],"ward":"中野区","address":"東京都中野区中央4丁目21番18号コリンズビル14","tel":"0363828470","url":"","lat":35.69997722,"lng":139.67050446,"weekday":"10:00-17:00","saturday":"10:00-17:00","sunday":"10:00-17:00","holiday":"10:00-17:00","closed":"火曜日　水曜日","capacity":null,"id":"1351400617"},{"name":"Ｈｉｇｈ　Ａｒｔ　ジュニア","nameKana":"はいあーとじゅにあ","corp":"株式会社ハイアート","serviceTypes":["児童発達支援","放課後等デイサービス"],"ward":"新宿区","address":"東京都新宿区下落合３−１７−３２フルールビル１階","tel":"03-6908-2950","url":"https://h-navi.jp/support_facility/facilities/192390","lat":35.72247005,"lng":139.70388952,"weekday":"10:30-18:30","saturday":"","sunday":"","holiday":"10:30-18:30","closed":"土曜日・日曜日","capacity":10,"id":"1350400592"},{"name":"ワールドキッズ水天宮前教室","nameKana":"わーるどきっずすいてんぐうまえきょうしつ","corp":"株式会社キッズグリーン","serviceTypes":["児童発達支援","放課後等デイサービス"],"ward":"中央区","address":"東京都中央区日本橋中洲４−１メゾンド中洲２０３","tel":"03-6231-1194","url":"https://worldkids.jp/","lat":35.68278236,"lng":139.7896519,"weekday":"10:00-19:00","saturday":"10:00-18:00","sunday":"10:00-19:00","holiday":"10:00-19:00","closed":"","capacity":null,"id":"1350200299"},{"name":"新宿区立子ども総合センター","nameKana":"しんじゅくくりつこどもそうごうせんたー","corp":"新宿区","serviceTypes":["児童発達支援","放課後等デイサービス"],"ward":"新宿区","address":"東京都新宿区新宿７−３−２９","tel":"03-3232-0679","url":"https://www.city.shinjuku.lg.jp/soshiki/kodomos01_001012.html","lat":35.70100327,"lng":139.71268126,"weekday":"10:00-18:00","saturday":"10:00-17:00","sunday":"","holiday":"","closed":"日曜日","capacity":60,"id":"1350400022"},{"name":"東京都立府中療育センター","nameKana":"とうきょうとりつふちゅうりょういくせんたー","corp":"東京都","serviceTypes":["児童発達支援"],"ward":"府中市","address":"東京都府中市武蔵台２−９−２","tel":"042-323-5115","url":"https://www.fukushi.metro.tokyo.lg.jp/fuchuryo//index.html","lat":35.6920563,"lng":139.4641806,"weekday":"10:00-15:00","saturday":"","sunday":"","holiday":"","closed":"土曜日、日曜日、祝日、年末年始（12/29~1/3)、夏休み","capacity":40,"id":"1352900011"},{"name":"東京都立北療育医療センター城南分園","nameKana":"とうきょうとりつきたりょういくいりょうせんたーじょうなんぶんえん","corp":"東京都","serviceTypes":["児童発達支援"],"ward":"大田区","address":"東京都大田区東雪谷４−５−１０","tel":"03-3727-0521","url":"","lat":35.59460659,"lng":139.69367561,"weekday":"","saturday":"","sunday":"","holiday":"","closed":"","capacity":null,"id":"1351100027"},{"name":"東京都立北療育医療センター","nameKana":"とうきょうとりつきたりょういくいりょうせんたー","corp":"東京都","serviceTypes":["児童発達支援"],"ward":"北区","address":"東京都北区十条台１−２−３","tel":"03-3908-3001","url":"https://www.fukushi.metro.tokyo.lg.jp/shisetsu/jigyosyo/kitaryou","lat":35.75403643,"lng":139.72307825,"weekday":"","saturday":"","sunday":"","holiday":"","closed":"","capacity":null,"id":"1351700032"},{"name":"児童発達支援　放課後等デイサービス　はぴねす","nameKana":"じどうはったつしえんほうかごとうでいさーびすはぴねす","corp":"特定非営利活動法人えがおさんさん","serviceTypes":["児童発達支援","放課後等デイサービス"],"ward":"新宿区","address":"東京都新宿区住吉町５−４ペガサスマンション曙橋１０２号室","tel":"03-5990-2840","url":"","lat":35.69341265,"lng":139.72086139,"weekday":"","saturday":"","sunday":"","holiday":"","closed":"","capacity":null,"id":"1350400444"},{"name":"スポーツひろばプレイス　府中教室","nameKana":"すぽーつひろばぷれいすふちゅうきょうしつ","corp":"株式会社ボディアシスト","serviceTypes":["児童発達支援"],"ward":"府中市","address":"東京都府中市府中町１−８−１３１階","tel":"042-306-9343","url":"http://www.sh-place.com","lat":35.67273947,"lng":139.48079382,"weekday":"14:00-18:00","saturday":"10:00-16:00","sunday":"10:00-16:00","holiday":"10:00-16:00","closed":"年末年始","capacity":10,"id":"1353800061"},{"name":"スポーツひろばプレイス　高田馬場教室","nameKana":"すぽーつひろばぷれいすたかだのばばきょうしつ","corp":"株式会社ボディアシスト","serviceTypes":["児童発達支援"],"ward":"新宿区","address":"東京都新宿区高田馬場１−９−２１エムハットビル１階","tel":"03-6233-9977","url":"http://www.sh-place.com","lat":35.71016047,"lng":139.70889513,"weekday":"14:00-18:00","saturday":"10:00-16:00","sunday":"10:00-16:00","holiday":"10:00-16:00","closed":"年末年始","capacity":10,"id":"1350400162"},{"name":"ノーサイド新宿＠Ｌｅａｆ音楽療法センター","nameKana":"のーさいどしんじゅくあっとりーふおんがくりょうほうせんたー","corp":"株式会社Ｗｅｌｌｏｎｅ‘ｓ","serviceTypes":["児童発達支援","放課後等デイサービス","居宅訪問型児童発達支援"],"ward":"新宿区","address":"東京都新宿区西早稲田1-2-2　レガリス早稲田1階","tel":"03-5292-2050","url":"","lat":35.70796652,"lng":139.71794442,"weekday":"","saturday":"","sunday":"","holiday":"","closed":"","capacity":null,"id":"1350400212"},{"name":"ノーサイド新宿ミュージックケア","nameKana":"のーさいどしんじゅくみゅーじっくけあ","corp":"株式会社Ｗｅｌｌｏｎｅ‘ｓ","serviceTypes":["児童発達支援","放課後等デイサービス"],"ward":"新宿区","address":"東京都新宿区東榎町８","tel":"03-6280-8319","url":"","lat":35.70451719,"lng":139.7293991,"weekday":"","saturday":"","sunday":"","holiday":"","closed":"","capacity":null,"id":"1350400378"},{"name":"ベアーズキッズ","nameKana":"べあーずきっず","corp":"特定非営利活動法人星槎教育研究所","serviceTypes":["児童発達支援"],"ward":"新宿区","address":"東京都新宿区榎町４５　さくらビル２階","tel":"03-3235-3661","url":"https://edunpo.seisa.ac.jp/","lat":35.70466439,"lng":139.72897968,"weekday":"11:00-18:00","saturday":"10:00-17:00","sunday":"","holiday":"","closed":"日曜・祝日","capacity":10,"id":"1350400147"},{"name":"コプラス　中延教室","nameKana":"こぷらすなかのぶきょうしつ","corp":"株式会社ライトサイン","serviceTypes":["児童発達支援","放課後等デイサービス"],"ward":"品川区","address":"東京都品川区中延６−６−１ＫＤＸレジデンス中延２階","tel":"03-5498-7066","url":"https://hp.co-plus.jp/","lat":35.602942,"lng":139.71019881,"weekday":"10:00-16:30","saturday":"10:00-16:30","sunday":"00:00-00:00","holiday":"00:00-00:00","closed":"日曜日、祝日","capacity":10,"id":"1350900351"},{"name":"コプラス　五反田教室","nameKana":"こぷらすごたんだきょうしつ","corp":"株式会社ライトサイン","serviceTypes":["児童発達支援","放課後等デイサービス"],"ward":"品川区","address":"東京都品川区東五反田４−９−２　東五反田ＫＢビル２階","tel":"03-6277-1245","url":"https://hp.co-plus.jp/","lat":35.62946154,"lng":139.72649937,"weekday":"10:00-16:30","saturday":"10:00-16:30","sunday":"00:00-00:00","holiday":"00:00-00:00","closed":"日曜日、祝日","capacity":10,"id":"1350900401"},{"name":"コプラス　青物横丁教室","nameKana":"こぷらすあおものよこちょうきょうしつ","corp":"株式会社ライトサイン","serviceTypes":["児童発達支援","放課後等デイサービス"],"ward":"品川区","address":"東京都品川区南品川３−６−１　Ｊ・ＮＡＣビル３階","tel":"03-6712-9693","url":"https://hp.co-plus.jp/","lat":35.6106171,"lng":139.74432083,"weekday":"10:00-16:30","saturday":"10:00-16:30","sunday":"00:00-00:00","holiday":"00:00-00:00","closed":"日曜日、祝日","capacity":10,"id":"1350900526"},{"name":"ハッピーキッズスペースみんと大塚","nameKana":"はっぴーきっずすぺーすみんとおおつか","corp":"株式会社明光ウェルネス","serviceTypes":["児童発達支援","放課後等デイサービス"],"ward":"豊島区","address":"東京都豊島区北大塚３−１０−４岩田ビル1階","tel":"03-5961-1022","url":"https://www.meikowellness.co.jp/mint/","lat":35.73430809,"lng":139.72200416,"weekday":"13:30-17:30","saturday":"10:00-16:00","sunday":"10:00-16:00","holiday":"10:00-16:00","closed":"無休（12月31日〜1月3日を除く）","capacity":10,"id":"1351600182"},{"name":"東京都立東大和療育センター分園よつぎ療育園","nameKana":"とうきょうとりつひがしやまとりょういくせんたーぶんえんよつぎりょういくえん","corp":"東京都","serviceTypes":["児童発達支援"],"ward":"葛飾区","address":"東京都葛飾区東四つ木４−４４−１−１０１","tel":"03-5670-5131","url":"http://www.hmc-smid.jp/yotsugi.html","lat":35.7434936,"lng":139.8472207,"weekday":"09:00-17:00","saturday":"","sunday":"","holiday":"","closed":"祝日・土曜日・日曜日及び12月29日から1月3日","capacity":25,"id":"1352200073"},{"name":"スポーツひろばプレイス八王子教室","nameKana":"すぽーつひろばぷれいすはちおうじきょうしつ","corp":"株式会社ボディアシスト","serviceTypes":["児童発達支援","放課後等デイサービス"],"ward":"八王子市","address":"東京都八王子市打越町３４４−４北野シティプラザ２０１","tel":"042-649-2959","url":"","lat":35.64455074,"lng":139.35502752,"weekday":"14:00-18:00","saturday":"10:00-16:00","sunday":"10:00-16:00","holiday":"10:00-16:00","closed":"","capacity":10,"id":"1352900334"},{"name":"こども療育教室さんぽ","nameKana":"こどもりょういくきょうしつさんぽ","corp":"株式会社ＳＢＣホールディングス","serviceTypes":["児童発達支援","放課後等デイサービス"],"ward":"北区","address":"東京都北区豊島２−１３−１０　ＪＬＢグランエクリュ飛鳥山１０２号室","tel":"03-6903-3463","url":"http://www.sbc-hd.co.jp/sanpo/","lat":35.7587059,"lng":139.7447151,"weekday":"10:30-12:15","saturday":"","sunday":"","holiday":"","closed":"土曜日、日曜日、祝日、お盆、年末年始","capacity":10,"id":"1351700487"},{"name":"ザ・イエローハウス","nameKana":"ざいえろーはうす","corp":"株式会社ＦＭＡカンパニー","serviceTypes":["児童発達支援"],"ward":"足立区","address":"東京都足立区東綾瀬１−２３−３パレ綾瀬１０２","tel":"03-5849-3703","url":"https://www.the-yellow-house.tokyo/","lat":35.76501013,"lng":139.82934353,"weekday":"","saturday":"","sunday":"","holiday":"","closed":"","capacity":null,"id":"1352101024"},{"name":"放課後等デイサービス　ウィズ・ユー石神井","nameKana":"ほうかごとうでいさーびすうぃずゆーしゃくじい","corp":"株式会社コミュニケーションラボ","serviceTypes":["児童発達支援","放課後等デイサービス"],"ward":"練馬区","address":"東京都練馬区石神井台５−２２−４１フォーラム石神井１０５号","tel":"03-5903-8341","url":"","lat":35.73709304,"lng":139.58880422,"weekday":"","saturday":"","sunday":"","holiday":"","closed":"","capacity":null,"id":"1352000853"},{"name":"東京みらい児童発達支援センター","nameKana":"とうきょうみらいじどうはったつしえんせんたー","corp":"三幸学園","serviceTypes":["児童発達支援"],"ward":"足立区","address":"東京都足立区足立１−１３−２６","tel":"03-5615-8485","url":"https://cdsc.sanko.ac.jp/","lat":35.78778787,"lng":139.82540698,"weekday":"09:20-17:00","saturday":"","sunday":"","holiday":"","closed":"土日・祝日・12月29日〜1月3日・３月末〜４月上旬１週間・法人が定めた研修日","capacity":70,"id":"1352101206"},{"name":"放課後等デイサービス　ウィズ・ユー文京白山","nameKana":"ほうかごとうでいさーびすうぃずゆーぶんきょうはくさん","corp":"合同会社ポノ","serviceTypes":["児童発達支援","放課後等デイサービス"],"ward":"文京区","address":"東京都文京区白山５−２７−１１メゾン・オンブル・ヴェール１０１","tel":"03-6785-6504","url":"https://www.with-ac.com/shisetu/bunkyohakusan/","lat":35.72444057,"lng":139.75000497,"weekday":"10:00-12:00","saturday":"","sunday":"","holiday":"10:00-12:00","closed":"土曜日　日曜日","capacity":10,"id":"1350500375"},{"name":"Ｏｎｌｙ　Ｏｎｅ梅島","nameKana":"おんりーわんうめじま","corp":"株式会社ＡＬＬ　ＩＮ　ＯＮＥ","serviceTypes":["児童発達支援","放課後等デイサービス"],"ward":"足立区","address":"東京都足立区梅田７−２６−１５エミネンス梅島２階","tel":"050-3734-5544","url":"","lat":35.77002288,"lng":139.80102359,"weekday":"","saturday":"","sunday":"","holiday":"","closed":"","capacity":null,"id":"1352100901"},{"name":"Ｏｎｌｙ　Ｏｎｅ足立","nameKana":"おんりーわんあだち","corp":"株式会社ＡＬＬ　ＩＮ　ＯＮＥ","serviceTypes":["児童発達支援","放課後等デイサービス"],"ward":"足立区","address":"東京都足立区島根３−１−１０","tel":"050-3734-5542","url":"http://www.allin1.co.jp/service/onlyone/","lat":35.77909952,"lng":139.79699575,"weekday":"10:00-13:00","saturday":"10:00-13:00","sunday":"","holiday":"10:00-13:00","closed":"日曜日","capacity":10,"id":"1352100497"},{"name":"富坂子どもの家","nameKana":"とみさかこどものいえ","corp":"公益財団法人基督教イースト・エイジャ・ミッション","serviceTypes":["児童発達支援","放課後等デイサービス"],"ward":"文京区","address":"東京都文京区小石川２−１７−４１","tel":"03-3812-2072","url":"https://www.ceam.asia/dc/","lat":35.71112528,"lng":139.74835826,"weekday":"","saturday":"","sunday":"","holiday":"","closed":"","capacity":null,"id":"1350500029"},{"name":"文京区児童発達支援センター","nameKana":"ぶんきょうくじどうはったつしえんせんたー","corp":"文京区","serviceTypes":["児童発達支援"],"ward":"文京区","address":"東京都文京区湯島４−７−１０","tel":"03-5800-2631","url":"https://www.city.bunkyo.lg.jp/b051/p001849.html","lat":35.70884827,"lng":139.76576823,"weekday":"09:30-14:00","saturday":"09:30-11:30","sunday":"","holiday":"","closed":"","capacity":30,"id":"1350500102"},{"name":"発達支援ルーム　ぽけっと","nameKana":"はったつしえんるーむぽけっと","corp":"一般社団法人ぽけっと","serviceTypes":["児童発達支援","放課後等デイサービス"],"ward":"文京区","address":"東京都文京区小石川５−３８−２クレストヒルズ小石川２階","tel":"03-5615-8475","url":"https://www.pocket-room.org/","lat":35.71816605,"lng":139.74295297,"weekday":"09:30-18:00","saturday":"09:30-18:00","sunday":"","holiday":"","closed":"日曜日、祝日","capacity":10,"id":"1350500201"},{"name":"子どもの家エラン","nameKana":"こどものいええらん","corp":"公益財団法人東京カリタスの家","serviceTypes":["児童発達支援"],"ward":"杉並区","address":"東京都杉並区南荻窪１−３４−２１　","tel":"03-3332-5115","url":"http://www.tokyo-caritas.org/elan.html","lat":35.69710376,"lng":139.61385379,"weekday":"09:30-16:30","saturday":"","sunday":"","holiday":"","closed":"土・日・祝日　及び12月27日〜1月6日","capacity":10,"id":"1351500614"},{"name":"西片未来教室","nameKana":"にしかたみらいきょうしつ","corp":"特定非営利活動法人　特別支援教育研究会","serviceTypes":["児童発達支援"],"ward":"文京区","address":"東京都文京区西片２−１８−２１","tel":"03-5615-8701","url":"","lat":35.71674436,"lng":139.75602691,"weekday":"","saturday":"","sunday":"","holiday":"","closed":"","capacity":null,"id":"1350500367"},{"name":"未来教室","nameKana":"みらいきょうしつ","corp":"特定非営利活動法人　特別支援教育研究会","serviceTypes":["児童発達支援","放課後等デイサービス"],"ward":"文京区","address":"東京都文京区小石川２−６−5小石川2丁目ビル2階","tel":"03-5615-8701","url":"http://miraikyoshitsu.com/","lat":35.70919218,"lng":139.74928603,"weekday":"08:00-17:00","saturday":"08:00-12:30","sunday":"","holiday":"","closed":"日曜、祝日","capacity":10,"id":"1350500078"},{"name":"ハッピーテラス千駄木第二教室","nameKana":"はっぴーてらすせんだぎだいにきょうしつ","corp":"有限会社塚本商事","serviceTypes":["児童発達支援","放課後等デイサービス"],"ward":"文京区","address":"東京都文京区千駄木２−７−１２千駄木今晩軒１−２階","tel":"03-5832-9450","url":"https://happy-terrace.com/school/sendagi2-2/","lat":35.72201352,"lng":139.76170421,"weekday":"10:00-18:00","saturday":"10:00-18:00","sunday":"","holiday":"","closed":"日曜、月曜、祝日　","capacity":10,"id":"1350500243"},{"name":"ハッピーテラス千駄木第三教室","nameKana":"はっぴーてらすせんだぎだいさんきょうしつ","corp":"有限会社塚本商事","serviceTypes":["児童発達支援"],"ward":"文京区","address":"東京都文京区根津１−２７−２サンクレスト・サンセイ２０１号室","tel":"03-5832-9043","url":"https://happy-terrace.com/school/sendagi3/","lat":35.72087473,"lng":139.76137092,"weekday":"","saturday":"","sunday":"","holiday":"","closed":"","capacity":10,"id":"1350500276"},{"name":"手話でいきる子どもの児童発達支援・放課後等デイサービス　あ〜とん塾","nameKana":"しゅわでいきるこどものじどうはったつしえんほうかごとうでいさーびすあーとんじゅく","corp":"一般社団法人ありがとうの種","serviceTypes":["児童発達支援","放課後等デイサービス"],"ward":"豊島区","address":"東京都豊島区巣鴨３−６−１２藤ビル２階","tel":"03-5980-7140","url":"http://artn.jp/","lat":35.73401398,"lng":139.73440868,"weekday":"14:00-17:00","saturday":"10:00-17:00","sunday":"","holiday":"10:00-17:00","closed":" 12月30日から1月3日までの間。行事、災害、人員体制等で開所困難な日。","capacity":10,"id":"1351600240"},{"name":"ろぐ","nameKana":"ろぐ","corp":"一般社団法人ハクナマタタ","serviceTypes":["児童発達支援","放課後等デイサービス"],"ward":"台東区","address":"東京都台東区上野７−１３−６上野Ｓビル２階","tel":"03-6802-7015","url":"https://haku-mata.jp/","lat":35.71681188,"lng":139.78091431,"weekday":"10:00-18:00","saturday":"09:00-17:00","sunday":"","holiday":"09:00-17:00","closed":"日曜日","capacity":10,"id":"1350600266"},{"name":"Ｑｕｉｒｋｙ北上野","nameKana":"くぁーきーきたうえの","corp":"合同会社３７２１","serviceTypes":["児童発達支援"],"ward":"台東区","address":"東京都台東区北上野1-15-5カスタリア北上野１０２","tel":"03-5830-7995","url":"https://www.quirky3721.com/","lat":35.71884231,"lng":139.78343347,"weekday":"09:30-16:30","saturday":"09:30-16:30","sunday":"","holiday":"","closed":"日、月、祝祭日、年末年始","capacity":10,"id":"1350600282"},{"name":"放課後等デイサービス　ウィズ・ユー南千住","nameKana":"ほうかごとうでいさーびすうぃずゆーみなみせんじゅ","corp":"有限会社安藤商事","serviceTypes":["児童発達支援","放課後等デイサービス"],"ward":"荒川区","address":"東京都荒川区南千住7-31-3南千住7丁目ハイツD棟121号室","tel":"03-5604-5160","url":"","lat":35.73698004,"lng":139.80043162,"weekday":"10:00-12:00","saturday":"10:00-12:00","sunday":"","holiday":"10:00-17:00","closed":"","capacity":10,"id":"1351800360"},{"name":"台東区松が谷福祉会館","nameKana":"たいとうくまつがやふくしかいかん","corp":"台東区","serviceTypes":["児童発達支援","放課後等デイサービス"],"ward":"台東区","address":"東京都台東区松が谷１−４−１２","tel":"03-3842-2671","url":"http://www.city.taito.lg.jp/index/kurashi/shogai/matsugaya_fukushi/index.html","lat":35.71130413,"lng":139.78542541,"weekday":"09:00-16:45","saturday":"","sunday":"","holiday":"","closed":"祝日及び12月29日〜1月3日","capacity":35,"id":"1350600019"},{"name":"放課後等デイサービス　ウィズ・ユー葛飾区役所前","nameKana":"ほうかごとうでいさーびすうぃずゆーかくしかくやくしょまえ","corp":"株式会社共栄オーメック","serviceTypes":["児童発達支援","放課後等デイサービス"],"ward":"葛飾区","address":"東京都葛飾区立石７−１０−２１トワモリオ１０１Ａ","tel":"03-5875-6657","url":"https://www.withyou-kyoeiomec.com/","lat":35.74173544,"lng":139.84875675,"weekday":"10:00-17:00","saturday":"10:00-16:00","sunday":"","holiday":"10:00-16:00","closed":"日曜日、12/30〜1/3","capacity":10,"id":"1352200818"},{"name":"放課後等デイサービス　ウィズ・ユー柴又駅前","nameKana":"ほうかごとうでいさーびすうぃずゆーしばまたえきまえ","corp":"株式会社共栄オーメック","serviceTypes":["児童発達支援","放課後等デイサービス"],"ward":"葛飾区","address":"東京都葛飾区柴又６−７−４ＭＡＩＬＥ１階","tel":"03-5876-8776","url":"https://www.withyou-kyoeiomec.com/","lat":35.75578382,"lng":139.87707627,"weekday":"10:00-17:00","saturday":"10:00-16:00","sunday":"","holiday":"10:00-16:00","closed":"日曜日、12/30〜1/3","capacity":10,"id":"1352200859"},{"name":"キッズサポートりま","nameKana":"きっずさぽーとりま","corp":"特定非営利活動法人SJ","serviceTypes":["児童発達支援","放課後等デイサービス"],"ward":"墨田区","address":"東京都墨田区立川１−１６−２０Ｙ２ＢＬＤＧ１階２階","tel":"03-6659-6804","url":"","lat":35.69159543,"lng":139.79942684,"weekday":"10:30-17:30","saturday":"10:30-16:30","sunday":"","holiday":"10:30-16:30","closed":"日曜日","capacity":5,"id":"1350700587"},{"name":"AIAI PLUS 麹町","nameKana":"あいあいぷらすこうじまち","corp":"AIAI Child Care株式会社","serviceTypes":["児童発達支援","放課後等デイサービス"],"ward":"千代田区","address":"東京都千代田区麹町３−１２−１２麹町Ｍビル２階","tel":"03-6265-4823","url":"https://plus.aiai-cc.co.jp/facility/koujimachi/","lat":35.68398072,"lng":139.73650481,"weekday":"","saturday":"","sunday":"","holiday":"","closed":"","capacity":null,"id":"1350100051"},{"name":"放課後等デイサービス　ウィズ・ユーどすこい菊川","nameKana":"ほうかごとうでいさーびすうぃずゆーどすこいきくかわ","corp":"株式会社Ｗａｙ","serviceTypes":["児童発達支援","放課後等デイサービス"],"ward":"墨田区","address":"東京都墨田区立川３−１７−７リンデンハイム菊川１階","tel":"03-6659-2171","url":"","lat":35.69209806,"lng":139.80547018,"weekday":"10:00-12:00","saturday":"10:00-12:00","sunday":"","holiday":"10:00-12:00","closed":"日曜","capacity":10,"id":"1350700603"},{"name":"ＡＢＡ教室ＨＲＥ","nameKana":"えいびーえいきょうしつえいちあーるいー","corp":"ＡＢＡ教室ＨＲＥ株式会社","serviceTypes":["児童発達支援","放課後等デイサービス"],"ward":"墨田区","address":"東京都墨田区業平１−２−１９−２０１ホープUETAKE","tel":"03-6658-8427","url":"https://www.abaschoolhre.com/","lat":35.70620205,"lng":139.81119827,"weekday":"09:30-18:30","saturday":"00:00-00:00","sunday":"00:00-00:00","holiday":"09:30-18:30","closed":"土曜日、日曜日","capacity":10,"id":"1350700645"},{"name":"すまはぴパーク曳舟","nameKana":"すまはぴぱーくひきふね","corp":"ＡＲＫ株式会社","serviceTypes":["児童発達支援"],"ward":"墨田区","address":"東京都墨田区東向島６−９−１３ＭＴビル２階","tel":"03-6657-5886","url":"https://sumahapi-park.com/","lat":35.72094677,"lng":139.82007787,"weekday":"09:30-15:30","saturday":"09:30-15:30","sunday":"","holiday":"","closed":"日・祝","capacity":null,"id":"1350700652"},{"name":"すみだステップハウスおおぞら　にじの子","nameKana":"すみだすてっぷはうすおおぞらにじのこ","corp":"墨田区社会福祉事業団","serviceTypes":["児童発達支援","放課後等デイサービス"],"ward":"墨田区","address":"東京都墨田区立花3-2-9","tel":"03-6657-2619","url":"https://sumida-jigyodan.or.jp/stephouseozora/nijinoko/nijinokoindex","lat":35.70524707,"lng":139.83255171,"weekday":"09:00-17:00","saturday":"09:00-17:00","sunday":"","holiday":"","closed":"①日曜日・祝日　②年末年始(12月29日~1月3日)　","capacity":60,"id":"1350700025"},{"name":"すみだ福祉保健センターみつばち園","nameKana":"すみだふくしほけんせんたーみつばちえん","corp":"墨田区","serviceTypes":["児童発達支援","放課後等デイサービス"],"ward":"墨田区","address":"東京都墨田区向島３−３６−７　すみだ福祉保健センター内","tel":"03-5608-3715","url":"https://sumida-jigyodan.or.jp/index","lat":35.71337409,"lng":139.81075878,"weekday":"","saturday":"","sunday":"","holiday":"","closed":"日曜日、祝日、年末年始","capacity":40,"id":"1350700124"},{"name":"アルファキッズ菊川駅前","nameKana":"あるふあきつずきくかわえきまえ","corp":"株式会社アルファキッズ","serviceTypes":["児童発達支援","放課後等デイサービス"],"ward":"墨田区","address":"東京都墨田区菊川三丁目７番４号　大こく屋第２ビル　３階","tel":"03-6659-4641","url":"http://www.alphakids.co.jp/","lat":35.68823747,"lng":139.80628147,"weekday":"00:00-00:00","saturday":"09:30-12:00","sunday":"09:30-12:00","holiday":"09:30-12:00","closed":"無し","capacity":10,"id":"1350700132"},{"name":"ぴぃぷらす押上スタジオ","nameKana":"ぴぃぷらすおしあげすたじお","corp":"株式会社コーリン堀川","serviceTypes":["児童発達支援"],"ward":"墨田区","address":"東京都墨田区業平４−１３−５　鈴木ビル２階Ａ号室","tel":"03-5809-7422","url":"http://p-plus.website","lat":35.70831615,"lng":139.81575046,"weekday":"09:30-16:30","saturday":"","sunday":"","holiday":"","closed":"土、日、祝　","capacity":null,"id":"1350700405"},{"name":"ゆうゆうらいふアカデミー中央","nameKana":"ゆうゆうらいふあかでみーちゅうおう","corp":"株式会社ゆうゆうらいふ","serviceTypes":["児童発達支援","放課後等デイサービス"],"ward":"中央区","address":"東京都中央区新川２−１８−５　ＡＳビル２階","tel":"03-6280-5238","url":"","lat":35.67451905,"lng":139.78164857,"weekday":"","saturday":"","sunday":"","holiday":"","closed":"","capacity":null,"id":"1350200133"},{"name":"ゆうゆうらいふアカデミー両国","nameKana":"ゆうゆうらいふあかでみーりょうごく","corp":"株式会社ゆうゆうらいふ","serviceTypes":["児童発達支援","放課後等デイサービス"],"ward":"墨田区","address":"東京都墨田区亀沢１−２０−２","tel":"03-5809-7587","url":"","lat":35.69820845,"lng":139.7993286,"weekday":"","saturday":"","sunday":"","holiday":"","closed":"","capacity":null,"id":"1350700348"},{"name":"ゆうゆうらいふアカデミー西新井","nameKana":"ゆうゆうらいふあかでみーにしあらい","corp":"株式会社ゆうゆうらいふ","serviceTypes":["児童発達支援","放課後等デイサービス"],"ward":"足立区","address":"東京都足立区関原１−１９−６　メゾンセンチュリー２０２","tel":"03-6807-2121","url":"","lat":35.7636899,"lng":139.78733334,"weekday":"","saturday":"","sunday":"","holiday":"","closed":"","capacity":null,"id":"1352100778"},{"name":"放課後等デイサービス　あんず","nameKana":"ほうかごとうでいさーびすあんず","corp":"日本マーキュリー株式会社","serviceTypes":["児童発達支援","放課後等デイサービス"],"ward":"墨田区","address":"東京都墨田区業平４−６−３プレジール101","tel":"03-6284-1748","url":"https://japan-mercury.com/gh/","lat":35.7070716,"lng":139.81494793,"weekday":"10:00-12:30","saturday":"10:00-12:30","sunday":"","holiday":"","closed":"日曜　祝日　年末年始　お盆","capacity":10,"id":"1350700314"},{"name":"AIAI PLUS 北小岩","nameKana":"あいあいぷらすきたこいわ","corp":"AIAI Child Care株式会社","serviceTypes":["児童発達支援","放課後等デイサービス"],"ward":"江戸川区","address":"東京都江戸川区北小岩６−１１−４ー１０１","tel":"03-6657-8732","url":"","lat":35.7069784,"lng":139.8683262,"weekday":"","saturday":"","sunday":"","holiday":"","closed":"","capacity":null,"id":"1352300675"},{"name":"放課後等デイサービス　あんず　江戸川","nameKana":"ほうかごとうでいさーびすあんずえどがわ","corp":"日本マーキュリー株式会社","serviceTypes":["児童発達支援","放課後等デイサービス"],"ward":"江戸川区","address":"東京都江戸川区東小岩１−９−９　長寿メディカルセンター２０２","tel":"03-6886-2105","url":"https://japan-mercury.com/gh/","lat":35.72363023,"lng":139.88978451,"weekday":"10:30-17:00","saturday":"10:30-16:30","sunday":"","holiday":"","closed":"日曜、祝日、12/29〜1/3","capacity":10,"id":"1352301012"},{"name":"コペルプラス　大島教室","nameKana":"こぺるぷらすおおじまきょうしつ","corp":"株式会社グロウ","serviceTypes":["児童発達支援"],"ward":"江東区","address":"東京都江東区大島８−３２−７学協ビル２階","tel":"03-6802-9031","url":"https://copelplus.copel.co.jp/school/oojima/","lat":35.69024062,"lng":139.84147626,"weekday":"10:00-18:00","saturday":"10:00-18:00","sunday":"","holiday":"10:00-19:00","closed":"日曜、月曜、８月13日から15日、12月30日から翌1月3日","capacity":10,"id":"1350800684"},{"name":"療保園いろは","nameKana":"りょうほえんいろは","corp":"株式会社Ｉｒｏｈａｋｉｄｓ","serviceTypes":["児童発達支援"],"ward":"江東区","address":"東京都江東区北砂３−１−１１ロータリーパレス北砂１階１０２号","tel":"03-6666-5337","url":"https://irohakids.studio.site/","lat":35.68068041,"lng":139.82787242,"weekday":"09:30-17:30","saturday":"","sunday":"","holiday":"","closed":"土曜及び曜、8/13〜8/15及び12/29〜1/4","capacity":10,"id":"1350800734"},{"name":"療保園いろは　ＯＧＩＢＡＳＨＩ","nameKana":"りょうほえんいろはおうぎばし","corp":"株式会社Ｉｒｏｈａｋｉｄｓ","serviceTypes":["児童発達支援"],"ward":"江東区","address":"東京都江東区扇橋２−６−１２ストーク扇橋１階１０１号室","tel":"03-6666-8683","url":"","lat":35.68316316,"lng":139.81501872,"weekday":"09:30-17:30","saturday":"","sunday":"","holiday":"","closed":"土日祝、8/13〜8/15及び12/29〜1/4","capacity":10,"id":"1350800833"},{"name":"すとれいとぱぁそんず","nameKana":"すとれいとぱぁそんず","corp":"すとれいとぱぁそんず株式会社","serviceTypes":["児童発達支援","放課後等デイサービス"],"ward":"江東区","address":"東京都江東区亀戸６−１６−８ラ・トルチュ亀戸２０１","tel":"080-4624-6549","url":"https://straightpersons.jp","lat":35.69520906,"lng":139.82694165,"weekday":"08:30-18:00","saturday":"08:30-18:00","sunday":"00:00-00:00","holiday":"08:30-18:00","closed":"日曜日、月曜日","capacity":10,"id":"1350800767"},{"name":"ぽらいと　森下","nameKana":"ぽらいともりした","corp":"一般社団法人ぽらいと","serviceTypes":["児童発達支援"],"ward":"江東区","address":"東京都江東区森下４−８−６佐藤ビル１階","tel":"03-6240-2608","url":"https://www.politemorishita.com/","lat":35.68702667,"lng":139.79761688,"weekday":"10:00-15:00","saturday":"10:00-15:00","sunday":"","holiday":"","closed":"日曜・祝日","capacity":5,"id":"1350800775"},{"name":"ぽらいと　亀戸","nameKana":"ぽらいとかめいど","corp":"一般社団法人ぽらいと","serviceTypes":["児童発達支援","放課後等デイサービス"],"ward":"江東区","address":"東京都江東区亀戸４−１５−５キャッスルマンション亀戸１０１","tel":"03-6807-0452","url":"","lat":35.70152202,"lng":139.82788877,"weekday":"10:00-16:30","saturday":"","sunday":"","holiday":"","closed":"","capacity":5,"id":"1350800957"},{"name":"児童発達支援・放課後等デイサービス　あすぱる","nameKana":"じどうはったつしえんほうかごとうでいさーびすあすぱる","corp":"合同会社Ｂｅｌｉｅｖｅ","serviceTypes":["児童発達支援","放課後等デイサービス"],"ward":"江東区","address":"東京都江東区住吉１−１９−１−１０１","tel":"03-6822-2383","url":"http://r.goope.jp/asuparu","lat":35.69013441,"lng":139.81316344,"weekday":"09:30-13:30","saturday":"09:30-13:30","sunday":"","holiday":"","closed":"日曜日・月曜日","capacity":10,"id":"1350800817"},{"name":"てらぴぁぽけっと　駒込教室","nameKana":"てらぴぁぽけっとこまごめきょうしつ","corp":"株式会社ＭＡＥＥ","serviceTypes":["児童発達支援"],"ward":"文京区","address":"東京都文京区本駒込５−６０−１７鎌田ビル2階","tel":"03-5842-1680","url":"","lat":35.73359521,"lng":139.75280169,"weekday":"10:00-17:00","saturday":"10:00-17:00","sunday":"","holiday":"10:00-17:00","closed":"日曜日","capacity":10,"id":"1350500284"},{"name":"児童発達支援ルアナ","nameKana":"じどうはったつしえんるあな","corp":"合同会社Ｌｕａｎａ","serviceTypes":["児童発達支援"],"ward":"江東区","address":"東京都江東区東陽２−４−２９マルシンビル２０３","tel":"03-6458-6148","url":"https://luana-hauoli.com/","lat":35.66903717,"lng":139.81669578,"weekday":"08:30-18:00","saturday":"09:00-13:00","sunday":"","holiday":"","closed":"日曜日、祝日","capacity":10,"id":"1350800916"},{"name":"リエゾン町屋","nameKana":"りえぞんまちや","corp":"株式会社オーカ","serviceTypes":["児童発達支援"],"ward":"荒川区","address":"東京都荒川区荒川7-21-1イーストヒル町屋はいから館202号","tel":"03-6806-6025","url":"https://l-zon.com/studio/machiya/","lat":35.74947401,"lng":139.75595629,"weekday":"10:15-17:30","saturday":"10:00-15:30","sunday":"","holiday":"10:00-15:30","closed":"日曜日、月曜日","capacity":10,"id":"1351800352"},{"name":"ＬＩＣＧＲＯＷ　月島教室","nameKana":"りっくぐろーつきしまきょうしつ","corp":"リックキッズ株式会社","serviceTypes":["児童発達支援","放課後等デイサービス"],"ward":"中央区","address":"東京都中央区月島１−１−１０ＫＴビル１階","tel":"050-17312930","url":"https://licgrow.jp/","lat":35.66621165,"lng":139.7824183,"weekday":"","saturday":"","sunday":"","holiday":"","closed":"","capacity":null,"id":"1350200372"},{"name":"江東区こども発達センター","nameKana":"こうとうくこどもはったつせんたー","corp":"江東区","serviceTypes":["児童発達支援"],"ward":"江東区","address":"東京都江東区塩浜２−５−２０","tel":"03-5632-2591","url":"https://coco1.kodomo-hattatsu.com/","lat":35.66193219,"lng":139.80538308,"weekday":"","saturday":"","sunday":"","holiday":"","closed":"土・日・祝日","capacity":50,"id":"1350800254"},{"name":"江東区こども発達亀戸センター","nameKana":"こうとうくこどもはったつかめいどせんたー","corp":"江東区","serviceTypes":["児童発達支援"],"ward":"江東区","address":"東京都江東区亀戸一丁目２４−６　2階","tel":"03-3636-3150","url":"https://coco2.kodomo-hattatsu.com/","lat":35.69464782,"lng":139.82405606,"weekday":"","saturday":"","sunday":"","holiday":"","closed":"土・日・祝日","capacity":46,"id":"1350800304"},{"name":"第３親子教室うみべ","nameKana":"だいさんおやこきょうしつうみべ","corp":"社会福祉法人のびのび福祉会","serviceTypes":["児童発達支援","放課後等デイサービス"],"ward":"江東区","address":"東京都江東区海辺４−１２第二ユーエスビル１０１","tel":"03-6666-1098","url":"https://www.kosodate-oyako.net/","lat":35.67974421,"lng":139.81864586,"weekday":"","saturday":"","sunday":"","holiday":"","closed":"","capacity":null,"id":"1350800924"},{"name":"乳幼児親子教室","nameKana":"にゅうようじおやこきょうしつ","corp":"社会福祉法人のびのび福祉会","serviceTypes":["児童発達支援","放課後等デイサービス"],"ward":"江東区","address":"東京都江東区海辺４−１１","tel":"03-6666-2325","url":"https://www.kosodate-oyako.net/","lat":35.67986642,"lng":139.81860698,"weekday":"","saturday":"","sunday":"","holiday":"","closed":"","capacity":null,"id":"1350800932"},{"name":"第２乳幼児親子教室","nameKana":"だいににゅうようじおやこきょうしつ","corp":"社会福祉法人のびのび福祉会","serviceTypes":["児童発達支援","放課後等デイサービス"],"ward":"江東区","address":"東京都江東区住吉１−８−１８住吉ビル１階","tel":"03-3632-8932","url":"https://www.kosodate-oyako.net/","lat":35.68737923,"lng":139.81110833,"weekday":"","saturday":"","sunday":"","holiday":"","closed":"","capacity":null,"id":"1350800940"},{"name":"カレッジガーデン","nameKana":"かれっじがーでん","corp":"ホープウェル株式会社","serviceTypes":["児童発達支援","放課後等デイサービス"],"ward":"江東区","address":"東京都江東区北砂５−２０−１３−１０１","tel":"03-5875-2622","url":"https://courage-garden.com/","lat":35.6730784,"lng":139.8169681,"weekday":"09:00-18:00","saturday":"","sunday":"","holiday":"","closed":"土日祝日、年末年始","capacity":5,"id":"1350800700"},{"name":"リエゾン東大島","nameKana":"りえぞんひがしおおじま","corp":"株式会社オーカ","serviceTypes":["児童発達支援","放課後等デイサービス"],"ward":"江東区","address":"東京都江東区大島９−３−１−１０３パークサイドコート","tel":"03-6768-7845","url":"https://l-zon.com/studio/higashiooshima/","lat":35.69005452,"lng":139.84509826,"weekday":"10:15-17:30","saturday":"10:00-15:30","sunday":"","holiday":"10:00-15:30","closed":"日曜日、月曜日","capacity":10,"id":"1350800981"},{"name":"コラゾン浅草橋","nameKana":"こらぞんあさくさばし","corp":"株式会社オーカ","serviceTypes":["児童発達支援","放課後等デイサービス"],"ward":"台東区","address":"東京都台東区浅草橋５−２−３柳北ビル２階","tel":"03-5820-8140","url":"https://corazon-kid.com/studio/asakusa/","lat":35.69921642,"lng":139.78154592,"weekday":"13:00-17:30","saturday":"","sunday":"","holiday":"10:00-15:00","closed":"土曜日、日曜日","capacity":10,"id":"1350600084"},{"name":"リエゾン浅草橋","nameKana":"りえぞんあさくさばし","corp":"株式会社オーカ","serviceTypes":["児童発達支援","放課後等デイサービス"],"ward":"台東区","address":"東京都台東区浅草橋１−２−８マルイチビル７階","tel":"03-5835-0535","url":"https://l-zon.com/studio/asakusa/","lat":35.69652512,"lng":139.78423493,"weekday":"10:15-17:30","saturday":"10:00-15:30","sunday":"","holiday":"10:00-15:30","closed":"日曜日、月曜日","capacity":10,"id":"1350600134"},{"name":"リエゾン上野","nameKana":"りえぞんうえの","corp":"株式会社オーカ","serviceTypes":["児童発達支援"],"ward":"台東区","address":"東京都台東区北上野１−８−５ビリーフ上野１階","tel":"03-5830-9430","url":"https://l-zon.com/studio/ueno/","lat":35.71712577,"lng":139.78216421,"weekday":"10:15-17:30","saturday":"10:00-15:30","sunday":"","holiday":"10:00-15:30","closed":"日曜日、月曜日","capacity":10,"id":"1350600175"},{"name":"コラゾン錦糸町","nameKana":"こらぞんきんしちょう","corp":"株式会社オーカ","serviceTypes":["児童発達支援","放課後等デイサービス"],"ward":"墨田区","address":"東京都墨田区江東橋１−４−１２メゾンドール錦糸町ツイン１０１","tel":"03-3635-7739","url":"https://corazon-kid.com/studio/kinshicho.php","lat":35.69336729,"lng":139.80989992,"weekday":"13:00-17:30","saturday":"","sunday":"","holiday":"10:00-15:00","closed":"土曜日、日曜日","capacity":10,"id":"1350700140"},{"name":"コラゾン吾妻橋浅草","nameKana":"こらぞんあづまばしあさくさ","corp":"株式会社オーカ","serviceTypes":["児童発達支援","放課後等デイサービス"],"ward":"墨田区","address":"東京都墨田区吾妻橋１−４−４両野ビル２階","tel":"03-3626-4188","url":"https://corazon-kid.com/studio/azuma.php","lat":35.70805739,"lng":139.80095479,"weekday":"13:00-17:30","saturday":"","sunday":"","holiday":"10:00-15:30","closed":"土曜日、日曜日","capacity":10,"id":"1350700298"},{"name":"リエゾン両国東口","nameKana":"りえぞんりょうごくひがしぐち","corp":"株式会社オーカ","serviceTypes":["児童発達支援","放課後等デイサービス"],"ward":"墨田区","address":"東京都墨田区亀沢１−１９−１田中ビル４階","tel":"03-3622-8177","url":"https://l-zon.com/studio/ryogoku-east/","lat":35.69785016,"lng":139.79933977,"weekday":"10:15-17:30","saturday":"10:00-15:30","sunday":"","holiday":"10:00-15:30","closed":"日曜日、月曜日","capacity":10,"id":"1350700330"},{"name":"リエゾン両国西口","nameKana":"りえぞんりょうごくにしぐち","corp":"株式会社オーカ","serviceTypes":["児童発達支援"],"ward":"墨田区","address":"東京都墨田区両国２−１８−４パラッツォ両国２０１","tel":"03-5625-0162","url":"https://l-zon.com/studio/1.php","lat":35.69506988,"lng":139.79240724,"weekday":"10:15-17:30","saturday":"10:00-15:30","sunday":"","holiday":"10:00-15:30","closed":"日曜日、月曜日","capacity":10,"id":"1350700439"},{"name":"リエゾン清澄白河","nameKana":"りえぞんきよすみしらかわ","corp":"株式会社オーカ","serviceTypes":["児童発達支援","放課後等デイサービス"],"ward":"江東区","address":"東京都江東区白河２−８−５三栄ビル４階","tel":"03-3643-3320","url":"https://l-zon.com/studio/kiyosumi-shirakawa/","lat":35.68208825,"lng":139.80250693,"weekday":"10:15-17:30","saturday":"10:00-15:30","sunday":"","holiday":"10:00-15:30","closed":"日曜日、月曜日","capacity":10,"id":"1350800379"},{"name":"リエゾン東陽町","nameKana":"りえぞんとうようちょう","corp":"株式会社オーカ","serviceTypes":["児童発達支援","放課後等デイサービス"],"ward":"江東区","address":"東京都江東区東陽３−２６−７東陽大経ビル２階","tel":"03-6666-4330","url":"https://l-zon.com/studio/touyouchou/","lat":35.67063414,"lng":139.81358497,"weekday":"10:15-17:30","saturday":"10:00-15:30","sunday":"","holiday":"10:00-15:30","closed":"日曜日、月曜日","capacity":10,"id":"1350800445"},{"name":"コラゾン江東住吉","nameKana":"こらぞんこうとうすみよし","corp":"株式会社オーカ","serviceTypes":["児童発達支援","放課後等デイサービス"],"ward":"江東区","address":"東京都江東区千田７−１７大塚ビル１階","tel":"03-5633-8122","url":"https://corazon-kid.com/studio/koutou.php","lat":35.68085513,"lng":139.81537693,"weekday":"13:00-17:30","saturday":"","sunday":"","holiday":"10:00-15:00","closed":"土曜日、日曜日","capacity":10,"id":"1350800528"},{"name":"リエゾン門前仲町","nameKana":"りえぞんもんぜんなかちょう","corp":"株式会社オーカ","serviceTypes":["児童発達支援"],"ward":"江東区","address":"東京都江東区門前仲町１−９−５門前仲町１丁目ビル２階","tel":"03-6240-3359","url":"https://l-zon.com/studio/monzen-nakacho/","lat":35.67368897,"lng":139.79372065,"weekday":"10:15-17:30","saturday":"10:00-15:30","sunday":"","holiday":"10:00-15:30","closed":"日曜日、月曜日","capacity":10,"id":"1350800569"},{"name":"リエゾン平井","nameKana":"りえぞんひらい","corp":"株式会社オーカ","serviceTypes":["児童発達支援"],"ward":"江戸川区","address":"東京都江戸川区平井4丁目8-14高橋ビル1階","tel":"0356097099","url":"https://l-zon.com/studio/hirai/","lat":35.70568308,"lng":139.84491458,"weekday":"10:00-16:00","saturday":"10:00-16:00","sunday":"","holiday":"10:00-16:00","closed":"日曜日、月曜日","capacity":10,"id":"1352300881"},{"name":"クロッカ六郷","nameKana":"くろっかろくごう","corp":"株式会社学研ココファン・ナーサリー","serviceTypes":["児童発達支援"],"ward":"大田区","address":"東京都大田区南六郷２−５−７ケン・レジデンス1階","tel":"03-6424-7802","url":"https://gakken-klocka.com/","lat":35.54872442,"lng":139.71962585,"weekday":"09:30-17:00","saturday":"","sunday":"","holiday":"","closed":"土日祝日及び12月29日から1月3日","capacity":10,"id":"1351101108"},{"name":"放課後等デイサービス　ウィズ・ユー東新宿","nameKana":"ほうかごとうでいさーびすうぃずゆーひがししんじゅく","corp":"株式会社ＬＩＦＥＡＲＣＵＳ","serviceTypes":["児童発達支援","放課後等デイサービス"],"ward":"新宿区","address":"東京都新宿区余丁町１１−１枝ビル１階","tel":"03-5315-0590","url":"","lat":35.69652606,"lng":139.71518955,"weekday":"","saturday":"","sunday":"","holiday":"","closed":"日曜日","capacity":null,"id":"1350400501"},{"name":"ｒｕｂａｔｏ","nameKana":"るばーと","corp":"合同会社ｒｕｂａｔｏ","serviceTypes":["児童発達支援","放課後等デイサービス"],"ward":"大田区","address":"東京都大田区北千束１−６９−１ワカスギクリニックビル１階","tel":"03-5726-9624","url":"https://www.t-rubato.com/","lat":35.612771,"lng":139.6844702,"weekday":"14:00-18:00","saturday":"10:00-17:00","sunday":"","holiday":"10:00-17:00","closed":"日曜日","capacity":10,"id":"1351101090"},{"name":"児童発達支援　ヒトツナ麻布教室","nameKana":"じどうはったつしえんひとつなあざぶきょうしつ","corp":"株式会社ＳＶＣ","serviceTypes":["児童発達支援"],"ward":"港区","address":"東京都港区元麻布三丁目１番３６号つなかわビル２階","tel":"03-6721-1561","url":"https://azabu.hattatsu-hitotsuna.com/","lat":35.65776395,"lng":139.72814825,"weekday":"09:30-18:00","saturday":"","sunday":"","holiday":"09:30-18:00","closed":"土曜日、日曜日","capacity":10,"id":"1350300461"},{"name":"クロッカ祖師谷","nameKana":"くろっかそしがや","corp":"株式会社学研ココファン・ナーサリー","serviceTypes":["児童発達支援"],"ward":"世田谷区","address":"東京都世田谷区祖師谷三丁目6番10号アコード成城１階","tel":"0364113800","url":"https://gakken-klocka.com/","lat":35.64264606,"lng":139.60573418,"weekday":"09:30-17:00","saturday":"","sunday":"","holiday":"","closed":"土日祝日及び12月29日から1月3日","capacity":10,"id":"1351201247"},{"name":"クロッカ町屋","nameKana":"くろっかまちや","corp":"株式会社学研ココファン・ナーサリー","serviceTypes":["児童発達支援"],"ward":"荒川区","address":"東京都荒川区町屋２丁目２番１５号プリメーラＯ．Ｄ．Ａ２０１","tel":"03-5855-4431","url":"https://gakken-klocka.com/facility/machiya/","lat":35.74385661,"lng":139.78086058,"weekday":"09:30-17:00","saturday":"","sunday":"","holiday":"","closed":"土日祝日及び12月29日から1月3日","capacity":10,"id":"1351800386"},{"name":"クロッカ中野新橋","nameKana":"くろっかなかのしんばし","corp":"株式会社学研ココファン・ナーサリー","serviceTypes":["児童発達支援"],"ward":"中野区","address":"東京都中野区弥生町２−２１−５サクラビル２階","tel":"0363004455","url":"https://gakken-klocka.com/","lat":35.69229769,"lng":139.67451553,"weekday":"09:30-17:00","saturday":"","sunday":"","holiday":"","closed":"土日祝日及び12月29日から1月3日","capacity":10,"id":"1351400591"},{"name":"クロッカ五反田","nameKana":"くろっかごたんだ","corp":"株式会社学研ココファン・ナーサリー","serviceTypes":["児童発達支援"],"ward":"品川区","address":"東京都品川区西五反田６−７−５ダイアン西五反田２階","tel":"03-6910-4525","url":"https://gakken-klocka.com/","lat":35.62192613,"lng":139.71768373,"weekday":"09:30-17:00","saturday":"","sunday":"","holiday":"","closed":"土日祝日及び12月29日から1月3日","capacity":10,"id":"1350900310"},{"name":"クロッカ旗の台","nameKana":"くろっかはたのだい","corp":"株式会社学研ココファン・ナーサリー","serviceTypes":["児童発達支援"],"ward":"品川区","address":"東京都品川区旗の台3丁目7番2号","tel":"03-5749-5101","url":"https://gakken-klocka.com/","lat":35.60418348,"lng":139.70686296,"weekday":"09:30-17:00","saturday":"","sunday":"","holiday":"","closed":"土日祝日及び12月29日から1月3日","capacity":10,"id":"1350900385"},{"name":"クロッカ東大井","nameKana":"くろっかひがしおおい","corp":"株式会社学研ココファン・ナーサリー","serviceTypes":["児童発達支援"],"ward":"品川区","address":"東京都品川区東大井２−２４−７リバトン東大井１階","tel":"03-5763-5815","url":"https://gakken-klocka.com/","lat":35.59834346,"lng":139.73921893,"weekday":"09:30-17:00","saturday":"","sunday":"","holiday":"","closed":"土日祝日及び12月29日から1月3日","capacity":10,"id":"1350900542"},{"name":"にゅーとらる西大井","nameKana":"にゅーとらるにしおおい","corp":"合同会社ニュートラル","serviceTypes":["児童発達支援","放課後等デイサービス"],"ward":"品川区","address":"東京都品川区二葉２−１４−８シミズＳ・Ｔビル　１０１号室","tel":"03-6426-4916","url":"https://www.neutral-shinagawa.co.jp/","lat":35.60372828,"lng":139.723581,"weekday":"10:00-17:00","saturday":"","sunday":"","holiday":"","closed":"土・日・祝","capacity":10,"id":"1350900369"},{"name":"コスモ療育クラブ　ファミリア","nameKana":"こすもりょういくくらぶふぁみりあ","corp":"幼児活動研究会株式会社","serviceTypes":["児童発達支援","放課後等デイサービス"],"ward":"品川区","address":"東京都品川区戸越５−１５−１４荏原プロパティビル２階","tel":"03-6426-8251","url":"https://www.cosmo.bz/familiar/index.html","lat":35.60954969,"lng":139.71498432,"weekday":"10:00-16:00","saturday":"10:00-16:00","sunday":"10:00-16:00","holiday":"10:00-16:00","closed":"","capacity":10,"id":"1350900419"},{"name":"コスモ療育クラブ　ファミリア　五反田","nameKana":"こすもりょういくくらぶふぁみりあごたんだ","corp":"幼児活動研究会株式会社","serviceTypes":["児童発達支援"],"ward":"品川区","address":"東京都品川区西五反田２−１０−８ドルミ五反田ドウメゾン２１１","tel":"03-5747-9670","url":"https://www.cosmo.bz/familiar/index.html","lat":35.62699783,"lng":139.72087217,"weekday":"10:00-18:00","saturday":"10:00-17:00","sunday":"10:00-17:00","holiday":"10:00-18:00","closed":"","capacity":10,"id":"1350900476"},{"name":"ひなたのかぜ不動前教室","nameKana":"ひなたのかぜふどうまえきょうしつ","corp":"合同会社Ｈｅａｌｔｈ　Ｅｖａｎｇｅｌｉｓｔ","serviceTypes":["児童発達支援","放課後等デイサービス"],"ward":"品川区","address":"東京都品川区西五反田３−１３−１４ロイヤルコート目黒１０１号室","tel":"03-5719-2036","url":"","lat":35.62808648,"lng":139.71405607,"weekday":"10:15-17:30","saturday":"10:15-17:00","sunday":"","holiday":"10:15-17:00","closed":"日曜日、12月30日〜1月3日","capacity":10,"id":"1350900492"},{"name":"ノビッコ","nameKana":"のびっこ","corp":"合同会社望月","serviceTypes":["児童発達支援"],"ward":"品川区","address":"東京都品川区北品川１−３０−２５さかえビル２階","tel":"03-6433-9418","url":"","lat":35.62035473,"lng":139.74173733,"weekday":"10:00-17:00","saturday":"10:00-16:00","sunday":"","holiday":"10:00-16:00","closed":"日曜日","capacity":10,"id":"1350900518"},{"name":"さぽな","nameKana":"さぽな","corp":"株式会社サポナ","serviceTypes":["児童発達支援","放課後等デイサービス"],"ward":"品川区","address":"東京都品川区荏原４−８−１１佐藤ビル１階","tel":"03-6338-6845","url":"","lat":35.61551001,"lng":139.70628212,"weekday":"","saturday":"","sunday":"","holiday":"","closed":"","capacity":null,"id":"1350900567"},{"name":"Ｂｌｏｓｓｏｍ","nameKana":"ぶろっさむ","corp":"特定非営利活動法人めぶき","serviceTypes":["児童発達支援"],"ward":"品川区","address":"東京都品川区西大井４−２５−６ＰＲＥＬＵＤＥ−Ｍ　２階","tel":"03-6417-1550","url":"https://blossom-mebuki.com/","lat":35.59212962,"lng":139.71914566,"weekday":"09:00-14:00","saturday":"","sunday":"","holiday":"","closed":"土日祝日、お盆休み、年末年始休み","capacity":10,"id":"1350900328"},{"name":"品川区立品川児童学園","nameKana":"しながわくりつしながわじどうがくえん","corp":"品川区","serviceTypes":["児童発達支援"],"ward":"品川区","address":"東京都品川区南品川３−７−７品川区立障害児者総合支援施設","tel":"03-6718-4461","url":"https://www.fukueikai.or.jp","lat":35.60719811,"lng":139.74484871,"weekday":"08:30-17:00","saturday":"","sunday":"","holiday":"","closed":"土曜日、日曜日、祝日、年末年始","capacity":50,"id":"1350900013"},{"name":"ちびっこタイム品川","nameKana":"ちびっこたいむしながわ","corp":"社会福祉法人げんき","serviceTypes":["児童発達支援","放課後等デイサービス"],"ward":"品川区","address":"東京都品川区東品川３−２５−１６","tel":"03-3450-7447","url":"http://www.swc-genki.org/chibikko/index.php","lat":35.61285023,"lng":139.746615,"weekday":"10:00-13:30","saturday":"","sunday":"","holiday":"","closed":"土日祝、お盆休み、年末年始","capacity":10,"id":"1350900054"},{"name":"アプリ児童デイサービス北品川","nameKana":"あぷりじどうでいさーびすきたしながわ","corp":"リアルカンパニー株式会社","serviceTypes":["児童発達支援","放課後等デイサービス"],"ward":"品川区","address":"東京都品川区北品川２−１８−２","tel":"03-6712-3977","url":"","lat":35.61815776,"lng":139.74143743,"weekday":"","saturday":"","sunday":"","holiday":"","closed":"","capacity":10,"id":"1350900138"},{"name":"めるへんキッズ南大井園","nameKana":"めるへんきっずみなみおおいえん","corp":"株式会社めるへんキッズ","serviceTypes":["児童発達支援"],"ward":"品川区","address":"東京都品川区南大井３−２４−１４　柳川ビル","tel":"03-3765-2022","url":"","lat":35.58915828,"lng":139.73341418,"weekday":"","saturday":"","sunday":"","holiday":"","closed":"","capacity":null,"id":"1350900047"},{"name":"めるへんキッズ大森海岸園","nameKana":"めるへんきっずおおもりかいがんえん","corp":"株式会社めるへんキッズ","serviceTypes":["児童発達支援","放課後等デイサービス"],"ward":"品川区","address":"東京都品川区南大井３−２３−１０　パールマンション大森２階","tel":"03-6384-8078","url":"","lat":35.58900828,"lng":139.73296977,"weekday":"","saturday":"","sunday":"","holiday":"","closed":"","capacity":null,"id":"1350900435"},{"name":"めるへんキッズ大森園","nameKana":"めるへんきっずおおもりえん","corp":"株式会社めるへんキッズ","serviceTypes":["児童発達支援"],"ward":"品川区","address":"東京都品川区南大井６−１６−１　サンハイツ大森１０１号室","tel":"0337655616","url":"http://www.meruhenkids.com","lat":35.59144122,"lng":139.73053928,"weekday":"","saturday":"","sunday":"","holiday":"","closed":"","capacity":null,"id":"1350900237"},{"name":"ガブリエル","nameKana":"がぶりえる","corp":"特定非営利活動法人ガブリエル","serviceTypes":["児童発達支援","放課後等デイサービス"],"ward":"目黒区","address":"東京都目黒区中町１−６−５目黒Ｋハイツ１０１","tel":"03-6451-2455","url":"https://yuriematsuo0304.wixsite.com/mysite/blank-1","lat":35.63105812,"lng":139.70062383,"weekday":"","saturday":"","sunday":"","holiday":"","closed":"","capacity":null,"id":"1351000284"},{"name":"こどもえん八雲","nameKana":"こどもえんやくも","corp":"一般社団法人もうひとつのおうち","serviceTypes":["児童発達支援","放課後等デイサービス"],"ward":"目黒区","address":"東京都目黒区八雲２−１−２３八雲テラスハウス１０２","tel":"03-6421-1761","url":"","lat":35.62115571,"lng":139.66985722,"weekday":"09:30-17:30","saturday":"09:30-17:30","sunday":"","holiday":"09:30-17:30","closed":"日曜日、年末年始（１２月２９日〜１月３日）","capacity":10,"id":"1351000334"},{"name":"ことばの森ａｎｎｅｘ","nameKana":"ことばのもりあねっくす","corp":"株式会社スピークラボ","serviceTypes":["児童発達支援"],"ward":"目黒区","address":"東京都目黒区自由が丘２−２０−１４","tel":"03-5726-9437","url":"https://speaklabo.com/","lat":35.61116783,"lng":139.66584121,"weekday":"09:30-16:30","saturday":"09:30-16:30","sunday":"","holiday":"","closed":"木曜日、日曜日、祝日、年末年始(12/29-1/3)","capacity":10,"id":"1351000375"},{"name":"アソシエアカデミープラス都立大","nameKana":"あそしえあかでみーぷらすとりつだい","corp":"株式会社アソシエ・インターナショナル","serviceTypes":["児童発達支援"],"ward":"目黒区","address":"東京都目黒区八雲１−１２−９ヴォワリエ都立大学１階","tel":"03-3724-8181","url":"https://associe-international.co.jp/","lat":35.61691461,"lng":139.67263214,"weekday":"09:45-16:30","saturday":"","sunday":"","holiday":"","closed":"土曜、日曜、祝日","capacity":10,"id":"1351000383"},{"name":"児童発達支援　ウィズ・ユー豊玉中","nameKana":"ほうかごとうでいさーびすうぃずゆーとよたまなか","corp":"ソレイユ合同会社","serviceTypes":["児童発達支援"],"ward":"練馬区","address":"東京都練馬区豊玉中３−１７−１４","tel":"03-6914-8212","url":"https://www.with-ac.com/shisetu/toyotamanaka/","lat":35.73225089,"lng":139.65437947,"weekday":"10:00-18:00","saturday":"10:00-18:00","sunday":"","holiday":"","closed":"日曜日・祝日","capacity":10,"id":"1352000903"},