[{"name":"コペルプラス二子新地教室","nameKana":"こぺるぷらすふたこしんちきょうしつ","corp":"株式会社ブックエース","serviceTypes":["児童発達支援"],"ward":"川崎市","address":"神奈川県川崎市高津区諏訪１−１０−３２階","tel":"044-833-0071","url":"https://copelplus.copel.co.jp/school/futakoshinchi/","lat":35.60632409,"lng":139.62262133,"weekday":"10:00-18:00","saturday":"09:00-16:45","sunday":"","holiday":"","closed":"日曜、月曜、祝日及び8月13日〜15日　12月30日〜翌年の1月3日","capacity":10,"id":"1455300697"},{"name":"フレンズ藤沢","nameKana":"ふれんずふじさわ","corp":"株式会社Ｏｒｉｇｉｎ","serviceTypes":["児童発達支援","放課後等デイサービス"],"ward":"藤沢市","address":"神奈川県藤沢市渡内２−１−４　　","tel":"0466-76-6919","url":"https://www.originjp1.jp","lat":35.34769102,"lng":139.50090428,"weekday":"13:45-17:15","saturday":"10:30-16:30","sunday":"","holiday":"10:30-16:30","closed":"日曜日、年末年始（12月30日〜1月3日）","capacity":10,"id":"1452200759"},{"name":"フレンズ登戸","nameKana":"ふれんずのぼりと","corp":"株式会社Origin","serviceTypes":["児童発達支援"],"ward":"川崎市","address":"神奈川県川崎市多摩区登戸５８３−２フジユキビル１階","tel":"044-455-7185","url":"","lat":35.62678782,"lng":139.55544678,"weekday":"10:30-12:30","saturday":"","sunday":"","holiday":"","closed":"土日祝日","capacity":10,"id":"1455400265"},{"name":"フレンズたまプラーザ","nameKana":"ふれんずたまぷらーざ","corp":"株式会社Origin","serviceTypes":["児童発達支援","放課後等デイサービス"],"ward":"川崎市","address":"神奈川県川崎市宮前区犬蔵２丁目８−３０ウェルカーサたまプラーザ１F ２号室","tel":"044-975-0505","url":"","lat":35.58926829,"lng":139.5787908,"weekday":"13:30-19:30","saturday":"10:00-16:00","sunday":"","holiday":"","closed":"日曜日、祝日、年末年始","capacity":10,"id":"1455500320"},{"name":"フレンズ鶴ヶ峰","nameKana":"ふれんずつるがみね","corp":"株式会社Ｏｒｉｇｉｎ","serviceTypes":["児童発達支援","放課後等デイサービス"],"ward":"横浜市","address":"神奈川県横浜市旭区鶴ケ峰1-2-8アーバン128　4A号室","tel":"045-459-5010","url":"","lat":35.47511923,"lng":139.54579112,"weekday":"10:30-12:30","saturday":"10:00-16:00","sunday":"","holiday":"10:00-16:00","closed":"日曜日","capacity":10,"id":"1453200220"},{"name":"フレンズ緑園","nameKana":"ふれんずりょくえん","corp":"株式会社Ｏｒｉｇｉｎ","serviceTypes":["児童発達支援","放課後等デイサービス"],"ward":"横浜市","address":"神奈川県横浜市泉区緑園１丁目４-2ザ・ケープ緑園３F","tel":"045-453-8741","url":"","lat":35.43855995,"lng":139.52429975,"weekday":"10:30-12:30","saturday":"10:30-16:30","sunday":"","holiday":"10:30-16:30","closed":"日曜日","capacity":10,"id":"1453400127"},{"name":"フレンズ弥生台","nameKana":"ふれんずやよいだい","corp":"株式会社Ｏｒｉｇｉｎ","serviceTypes":["児童発達支援","放課後等デイサービス"],"ward":"横浜市","address":"神奈川県横浜市泉区弥生台25-1弥生台石川ビル402","tel":"045-443-7125","url":"","lat":35.42821648,"lng":139.50700381,"weekday":"10:30-12:30","saturday":"10:30-16:30","sunday":"","holiday":"10:30-16:30","closed":"日曜日","capacity":10,"id":"1453600171"},{"name":"フレンズ鶴見","nameKana":"ふれんずつるみ","corp":"株式会社Ｏｒｉｇｉｎ","serviceTypes":["児童発達支援","放課後等デイサービス"],"ward":"横浜市","address":"神奈川県横浜市鶴見区本町通３−１６５−６本町通３丁目店舗Ａ号室","tel":"045-717-9680","url":"","lat":35.5013209,"lng":139.68394479,"weekday":"10:30-12:30","saturday":"10:30-16:30","sunday":"","holiday":"10:30-16:30","closed":"水曜日、日曜日","capacity":10,"id":"1450100274"},{"name":"フレンズ中川","nameKana":"ふれんずなかがわ","corp":"株式会社Ｏｒｉｇｉｎ","serviceTypes":["児童発達支援","放課後等デイサービス"],"ward":"横浜市","address":"神奈川県横浜市都筑区牛久保３−３−８セントラルアベニュー２０２号室","tel":"045-912-0733","url":"","lat":35.56536668,"lng":139.57640325,"weekday":"10:30-12:30","saturday":"10:30-16:30","sunday":"","holiday":"","closed":"土曜日、日曜日、祝日","capacity":10,"id":"1453800573"},{"name":"シェルフいくた教室　ラ・オハナ","nameKana":"しぇるふいくたきょうしつらおはな","corp":"株式会社三方多","serviceTypes":["児童発達支援"],"ward":"川崎市","address":"神奈川県川崎市多摩区生田7-7-16エスペランサ1F","tel":"044-712-5791","url":"https://www.shelf-gr.com/","lat":35.61533445,"lng":139.54287694,"weekday":"10:00-17:30","saturday":"09:30-16:30","sunday":"","holiday":"","closed":"日曜日・祝祭日","capacity":10,"id":"1455400414"},{"name":"Ｓｔａｎｄ　ｂｙ","nameKana":"すたんどばい","corp":"特定非営利活動法人Ｓｔａｎｄ　ｂｙ","serviceTypes":["児童発達支援","放課後等デイサービス"],"ward":"横浜市","address":"神奈川県横浜市港南区港南３丁目３６−７笹川Ｇマンション１０１","tel":"090-4488-2223","url":"","lat":35.40139852,"lng":139.58281408,"weekday":"10:00-12:00","saturday":"","sunday":"","holiday":"10:30-15:30","closed":"","capacity":7,"id":"1453100503"},{"name":"発達療育　レンテ","nameKana":"はったつりょういくれんて","corp":"株式会社エルチェ","serviceTypes":["児童発達支援","放課後等デイサービス"],"ward":"横浜市","address":"神奈川県横浜市鶴見区鶴見中央１−５−５アオキビル第２８−９０１","tel":"045-642-3056","url":"https://elche.co.jp/","lat":35.50861727,"lng":139.67795364,"weekday":"10:00-17:00","saturday":"10:00-17:00","sunday":"10:00-17:00","holiday":"10:00-17:00","closed":"12/29~1/3","capacity":10,"id":"1450100043"},{"name":"発達療育　レンテ川崎","nameKana":"はったつりょういくれんてかわさき","corp":"株式会社エルチェ","serviceTypes":["児童発達支援","放課後等デイサービス"],"ward":"川崎市","address":"神奈川県川崎市中原区市ノ坪629-22階","tel":"044-200-4745","url":"https://elche.co.jp/","lat":35.56128462,"lng":139.67003362,"weekday":"10:00-17:00","saturday":"10:00-17:00","sunday":"10:00-17:00","holiday":"10:00-17:00","closed":"12/29~1/3","capacity":10,"id":"1455000073"},{"name":"Ａｌｌ　ｒｉｇｈｔ仲町台教室","nameKana":"おーるらいとなかまちだいきょうしつ","corp":"株式会社ＴＲＹ","serviceTypes":["児童発達支援","放課後等デイサービス"],"ward":"横浜市","address":"神奈川県横浜市都筑区仲町台２−１８−６Ｍ・ＩマンションⅡ２０２","tel":"045-482-6559","url":"https://team-try.com","lat":35.53756581,"lng":139.59233375,"weekday":"09:00-17:00","saturday":"09:00-17:00","sunday":"","holiday":"09:00-17:00","closed":"日曜、年末年始等","capacity":10,"id":"1453801027"},{"name":"Ａｌｌ　ｒｉｇｈｔ荏田南教室","nameKana":"おーるらいとえだみなみきょうしつ","corp":"株式会社ＴＲＹ","serviceTypes":["児童発達支援","放課後等デイサービス"],"ward":"横浜市","address":"神奈川県横浜市都筑区荏田南４−２４−１０シャロン・エダ３Ｆ","tel":"045-482-5886","url":"https://team-try.com","lat":35.55015456,"lng":139.55572282,"weekday":"14:30-17:30","saturday":"10:00-16:00","sunday":"","holiday":"09:00-16:00","closed":"日曜日,年末年始（１２月30日から1月３日まで）、事業所が必要と認めた場合を除く","capacity":10,"id":"1453801175"},{"name":"アプリ児童デイサービス都筑ふれあいの丘","nameKana":"あぷりじどうでいさーびすつづきふれあいのおか","corp":"ＡＨＣグループ株式会社","serviceTypes":["児童発達支援","放課後等デイサービス"],"ward":"横浜市","address":"神奈川県横浜市都筑区葛が谷５−１９プレミスト港北サウスヒルズ１階","tel":"045-479-9132","url":"","lat":35.54485291,"lng":139.57053275,"weekday":"13:30-17:30","saturday":"10:30-16:30","sunday":"","holiday":"","closed":"日、年末年始12/31〜1./2","capacity":10,"id":"1453800961"},{"name":"湘南こども村 やまぶき","nameKana":"しょうなんこどもむらやまぶき","corp":"株式会社アイ・エー・アイ","serviceTypes":["児童発達支援","放課後等デイサービス"],"ward":"鎌倉市","address":"神奈川県鎌倉市山崎2333番地6","tel":"0467-53-7941","url":"http://yamab.club","lat":35.33941186,"lng":139.53144118,"weekday":"11:00-17:00","saturday":"","sunday":"","holiday":"","closed":"土曜日、日曜日、国民の祝日、8/13〜8/15、12/29〜1/3、その他事業所","capacity":10,"id":"1452100314"},{"name":"グローバルキッズAct大倉山","nameKana":"ぐろーばるきっずあくとおおくらやま","corp":"株式会社グローバルキッズ","serviceTypes":["児童発達支援"],"ward":"横浜市","address":"神奈川県横浜市港北区大倉山3-58-13","tel":"045-834-7113","url":"https://www.gkids.co.jp/facilities/act_002.html","lat":35.52303741,"lng":139.62499169,"weekday":"10:00-17:00","saturday":"10:00-17:00","sunday":"","holiday":"","closed":"","capacity":10,"id":"1450900434"},{"name":"こどもサポート広場minatos綱島店","nameKana":"こどもさぽーとひろばみなとすつなしまてん","corp":"株式会社ＢＡＭＴＥＣＨ＆ＣＯＭＰＡＮＹ","serviceTypes":["児童発達支援","放課後等デイサービス"],"ward":"横浜市","address":"神奈川県横浜市港北区綱島東1-5-6ボヌール綱島401","tel":"045-717-6460","url":"https://minatos.net/","lat":35.5189546,"lng":139.6328075,"weekday":"10:00-18:40","saturday":"10:00-18:00","sunday":"","holiday":"10:00-18:40","closed":"日曜","capacity":10,"id":"1450900509"},{"name":"こどもサポート広場minatos白楽店","nameKana":"こどもさぽーとひろばみなとすはくらくてん","corp":"株式会社ＢＡＭＴＥＣＨ＆ＣＯＭＰＡＮＹ","serviceTypes":["児童発達支援","放課後等デイサービス"],"ward":"横浜市","address":"神奈川県横浜市神奈川区白幡向町7-2ホーユウコンフォルトレディース白楽101号","tel":"045-717-8901","url":"https://minatos.net/","lat":35.47701119,"lng":139.6293722,"weekday":"","saturday":"","sunday":"","holiday":"","closed":"","capacity":null,"id":"1450200397"},{"name":"グローバルキッズメソッド１３３","nameKana":"ぐろーばるきっずめそっどいちさんさん","corp":"ハッピーライフケア株式会社","serviceTypes":["児童発達支援","放課後等デイサービス"],"ward":"厚木市","address":"神奈川県厚木市及川１−１２−１７","tel":"046-210-4862","url":"https://gkids-park.com/gkpshop/atsugi/","lat":35.46902295,"lng":139.34981431,"weekday":"09:00-18:00","saturday":"09:00-18:00","sunday":"","holiday":"09:00-18:00","closed":"日、祝、年末年始（12/31-1/3）、お盆期間（8/13-16）","capacity":10,"id":"1452900846"},{"name":"スマートキッズソリス横浜","nameKana":"すまーときっずそりすよこはま","corp":"スマートキッズ株式会社","serviceTypes":["児童発達支援","放課後等デイサービス"],"ward":"横浜市","address":"神奈川県横浜市保土ケ谷区天王町1丁目８−９1階","tel":"03-6458-5456","url":"https://smart-kids.co.jp/","lat":35.45577531,"lng":139.60381186,"weekday":"13:30-18:30","saturday":"09:00-16:30","sunday":"","holiday":"09:00-16:30","closed":"木曜日、日曜日","capacity":10,"id":"1450300023"},{"name":"アプリ児童デイサービス川崎田島","nameKana":"あぷりじどうでいさーびすかわさきたじま","corp":"つむぐ株式会社","serviceTypes":["児童発達支援","放課後等デイサービス"],"ward":"川崎市","address":"神奈川県川崎市川崎区鋼管通１−１９−１７","tel":"044-201-4396","url":"http://tsumug.jp/","lat":35.51569052,"lng":139.71394201,"weekday":"13:30-17:30","saturday":"08:30-17:30","sunday":"","holiday":"08:30-17:30","closed":"日曜日、１２月３１日〜１月４日","capacity":10,"id":"1455000255"},{"name":"アプリ児童デイサービス川崎桜本","nameKana":"あぷりじどうでいさーびすかわさきさくらもと","corp":"つむぐ株式会社","serviceTypes":["児童発達支援","放課後等デイサービス"],"ward":"川崎市","address":"神奈川県川崎市川崎区大島３−３４−１３第二宮崎ビル１階","tel":"044-589-5290","url":"http://tsumug.jp/","lat":35.52001481,"lng":139.72000242,"weekday":"13:30-17:30","saturday":"10:00-16:00","sunday":"","holiday":"10:00-16:00","closed":"日曜日　１２月３１日　１月１日〜１月４日","capacity":10,"id":"1455000396"},{"name":"アプリ児童デイサービス川崎諏訪","nameKana":"あぷりじどうでいさーびすかわさきすわ","corp":"つむぐ株式会社","serviceTypes":["児童発達支援","放課後等デイサービス"],"ward":"川崎市","address":"神奈川県川崎市高津区諏訪三丁目１８番８号","tel":"044-543-9641","url":"http://tsumug.jp/","lat":35.60233849,"lng":139.62750154,"weekday":"","saturday":"","sunday":"","holiday":"","closed":"","capacity":null,"id":"1455300119"},{"name":"アプリ児童デイサービス川崎諏訪２号館","nameKana":"あぷりじどうでいさーびすかわさきすわにごうかん","corp":"つむぐ株式会社","serviceTypes":["児童発達支援","放課後等デイサービス"],"ward":"川崎市","address":"神奈川県川崎市宮前区馬絹４−６−２","tel":"044-920-9257","url":"http://tsumug.jp/","lat":35.58123431,"lng":139.59900614,"weekday":"","saturday":"","sunday":"","holiday":"","closed":"","capacity":null,"id":"1455500247"},{"name":"アプリ児童デイサービス川崎末長","nameKana":"あぷりじどうでいさーびすかわさきすえなが","corp":"つむぐ株式会社","serviceTypes":["児童発達支援","放課後等デイサービス"],"ward":"川崎市","address":"神奈川県川崎市高津区末長三丁目１９番８号","tel":"044-789-8914","url":"http://tsumug.jp/","lat":35.58968805,"lng":139.6189648,"weekday":"","saturday":"","sunday":"","holiday":"","closed":"","capacity":10,"id":"1455300341"},{"name":"アプリ児童デイサービス川崎下新城","nameKana":"あぷりじどうでいさーびすかわさきしもしんじょう","corp":"つむぐ株式会社","serviceTypes":["児童発達支援"],"ward":"川崎市","address":"神奈川県川崎市中原区下新城2-3-192階","tel":"044-863-5200","url":"http://tsumug.jp","lat":35.57770073,"lng":139.63355543,"weekday":"13:30-17:30","saturday":"10:00-16:00","sunday":"","holiday":"10:00-16:00","closed":"日曜日","capacity":10,"id":"1455200590"},{"name":"こぱんはうすさくら　横浜すずかけ台教室","nameKana":"こぱんはうすさくらよこはますずかけだいきょうしつ","corp":"エイキッズ株式会社","serviceTypes":["児童発達支援","放課後等デイサービス"],"ward":"横浜市","address":"神奈川県横浜市緑区長津田町５８００−３グリーンヒルズすずかけ台","tel":"045-744-6189","url":"","lat":35.51232112,"lng":139.47855302,"weekday":"10:00-17:00","saturday":"10:00-16:00","sunday":"10:00-16:00","holiday":"10:00-16:00","closed":"年末年始（12/30〜1/3）","capacity":10,"id":"1453300251"},{"name":"コペルプラスセンター北教室","nameKana":"こぺるぷらすせんたーきたきょうしつ","corp":"株式会社ディスカバリープラス","serviceTypes":["児童発達支援"],"ward":"横浜市","address":"神奈川県横浜市都筑区中川中央1-20-15田園キャッスルセンター北　2階 202　","tel":"045-500-9450","url":"https://copelplus.copel.co.jp/school/center-kita/","lat":35.55050796,"lng":139.57831224,"weekday":"10:00-18:00","saturday":"10:00-18:00","sunday":"10:00-18:00","holiday":"00:00-00:00","closed":"月曜・祝日","capacity":10,"id":"1453800425"},{"name":"コペルプラス金沢文庫教室","nameKana":"こぺるぷらすかなざわぶんこきょうしつ","corp":"株式会社ディスカバリープラス","serviceTypes":["児童発達支援"],"ward":"横浜市","address":"神奈川県横浜市金沢区谷津町340金沢文庫シンコービル2階2区画","tel":"045-370-7522","url":"https://discovery-plus.co.jp/","lat":35.34338211,"lng":139.62268323,"weekday":"10:00-18:00","saturday":"10:00-18:00","sunday":"00:00-00:00","holiday":"00:00-00:00","closed":"日曜・月曜・祝日","capacity":10,"id":"1450800170"},{"name":"コペルプラス青葉台教室","nameKana":"こぺるぷらすあおばだいきょうしつ","corp":"株式会社ディスカバリープラス","serviceTypes":["児童発達支援"],"ward":"横浜市","address":"神奈川県横浜市青葉区青葉台一丁目6番16号トーセイビル3階A号室","tel":"045-530-4985","url":"https://copelplus.copel.co.jp/school/aobadai/","lat":35.54182166,"lng":139.51703211,"weekday":"10:00-18:00","saturday":"10:00-18:00","sunday":"00:00-00:00","holiday":"00:00-00:00","closed":"日曜・月曜・祝日","capacity":10,"id":"1453700443"},{"name":"コペルプラス上永谷教室","nameKana":"こぺるぷらすかみながやきょうしつ","corp":"株式会社ディスカバリープラス","serviceTypes":["児童発達支援"],"ward":"横浜市","address":"神奈川県横浜市港南区野庭町108番地1コスモステーション上永谷1階120号室","tel":"045-349-9634","url":"https://copelplus.copel.co.jp/school/kaminagaya/","lat":35.40090187,"lng":139.59252417,"weekday":"10:00-18:00","saturday":"10:00-18:00","sunday":"00:00-00:00","holiday":"00:00-00:00","closed":"日曜・月曜・祝日","capacity":10,"id":"1453100396"},{"name":"コペルプラス藤沢教室","nameKana":"こぺるぷらすふじさわきょうしつ","corp":"株式会社ディスカバリープラス","serviceTypes":["児童発達支援"],"ward":"藤沢市","address":"神奈川県藤沢市南藤沢１７番１６号秋山ビルⅡ４０２号室","tel":"0466-47-8510","url":"https://copelplus.copel.co.jp/school/fujisawa/","lat":35.33641164,"lng":139.49078544,"weekday":"10:00-18:00","saturday":"10:00-18:00","sunday":"10:00-18:00","holiday":"00:00-00:00","closed":"月曜・火曜・祝日","capacity":10,"id":"1452200742"},{"name":"コペルプラス中央林間教室","nameKana":"こぺるぷらすちゅうおうりんかんきょうしつ","corp":"株式会社ディスカバリープラス","serviceTypes":["児童発達支援"],"ward":"大和市","address":"神奈川県大和市中央林間３丁目４番６号第一天地ビル３階","tel":"0462-05-7541","url":"https://copelplus.copel.co.jp/school/chuorinkan/","lat":35.50817832,"lng":139.44344702,"weekday":"10:00-18:00","saturday":"10:00-18:00","sunday":"10:00-18:00","holiday":"00:00-00:00","closed":"月曜・祝日","capacity":10,"id":"1453000349"},{"name":"コペルプラス海老名教室","nameKana":"こぺるぷらすえびなきょうしつ","corp":"株式会社ディスカバリープラス","serviceTypes":["児童発達支援"],"ward":"海老名市","address":"神奈川県海老名市中央3丁目2番17号弁柄ビル3階","tel":"046-200-7750","url":"https://copelplus.copel.co.jp/school/ebina/","lat":35.44963649,"lng":139.39113124,"weekday":"10:00-18:00","saturday":"10:00-18:00","sunday":"10:00-18:00","holiday":"00:00-00:00","closed":"月曜・祝日","capacity":10,"id":"1454200252"},{"name":"コペルプラス　向ケ丘遊園教室","nameKana":"こぺるぷらすむこうがおかゆうえんきょうしつ","corp":"株式会社ディスカバリープラス","serviceTypes":["児童発達支援"],"ward":"川崎市","address":"神奈川県川崎市多摩区登戸１９１８番地ウォルストンビルヂング2階","tel":"044-455-7131","url":"https://copelplus.copel.co.jp/school/mukogaoka/","lat":35.6195388,"lng":139.5621521,"weekday":"10:00-18:00","saturday":"10:00-18:00","sunday":"10:00-18:00","holiday":"00:00-00:00","closed":"月曜・祝日","capacity":10,"id":"1455400273"},{"name":"コペルプラス　新川崎教室","nameKana":"こぺるぷらすしんかわさききょうしつ","corp":"株式会社ディスカバリープラス","serviceTypes":["児童発達支援"],"ward":"川崎市","address":"神奈川県川崎市幸区下平間111-2Pleaseビル401号","tel":"044-233-6313","url":"https://discovery-plus.co.jp/","lat":35.5442926,"lng":139.6867716,"weekday":"10:00-18:00","saturday":"10:00-18:00","sunday":"00:00-00:00","holiday":"00:00-00:00","closed":"日曜・月曜・祝日","capacity":10,"id":"1455100337"},{"name":"運動療育スパーク逗子×山本メディカル","nameKana":"うんどうりょういくすぱーくずしかけるやまもとめでぃかる","corp":"株式会社Ａｌｐｈａ","serviceTypes":["児童発達支援","放課後等デイサービス"],"ward":"逗子市","address":"神奈川県逗子市桜山三丁目１９番１７号","tel":"090-7940-4062","url":"https://spark-ymc.com/","lat":35.29836353,"lng":139.59184399,"weekday":"10:00-18:00","saturday":"10:00-18:00","sunday":"10:00-18:00","holiday":"10:00-18:00","closed":"日曜日・月曜日　年末年始12/31から1/3","capacity":10,"id":"1452500109"},{"name":"ハビー湘南台教室","nameKana":"はびーしょうなんだいきょうしつ","corp":"ウェルビー株式会社","serviceTypes":["児童発達支援"],"ward":"藤沢市","address":"神奈川県藤沢市湘南台２−１３−１０神中第５ビル４階","tel":"0466-47-7802","url":"https://www.habii.jp/classroom/shonandai/","lat":35.39489302,"lng":139.46775408,"weekday":"09:45-17:00","saturday":"09:45-17:00","sunday":"09:45-17:00","holiday":"09:45-17:00","closed":"年末年始","capacity":10,"id":"1452200718"},{"name":"ハビー本厚木教室","nameKana":"はびーほんあつぎきょうしつ","corp":"ウェルビー株式会社","serviceTypes":["児童発達支援","放課後等デイサービス"],"ward":"厚木市","address":"神奈川県厚木市旭町二丁目8−21YSビル2-A号室","tel":"046-288-6011","url":"https://www.habii.jp/class/kanagawa/honatsugi/","lat":35.43782107,"lng":139.36591079,"weekday":"09:45-17:30","saturday":"09:45-17:30","sunday":"09:45-17:30","holiday":"09:45-17:30","closed":"年末年始","capacity":10,"id":"1452900473"},{"name":"ハビー大和教室","nameKana":"はびーやまときょうしつ","corp":"ウェルビー株式会社","serviceTypes":["児童発達支援","放課後等デイサービス"],"ward":"大和市","address":"神奈川県大和市中央二丁目2番1号Ｙ-フロント4階Ⅰ","tel":"046-240-8591","url":"https://www.habii.jp/classroom/yamato/","lat":35.47036888,"lng":139.45920036,"weekday":"09:45-17:30","saturday":"09:45-17:30","sunday":"09:45-17:30","holiday":"09:45-17:30","closed":"年末年始","capacity":10,"id":"1453000448"},{"name":"ハビー茅ヶ崎駅前教室","nameKana":"はびーちがさきえきまえきょうしつ","corp":"ウェルビー株式会社","serviceTypes":["児童発達支援","放課後等デイサービス"],"ward":"茅ヶ崎市","address":"神奈川県茅ヶ崎市新栄町１番２号川上ビル３階","tel":"0467-50-0160","url":"https://www.habii.jp/class/kanagawa/chigasakiekimae/","lat":35.33033463,"lng":139.40543518,"weekday":"09:45-17:30","saturday":"09:45-17:30","sunday":"09:45-17:30","holiday":"09:45-17:30","closed":"年末年始","capacity":10,"id":"1452400557"},{"name":"ハビー藤沢教室","nameKana":"はびーふじさわきょうしつ","corp":"ウェルビー株式会社","serviceTypes":["児童発達支援"],"ward":"藤沢市","address":"神奈川県藤沢市藤沢１０１５−１４リブレ藤沢６階","tel":"0466-47-6381","url":"https://www.habii.jp/classroom/fujisawa/","lat":35.34169422,"lng":139.4835972,"weekday":"09:45-17:00","saturday":"09:45-17:00","sunday":"09:45-17:00","holiday":"09:45-17:00","closed":"年末年始","capacity":10,"id":"1452200585"},{"name":"ハビー関内教室","nameKana":"はびーかんないきょうしつ","corp":"ウェルビー株式会社","serviceTypes":["児童発達支援"],"ward":"横浜市","address":"神奈川県横浜市中区羽衣町３−７６−３アクセラ21ビル3階","tel":"045-341-3920","url":"https://www.habii.jp/classroom/kannai/","lat":35.4446685,"lng":139.6421529,"weekday":"09:45-17:00","saturday":"09:45-17:00","sunday":"09:45-17:00","holiday":"09:45-17:00","closed":"年末年始","capacity":10,"id":"1450400112"},{"name":"ハビーセンター北教室","nameKana":"はびーせんたーきたきょうしつ","corp":"ウェルビー株式会社","serviceTypes":["児童発達支援"],"ward":"横浜市","address":"神奈川県横浜市都筑区牛久保西１−１０−９吾生ビル２０１","tel":"045-479-1570","url":"https://www.habii.jp/class/kanagawa/centerkita/","lat":35.55639603,"lng":139.5803756,"weekday":"09:45-17:00","saturday":"09:45-17:00","sunday":"09:45-17:00","holiday":"09:45-17:00","closed":"年末年始","capacity":10,"id":"1453800300"},{"name":"ハビーたまプラーザ教室","nameKana":"はびーたまぷらーざきょうしつ","corp":"ウェルビー株式会社","serviceTypes":["児童発達支援","放課後等デイサービス"],"ward":"横浜市","address":"神奈川県横浜市青葉区美しが丘二丁目19番2号たまプラーザパークライフビル3階","tel":"045-532-5496","url":"https://www.habii.jp/class/kanagawa/tamapla/","lat":35.55282346,"lng":139.53701885,"weekday":"09:45-17:30","saturday":"09:45-17:30","sunday":"09:45-17:30","holiday":"09:45-17:30","closed":"年末年始","capacity":10,"id":"1453700427"},{"name":"ハビー金沢八景駅前教室","nameKana":"はびーかなざわはっけいえきまえきょうしつ","corp":"ウェルビー株式会社","serviceTypes":["児童発達支援"],"ward":"横浜市","address":"神奈川県横浜市金沢区瀬戸16-33つきのわビル2階","tel":"045-367-8820","url":"https://www.habii.jp/class/kanagawa/kanazawahakkeiekimae/","lat":35.33118096,"lng":139.62089981,"weekday":"09:45-17:00","saturday":"09:45-17:00","sunday":"09:45-17:00","holiday":"09:45-17:00","closed":"火曜日、当社で定めた年末年始休暇","capacity":10,"id":"1450800279"},{"name":"ハビー高津駅前教室","nameKana":"はびーたかつえきまえきょうしつ","corp":"ウェルビー株式会社","serviceTypes":["児童発達支援"],"ward":"川崎市","address":"神奈川県川崎市高津区溝口3-7-11高津駅前Ｊ’ｓビル5階","tel":"044-543-9240","url":"https://www.habii.jp/class/kanagawa/takatsuekimae/","lat":35.6031386,"lng":139.61574751,"weekday":"09:45-17:00","saturday":"09:45-17:00","sunday":"09:45-17:00","holiday":"09:45-17:00","closed":"月曜日、火曜日、当社で定めた年末年始休暇","capacity":10,"id":"1455300622"},{"name":"ハビー相模大野ジョイモアーズ教室","nameKana":"はびーさがみおおのじょいもあーずきょうしつ","corp":"ウェルビー株式会社","serviceTypes":["児童発達支援","放課後等デイサービス"],"ward":"相模原市","address":"神奈川県相模原市南区相模大野３丁目９番１号相模大野ジョイモアーズ４階","tel":"042-702-9520","url":"https://www.habii.jp/class/kanagawa/sagamionojoymores/","lat":35.53030438,"lng":139.43022521,"weekday":"09:45-17:30","saturday":"09:45-17:30","sunday":"09:45-17:30","holiday":"09:45-17:30","closed":"当社で定めた年末年始休暇","capacity":10,"id":"1452602103"},{"name":"ハビー橋本教室","nameKana":"はびーはしもときょうしつ","corp":"ウェルビー株式会社","serviceTypes":["児童発達支援"],"ward":"相模原市","address":"神奈川県相模原市緑区橋本２丁目６番２号フルセイユ橋本Ⅴ３階","tel":"042-703-5911","url":"https://www.habii.jp/class/kanagawa/hashimoto/","lat":35.59625499,"lng":139.34156979,"weekday":"09:45-17:30","saturday":"09:45-17:30","sunday":"09:45-17:30","holiday":"09:45-17:30","closed":"月曜日、火曜日、当社が定める年末年始休暇","capacity":10,"id":"1452602392"},{"name":"ハビー相模大野教室","nameKana":"はびーさがみおおのきょうしつ","corp":"ウェルビー株式会社","serviceTypes":["児童発達支援"],"ward":"相模原市","address":"神奈川県相模原市南区相模大野３−１９−１３　アーベイン相模　６０１","tel":"042-851-6701","url":"https://www.habii.jp/classroom/sagamiono/","lat":35.5338345,"lng":139.4363717,"weekday":"09:45-17:00","saturday":"09:45-17:00","sunday":"09:45-17:00","holiday":"09:45-17:00","closed":"年末年始","capacity":10,"id":"1452600891"},{"name":"コペルプラス相模原教室","nameKana":"こぺるぷらすさがみはらきょうしつ","corp":"株式会社ディスカバリープラス","serviceTypes":["児童発達支援"],"ward":"相模原市","address":"神奈川県相模原市中央区中央区相模原２丁目１番７号　樋口ビル３階","tel":"042-751-5155","url":"https://copelplus.copel.co.jp/school/sagamihara/","lat":35.57970334,"lng":139.37016766,"weekday":"10:00-18:00","saturday":"10:00-18:00","sunday":"10:00-18:00","holiday":"00:00-00:00","closed":"月曜・祝日","capacity":10,"id":"1452601030"},{"name":"エデュリー発達支援川崎駅前教室","nameKana":"えでゅりーはったつしえんかわさきえきまえきょうしつ","corp":"株式会社エデュリー","serviceTypes":["児童発達支援"],"ward":"川崎市","address":"神奈川県川崎市川崎区駅前本町23-2　楠ビル川崎駅前２F","tel":"044-400-1570","url":"https://edulead.jp/school/kawasaki","lat":35.53387703,"lng":139.70102864,"weekday":"09:30-17:00","saturday":"09:30-17:00","sunday":"09:30-17:00","holiday":"09:30-17:00","closed":"月曜日・水曜日","capacity":10,"id":"1455000776"},{"name":"児童発達支援　放課後等デイサービス　オハナの家","nameKana":"じどうはったつしえんほうかごとうでいさーびすおはなのいえ","corp":"アーキエステート株式会社","serviceTypes":["児童発達支援","放課後等デイサービス"],"ward":"横浜市","address":"神奈川県横浜市神奈川区三ツ沢南町６−９","tel":"045-620-3200","url":"https://ohana-family.net/","lat":35.47131522,"lng":139.60836679,"weekday":"10:00-11:30","saturday":"","sunday":"","holiday":"","closed":"土曜日、日曜日、祝日、8月13日〜16日、12月29日〜翌1月7日","capacity":10,"id":"1450200496"},{"name":"コペルプラス新横浜教室","nameKana":"こぺるぷらすしんよこはまきょうしつ","corp":"東食品株式会社","serviceTypes":["児童発達支援"],"ward":"横浜市","address":"神奈川県横浜市港北区新横浜一丁目２５番１号コナカ新横浜岸根店内","tel":"045-577-4845","url":"https://copelplus.copel.co.jp/school/shin-yokohama/","lat":35.50316158,"lng":139.60769672,"weekday":"10:00-18:00","saturday":"10:00-18:00","sunday":"","holiday":"","closed":"日、月","capacity":10,"id":"1450900715"},{"name":"TAKUMI川崎戸手","nameKana":"たくみかわさきとて","corp":"イニシアス株式会社","serviceTypes":["児童発達支援","放課後等デイサービス"],"ward":"川崎市","address":"神奈川県川崎市幸区戸手1-6-6エアリーアベニュー1階","tel":"044-742-7888","url":"","lat":35.54429256,"lng":139.68677156,"weekday":"13:00-17:45","saturday":"10:00-15:40","sunday":"10:00-15:40","holiday":"13:00-17:45","closed":"法人が定める休業日（年末年始）","capacity":10,"id":"1455100287"},{"name":"TAKUMI高津","nameKana":"たくみたかつ","corp":"イニシアス株式会社","serviceTypes":["児童発達支援","放課後等デイサービス"],"ward":"川崎市","address":"神奈川県川崎市高津区北見方2-16-1高津ゆうあいメディカルモール302","tel":"044-455-6123","url":"","lat":35.59937274,"lng":139.60786556,"weekday":"13:00-17:45","saturday":"10:00-15:40","sunday":"10:00-15:40","holiday":"13:00-17:45","closed":"法人が定める休業日、年末年始","capacity":10,"id":"1455300416"},{"name":"TAKUMI登戸","nameKana":"たくみのぼりと","corp":"イニシアス株式会社","serviceTypes":["児童発達支援","放課後等デイサービス"],"ward":"川崎市","address":"神奈川県川崎市多摩区中野島4-19-24バードタウンプラザ201","tel":"044-455-4156","url":"","lat":35.61953879,"lng":139.56215207,"weekday":"13:00-17:45","saturday":"10:00-15:40","sunday":"10:00-15:40","holiday":"13:00-17:45","closed":"法人が定める休業日、年末年始","capacity":10,"id":"1455400364"},{"name":"TAKUMI川崎","nameKana":"たくみかわさき","corp":"イニシアス株式会社","serviceTypes":["児童発達支援","放課後等デイサービス"],"ward":"川崎市","address":"神奈川県川崎市川崎区大島4-23-13コーポ綿屋第2　101号室","tel":"044-280-8995","url":"","lat":35.52276171,"lng":139.71536663,"weekday":"13:00-17:45","saturday":"10:00-15:40","sunday":"10:00-15:40","holiday":"13:00-17:45","closed":"法人が定める会社休業日（年末年始等）","capacity":10,"id":"1455000552"},{"name":"ＴＡＫＵＭＩ武蔵小杉","nameKana":"たくみむさしこすぎ","corp":"イニシアス株式会社","serviceTypes":["児童発達支援","放課後等デイサービス"],"ward":"川崎市","address":"神奈川県川崎市中原区中丸子356StRurico1101","tel":"044-872-8286","url":"","lat":35.56859725,"lng":139.66995812,"weekday":"13:00-17:45","saturday":"10:00-15:40","sunday":"10:00-15:40","holiday":"13:00-17:45","closed":"法人が定める休業日、年末年始","capacity":10,"id":"1455200574"},{"name":"TAKUMI阪東橋","nameKana":"たくみばんどうばし","corp":"イニシアス株式会社","serviceTypes":["児童発達支援","放課後等デイサービス"],"ward":"横浜市","address":"神奈川県横浜市南区高根町3-17-28マークス横濱阪東橋201","tel":"045-315-5895","url":"","lat":35.43440886,"lng":139.62750164,"weekday":"13:00-17:45","saturday":"10:00-15:40","sunday":"10:00-15:40","holiday":"13:00-17:45","closed":"法人が定める休業日、年末年始","capacity":10,"id":"1450500291"},{"name":"TAKUMI北山田","nameKana":"たくみきたやまた","corp":"イニシアス株式会社","serviceTypes":["児童発達支援","放課後等デイサービス"],"ward":"横浜市","address":"神奈川県横浜市都筑区北山田１−１２−６功光ビルⅡ　２階","tel":"045-577-4100","url":"","lat":35.5610513,"lng":139.59397134,"weekday":"13:00-17:45","saturday":"10:00-15:40","sunday":"10:00-15:40","holiday":"13:00-17:45","closed":"木曜・年末年始","capacity":10,"id":"1453800904"},{"name":"TAKUMIセンター南","nameKana":"たくみせんたーみなみ","corp":"イニシアス株式会社","serviceTypes":["児童発達支援","放課後等デイサービス"],"ward":"横浜市","address":"神奈川県横浜市都筑区茅ケ崎中央４６−４","tel":"045-479-4080","url":"","lat":35.54602785,"lng":139.57342406,"weekday":"13:00-17:45","saturday":"10:00-15:40","sunday":"10:00-15:40","holiday":"13:00-17:45","closed":"火曜、金曜、年末年始","capacity":10,"id":"1453800995"},{"name":"こども発達らぼ＆ｋｉｄｓ相模原","nameKana":"こどもはったつらぼあんどきっずさがみはら","corp":"株式会社　唯愛国際","serviceTypes":["児童発達支援"],"ward":"相模原市","address":"神奈川県相模原市中央区中央３丁目１０番４号セントラルメゾン１階","tel":"042-816-2929","url":"https://www.sagamihara.andkids.jp/","lat":35.57137363,"lng":139.37323431,"weekday":"10:00-16:00","saturday":"","sunday":"","holiday":"","closed":"土日祝日","capacity":10,"id":"1452601865"},{"name":"てらぴぁぽけっと大倉山教室","nameKana":"てらぴぁぽけっとおおくらやまきょうしつ","corp":"合同会社YTK","serviceTypes":["児童発達支援"],"ward":"横浜市","address":"神奈川県横浜市港北区大倉山3丁目58-13","tel":"045-834-7308","url":"","lat":35.52303742,"lng":139.6249917,"weekday":"10:00-17:00","saturday":"10:00-17:00","sunday":"10:00-17:00","holiday":"10:00-17:00","closed":"年末年始（12/31〜1/3）","capacity":10,"id":"1450900574"},{"name":"座間市立児童発達支援センター　サニーキッズ","nameKana":"ざましりつじどうはったつしえんせんたーさにーきっず","corp":"社会福祉法人日本キリスト教奉仕団","serviceTypes":["児童発達支援","放課後等デイサービス","居宅訪問型児童発達支援"],"ward":"座間市","address":"神奈川県座間市小松原１−４５−２１","tel":"046-259-7121","url":"","lat":35.49833438,"lng":139.43188453,"weekday":"08:30-17:15","saturday":"","sunday":"","holiday":"","closed":"土曜日、日曜日、祝日、年末年始","capacity":30,"id":"1454100379"},{"name":"TEENS関内","nameKana":"てぃーんずかんない","corp":"株式会社Ｋａｉｅｎ","serviceTypes":["児童発達支援"],"ward":"横浜市","address":"神奈川県横浜市中区長者町4-9-2第6吉本ビル2階","tel":"050-2018-3567","url":"","lat":35.44056911,"lng":139.63410932,"weekday":"","saturday":"","sunday":"","holiday":"","closed":"","capacity":null,"id":"1450400153"},{"name":"ハッピーキッズスペースみんと横浜吉野町","nameKana":"はっぴーきっずすぺーすみんとよこはまよしのちょう","corp":"株式会社明光ランウェルネス","serviceTypes":["児童発達支援","放課後等デイサービス"],"ward":"横浜市","address":"神奈川県横浜市南区南吉田町３−３６エナジー吉野町１階","tel":"045-250-1051","url":"https://www.runwellness.co.jp/mint/","lat":35.43653076,"lng":139.61867447,"weekday":"13:30-17:30","saturday":"10:00-16:00","sunday":"10:00-16:00","holiday":"10:00-16:00","closed":"無休（12月31日〜1月3日を除く）","capacity":10,"id":"1450500150"},{"name":"ハッピーキッズスペースみんと横浜センター北","nameKana":"はっぴーきっずすぺーすみんとよこはませんたーきた","corp":"株式会社明光ランウェルネス","serviceTypes":["児童発達支援","放課後等デイサービス"],"ward":"横浜市","address":"神奈川県横浜市都筑区牛久保東１−32−33サンヒルズセンター北店舗　C号室","tel":"045-590-2251","url":"https://www.runwellness.co.jp/mint/","lat":35.55489357,"lng":139.58210053,"weekday":"13:30-17:30","saturday":"10:00-16:00","sunday":"","holiday":"10:00-16:00","closed":"日（12月31日〜1月3日を除く）","capacity":10,"id":"1453800599"},{"name":"ハッピーキッズスペースみんと川崎新城","nameKana":"はっぴーきっずすぺーすみんとかわさきしんじょう","corp":"株式会社ランウェルネス","serviceTypes":["児童発達支援","放課後等デイサービス"],"ward":"川崎市","address":"神奈川県川崎市中原区新城二丁目６番８号","tel":"044-751-2600","url":"https://www.runwellness.co.jp/mint/","lat":35.58262222,"lng":139.63082485,"weekday":"13:30-17:30","saturday":"10:00-16:00","sunday":"10:00-16:00","holiday":"10:00-16:00","closed":"無休(12月31日〜1月3日を除く)","capacity":10,"id":"1455200285"},{"name":"ハッピーキッズスペースみんと川崎子母口","nameKana":"はっぴーきっずすぺーすみんとかわさきしぼぐち","corp":"株式会社ランウェルネス","serviceTypes":["児童発達支援","放課後等デイサービス"],"ward":"川崎市","address":"神奈川県川崎市高津区子母口３４３","tel":"044-751-4510","url":"https://www.runwellness.co.jp/mint/","lat":35.57299318,"lng":139.63121985,"weekday":"13:30-17:30","saturday":"10:00-16:00","sunday":"10:00-16:00","holiday":"10:00-16:00","closed":"無休（12月31日〜1月3日迄をを除く）","capacity":10,"id":"1455300150"},{"name":"ハッピーキッズスペースみんと川崎平間","nameKana":"はっぴーきっずすおえーすみんとかわさきひらま","corp":"株式会社ランウェルネス","serviceTypes":["児童発達支援","放課後等デイサービス"],"ward":"川崎市","address":"神奈川県川崎市中原区上平間１３８６−１第2ヤマサンビル１階","tel":"044-542-5507","url":"https://www.runwellness.co.jp/mint/","lat":35.55969027,"lng":139.67922441,"weekday":"13:30-17:30","saturday":"10:00-16:00","sunday":"10:00-16:00","holiday":"10:00-16:00","closed":"無休（12月31日〜1月3日は除く）","capacity":10,"id":"1455200475"},{"name":"コペルプラス　宮前菅生教室","nameKana":"こぺるぷらすみやまえすがおきょうしつ","corp":"株式会社コペル","serviceTypes":["児童発達支援"],"ward":"川崎市","address":"神奈川県川崎市宮前区菅生1-8-23紳士服コナカ宮前菅生店","tel":"044-872-9034","url":"https://copelplus.copel.co.jp/school/miyamae-sugao/","lat":35.58926829,"lng":139.5787908,"weekday":"10:00-18:00","saturday":"10:00-18:00","sunday":"","holiday":"","closed":"国民の祝日、８月１３日から ８月１５日、１２月３０日から１月３日までを除く。","capacity":10,"id":"1455500494"},{"name":"ここっと","nameKana":"ここっと","corp":"株式会社Vivace","serviceTypes":["児童発達支援","放課後等デイサービス"],"ward":"川崎市","address":"神奈川県川崎市川崎区藤崎4-17-202","tel":"044-223-8478","url":"http://cocotto-kawasaki.com","lat":35.52495853,"lng":139.72177705,"weekday":"10:00-13:10","saturday":"09:00-16:00","sunday":"","holiday":"","closed":"日曜日,祝日","capacity":10,"id":"1455000586"},{"name":"弘済学園児童発達支援センター「すきっぷ」","nameKana":"こうさいがくえんじどうはったつしえんせんたーすきっぷ","corp":"公益財団法人鉄道弘済会","serviceTypes":["児童発達支援"],"ward":"秦野市","address":"神奈川県秦野市北矢名１１９５−３弘済学園 2階","tel":"0463-77-3222","url":"http://www.kousaikai.or.jp/school/","lat":35.37145098,"lng":139.25980359,"weekday":"09:00-16:00","saturday":"00:00-00:00","sunday":"00:00-00:00","holiday":"00:00-00:00","closed":"土曜　日曜　祝日　　（夏休み・冬休み・春休みもあり）","capacity":30,"id":"1452800202"},{"name":"らいおんハート遊びリテーション児童デイ大和","nameKana":"らいおんはーとあそびりてーしょんじどうでいやまと","corp":"一般社団法人医療介護ケア協会","serviceTypes":["児童発達支援","放課後等デイサービス"],"ward":"大和市","address":"神奈川県大和市南林間1−4−15","tel":"046-244-6719","url":"https://lion-heart.co/kids/","lat":35.49424036,"lng":139.44798892,"weekday":"13:00-17:00","saturday":"10:00-15:00","sunday":"","holiday":"10:00-15:00","closed":"日曜日","capacity":10,"id":"1453000455"},{"name":"らいおんハートからだの児童デイサービス大和","nameKana":"らいおんはーとからだのじどうでいさーびすやまと","corp":"一般社団法人医療介護ケア協会","serviceTypes":["児童発達支援","放課後等デイサービス"],"ward":"大和市","address":"神奈川県大和市中央林間２−１４−１０","tel":"046-240-0813","url":"https://kids.lion-heart.co/","lat":35.50389043,"lng":139.44899395,"weekday":"","saturday":"","sunday":"","holiday":"","closed":"土日、年末年始（１２月３０日〜１月４日）","capacity":5,"id":"1453000588"},{"name":"らいおんハート遊びリテーション児童デイ相武台","nameKana":"らいおんはーとあそびりてーしょんじどうでいそうぶだい","corp":"一般社団法人医療介護ケア協会","serviceTypes":["児童発達支援","放課後等デイサービス"],"ward":"相模原市","address":"神奈川県相模原市南区新磯野１丁目１０番６号ステイエム相模原南1002","tel":"046-206-7433","url":"https://lion-heart.co/kids/","lat":35.51078032,"lng":139.40528665,"weekday":"10:00-14:00","saturday":"","sunday":"","holiday":"10:00-14:00","closed":"土日、年末年始（12/30〜1/4）","capacity":10,"id":"1452601667"},{"name":"らいおんハート遊びリテーション児童デイらぷあ相模原","nameKana":"らいおんはーとあそびりてーしょんじどうでいらぷあさがみはら","corp":"一般社団法人医療介護ケア協会","serviceTypes":["児童発達支援","放課後等デイサービス"],"ward":"相模原市","address":"神奈川県相模原市中央区氷川町１７番６号マ・シャンブル相模原１０１","tel":"042-711-7207","url":"","lat":35.58238967,"lng":139.36244332,"weekday":"10:30-13:30","saturday":"","sunday":"","holiday":"10:30-13:30","closed":"土曜日・日曜日","capacity":10,"id":"1452601691"},{"name":"らいおんハート遊びリテーション児童デイらぷあ淵野辺","nameKana":"らいおんはーとあそびりてーしょんじどうでいらぷあふちのべ","corp":"一般社団法人医療介護ケア協会","serviceTypes":["児童発達支援","放課後等デイサービス"],"ward":"相模原市","address":"神奈川県相模原市中央区共和１丁目７番１０号","tel":"042-707-4160","url":"https://kids.lion-heart.co/","lat":35.56313655,"lng":139.39875209,"weekday":"10:30-13:30","saturday":"","sunday":"","holiday":"10:30-13:30","closed":"土曜日、日曜日、年末年始（12月30日〜1月4日）","capacity":10,"id":"1452601709"},{"name":"元氣ジムＪｒ．東戸塚","nameKana":"げんきじむじゅにあひがしとつか","corp":"株式会社ルネサンス","serviceTypes":["児童発達支援","放課後等デイサービス"],"ward":"横浜市","address":"神奈川県横浜市戸塚区平戸町１０２０−１レジデンスイシハン１階","tel":"045-826-0515","url":"https://genki-gym-jr.s-re.jp/","lat":35.400012,"lng":139.5334821,"weekday":"10:00-18:00","saturday":"10:00-18:00","sunday":"","holiday":"10:00-16:00","closed":"日曜日","capacity":10,"id":"1451000226"},{"name":"Onestepsmile日野教室","nameKana":"わんすてっぷすまいるひのきょうしつ","corp":"株式会社JUNCTION","serviceTypes":["児童発達支援"],"ward":"墨田区","address":"東京都墨田区東向島牧野ビル1F","tel":"0363227083","url":"https://onestepsmile-hino.jp/","lat":35.71040718,"lng":139.80155995,"weekday":"","saturday":"","sunday":"","holiday":"","closed":"","capacity":null,"id":"1453100362"},{"name":"AIAI PLUS 新百合ヶ丘","nameKana":"あいあいぷらすしんゆりがおか","corp":"AIAI Child Care株式会社","serviceTypes":["児童発達支援"],"ward":"川崎市","address":"神奈川県川崎市麻生区万福寺３丁目１２−７　３階","tel":"044-455-4135","url":"","lat":35.60712121,"lng":139.51105193,"weekday":"","saturday":"","sunday":"","holiday":"","closed":"","capacity":null,"id":"1455600484"},{"name":"コラゾン横浜コットンハーバー","nameKana":"こらぞんよこはまこっとんはーばー","corp":"株式会社オーカ","serviceTypes":["児童発達支援","放課後等デイサービス"],"ward":"横浜市","address":"神奈川県横浜市神奈川区星野町１０ヒストリアレジデンス海舟１０６","tel":"045-444-2455","url":"https://corazon-kid.com/studio/yokohama.php","lat":35.47701119,"lng":139.6293722,"weekday":"14:00-18:30","saturday":"10:00-15:30","sunday":"","holiday":"10:00-15:30","closed":"日曜日、月曜日","capacity":10,"id":"1450200124"},{"name":"リエゾン横浜センター南","nameKana":"りえぞんよこはませんたーみなみ","corp":"株式会社オーカ","serviceTypes":["児童発達支援","放課後等デイサービス"],"ward":"横浜市","address":"神奈川県横浜市都筑区茅ケ崎中央７−７レスターテ港北２０２号室","tel":"045-530-9679","url":"https://l-zon.com/studio/center-minami/","lat":35.54485291,"lng":139.57053275,"weekday":"10:15-17:30","saturday":"10:00-15:30","sunday":"","holiday":"10:00-15:30","closed":"日曜日、月曜日","capacity":10,"id":"1453800409"},{"name":"コラゾン横浜センター南","nameKana":"こらぞんよこはませんたーみなみ","corp":"株式会社オーカ","serviceTypes":["児童発達支援","放課後等デイサービス"],"ward":"横浜市","address":"神奈川県横浜市都筑区茅ケ崎中央７−１０アートヒルズセンター南２階２０２号室","tel":"045-507-6779","url":"https://corazon-kid.com/studio/center-minami/","lat":35.54485291,"lng":139.57053275,"weekday":"14:15-18:45","saturday":"10:00-15:30","sunday":"","holiday":"10:00-15:30","closed":"日曜日、月曜日","capacity":10,"id":"1453800524"},{"name":"リエゾン港北ニュータウン仲町台","nameKana":"りえぞんこうほくにゅーたうんなかまちだい","corp":"株式会社オーカ","serviceTypes":["児童発達支援","放課後等デイサービス"],"ward":"横浜市","address":"神奈川県横浜市都筑区仲町台5-1-31グランデュール仲町台1階102号室","tel":"045-530-4746","url":"https://l-zon.com/studio/nakamachidai/","lat":35.54485291,"lng":139.57053275,"weekday":"14:00-18:30","saturday":"10:00-15:30","sunday":"","holiday":"10:00-15:30","closed":"日曜日、月曜日","capacity":10,"id":"1453800755"},{"name":"リコゾン横浜中山","nameKana":"りこぞんよこはまなかやま","corp":"株式会社オーカ","serviceTypes":["児童発達支援","放課後等デイサービス"],"ward":"横浜市","address":"神奈川県横浜市緑区中山一丁目１０番２８中山ガーデンハウス１０３","tel":"045-507-8483","url":"https://l-zon.com/studio/nakayama/","lat":35.51609239,"lng":139.54193865,"weekday":"14:15-18:45","saturday":"10:00-15:30","sunday":"","holiday":"10:00-15:30","closed":"日曜日、月曜日","capacity":10,"id":"1453300228"},{"name":"リエゾン川崎鷺沼","nameKana":"りえぞんかわさきさぎぬま","corp":"株式会社オーカ","serviceTypes":["児童発達支援"],"ward":"川崎市","address":"神奈川県川崎市宮前区鷺沼1-2-2ルミエール鷺沼1階101号室","tel":"044-948-4452","url":"https://l-zon.com/studio/saginuma/","lat":35.57815616,"lng":139.57498056,"weekday":"10:15-17:30","saturday":"10:00-15:30","sunday":"","holiday":"10:00-15:30","closed":"日曜日、月曜日","capacity":10,"id":"1455500395"},{"name":"リエゾン溝の口","nameKana":"りえぞんみぞのくち","corp":"株式会社オーカ","serviceTypes":["児童発達支援"],"ward":"川崎市","address":"神奈川県川崎市高津区下作延1-3-3トクガビル1階","tel":"044-455-7625","url":"https://l-zon.com/studio/mizonokuchi/","lat":35.6013668,"lng":139.60803754,"weekday":"10:15-17:30","saturday":"10:00-15:30","sunday":"","holiday":"10:00-15:30","closed":"日曜日、月曜日","capacity":10,"id":"1455300531"},{"name":"アートチャイルドケアSEDスクール横浜センター南","nameKana":"あーとちゃいるどけあせっどすくーるよこはませんたーみなみ","corp":"アートチャイルドケア株式会社","serviceTypes":["児童発達支援","放課後等デイサービス"],"ward":"横浜市","address":"神奈川県横浜市都筑区茅ケ崎中央５１−１４ルノンセンター南２階","tel":"045-507-6451","url":"https://www.the0123child.com/sedschool/","lat":35.5459502,"lng":139.57607104,"weekday":"09:00-17:00","saturday":"09:00-17:00","sunday":"","holiday":"09:00-17:00","closed":"日・月およびGW5/3〜5/5、年末年始12/29〜1/3","capacity":10,"id":"1453800441"},{"name":"クロッカFujisawaSST","nameKana":"くろっかふじさわえすえすてぃ","corp":"株式会社学研ココファン・ナーサリー","serviceTypes":["児童発達支援"],"ward":"藤沢市","address":"神奈川県藤沢市辻堂元町６丁目17番1号WellnessSQUARE南館１階","tel":"0466-54-7951","url":"https://gakken-klocka.com/","lat":35.33661665,"lng":139.46362939,"weekday":"09:30-16:40","saturday":"","sunday":"","holiday":"","closed":"土日祝日及び12月29日から1月3日","capacity":10,"id":"1452200908"},{"name":"クロッカ湘南台","nameKana":"くろっかしょうなんだい","corp":"株式会社学研ココファン・ナーサリー","serviceTypes":["児童発達支援"],"ward":"藤沢市","address":"神奈川県藤沢市湘南台２−１６−１７湘南テラスメイ２階","tel":"0466-21-9278","url":"https://gakken-klocka.com/","lat":35.39468193,"lng":139.46565699,"weekday":"09:30-17:00","saturday":"","sunday":"","holiday":"","closed":"土日祝日及び12月29日から1月3日","capacity":10,"id":"1452201336"},{"name":"グッディーレ川崎第１教室","nameKana":"ぐっでぃーれかわさきだいいちきょうしつ","corp":"株式会社グッディーレ","serviceTypes":["児童発達支援"],"ward":"川崎市","address":"神奈川県川崎市川崎区藤崎1-3-1","tel":"050-5849-5248","url":"https://goodere.biz/location/","lat":35.5293024,"lng":139.71871047,"weekday":"15:00-16:45","saturday":"10:00-11:45","sunday":"","holiday":"","closed":"月曜日、日曜日、祝日及び１２月３０日から１月３日","capacity":10,"id":"1455000594"},{"name":"グッディーレ川崎第2教室","nameKana":"ぐっでぃーれかわさきだいにきょうしつ","corp":"株式会社グッディーレ","serviceTypes":["児童発達支援"],"ward":"川崎市","address":"神奈川県川崎市幸区下平間204コーポ倉田2F","tel":"050-5848-5505","url":"https://goodere.biz","lat":35.55223598,"lng":139.6797332,"weekday":"15:00-16:45","saturday":"10:00-11:45","sunday":"","holiday":"","closed":"月曜日、日曜日、祝日及び１２月３０日から１月３日","capacity":10,"id":"1455100360"},{"name":"クロッカ川崎高津","nameKana":"くろっかかわさきたかつ","corp":"株式会社学研ココファン・ナーサリー","serviceTypes":["児童発達支援"],"ward":"川崎市","address":"神奈川県川崎市高津区蟹ケ谷265-5ココファン川崎高津内１階","tel":"044-948-7026","url":"https://gakken-klocka.com/","lat":35.56620271,"lng":139.63102301,"weekday":"09:30-17:00","saturday":"","sunday":"","holiday":"","closed":"土日祝日及び12月29日から1月3日","capacity":10,"id":"1455300598"},{"name":"クロッカ武蔵中原","nameKana":"くろっかむさしなかはら","corp":"株式会社学研ココファン・ナーサリー","serviceTypes":["児童発達支援"],"ward":"川崎市","address":"神奈川県川崎市中原区上小田中６−１０−１中央ビルセントラルマンション２０１","tel":"044-299-8367","url":"https://gakken-klocka.com/","lat":35.58105858,"lng":139.64656214,"weekday":"09:30-17:00","saturday":"","sunday":"","holiday":"","closed":"土日祝日及び12月29日〜1月3日","capacity":10,"id":"1455200830"},{"name":"クロッカ本郷台","nameKana":"くろっかほんごうだい","corp":"株式会社学研ココファン・ナーサリー","serviceTypes":["児童発達支援"],"ward":"横浜市","address":"神奈川県横浜市栄区公田町４９７−７こみね第一ビル１階","tel":"045-390-0740","url":"https://gakken-klocka.com/","lat":35.36193402,"lng":139.55251711,"weekday":"09:30-16:30","saturday":"","sunday":"","holiday":"","closed":"土日祝日及び12月29日から1月3日","capacity":10,"id":"1453500140"},{"name":"クロッカ戸塚","nameKana":"くろっかとつか","corp":"株式会社学研ココファン・ナーサリー","serviceTypes":["児童発達支援"],"ward":"横浜市","address":"神奈川県横浜市戸塚区戸塚町４６４７−１内田ビル２０１","tel":"045-827-3425","url":"https://gakken-klocka.com/","lat":35.40124774,"lng":139.52602428,"weekday":"09:30-17:00","saturday":"","sunday":"","holiday":"","closed":"土日祝日及び12月29日から1月3日","capacity":10,"id":"1451000606"},{"name":"アートチャイルドケアＳＥＤ　ＳＣＨＯＯＬ武蔵新城","nameKana":"あーとちゃいるどけあえすいーでぃーすくーるむさししんじょう","corp":"アートチャイルドケア株式会社","serviceTypes":["児童発達支援"],"ward":"川崎市","address":"神奈川県川崎市中原区新城３−１−３メチェナーテ２０１号","tel":"044-863-7022","url":"https://www.the0123child.com/","lat":35.58647993,"lng":139.63056906,"weekday":"09:00-17:00","saturday":"09:00-17:00","sunday":"","holiday":"","closed":"日・月およびGW5/3〜5/5、年末年始12/29〜1/3","capacity":10,"id":"1455200400"},{"name":"コペルプラス　新丸子教室","nameKana":"こぺるぷらすしんまるこきょうしつ","corp":"株式会社LADYBIRD","serviceTypes":["児童発達支援"],"ward":"川崎市","address":"神奈川県川崎市中原区丸子通2-682-48新丸子センチュリープラザ21","tel":"044-387-6696","url":"https://copelplus.copel.co.jp/school/shinmaruko/","lat":35.57630416,"lng":139.65569786,"weekday":"10:00-18:00","saturday":"10:00-18:00","sunday":"","holiday":"","closed":"日曜日・祝日・夏期（8月13日〜15日）・年末年始（12月29日〜1月3日）","capacity":10,"id":"1455200434"},{"name":"すまいるkidsなないろ","nameKana":"すまいるきっずなないろ","corp":"株式会社Ｍｉｌｅｓ　Cｏｒｐｏｒａｔｉｏｎ　","serviceTypes":["児童発達支援","放課後等デイサービス"],"ward":"川崎市","address":"神奈川県川崎市幸区戸手本町1-49-2","tel":"044-280-7405","url":"http://smile-kids-nanairo.com","lat":35.54372038,"lng":139.68801031,"weekday":"10:00-17:00","saturday":"","sunday":"","holiday":"10:00-16:30","closed":"土曜日、日曜日、夏季（8/13〜8/15）、年末年始（12/30〜1/3）","capacity":10,"id":"1455100436"},{"name":"ＬＩＴＡＬＩＣＯジュニア大船教室","nameKana":"りたりこじゅにあおおふなきょうしつ","corp":"株式会社LITALICOパートナーズ","serviceTypes":["児童発達支援"],"ward":"鎌倉市","address":"神奈川県鎌倉市大船一丁目１３番１０ヘリオドール大船２階２０１号室","tel":"046-742-5020","url":"https://junior.litalico.jp/school/kanagawa/oofuna/","lat":35.31923593,"lng":139.54672033,"weekday":"10:00-18:00","saturday":"10:00-17:00","sunday":"10:00-17:00","holiday":"10:00-18:00","closed":"法人が定める日及び12/29〜1/3","capacity":10,"id":"1452100454"},{"name":"ＬＩＴＡＬＩＣＯジュニア茅ヶ崎教室","nameKana":"りたりこじゅにあちがさききょうしつ","corp":"株式会社LITALICOパートナーズ","serviceTypes":["児童発達支援","放課後等デイサービス"],"ward":"茅ヶ崎市","address":"神奈川県茅ヶ崎市幸町３丁目１OCEAN’S１１　４F","tel":"0467-89-2527","url":"https://junior.litalico.jp/school/kanagawa/chigasaki/","lat":35.3302958,"lng":139.4080211,"weekday":"09:30-18:30","saturday":"09:30-18:30","sunday":"09:30-18:30","holiday":"09:30-18:30","closed":"会社休業日（法人が定める日及び 12/29〜1/3）","capacity":10,"id":"1452400540"},{"name":"ＬＩＴＡＬＩＣＯジュニア高座渋谷教室","nameKana":"りたりこじゅにあこうざしぶやきょうしつ","corp":"株式会社LITALICOパートナーズ","serviceTypes":["児童発達支援"],"ward":"大和市","address":"神奈川県大和市渋谷５−２２高座渋谷駅前複合ビルIKOZA ４Ｆ","tel":"046-267-8704","url":"https://junior.litalico.jp/school/kanagawa/kouzashibuya/","lat":35.43792327,"lng":139.4647899,"weekday":"09:15-18:15","saturday":"09:15-18:15","sunday":"09:15-18:15","holiday":"09:15-18:15","closed":"会社休業日（法人が定める日及び12/29〜1/3）","capacity":10,"id":"1453000653"},{"name":"ＬＩＴＡＬＩＣＯジュニア大和教室","nameKana":"りたりこじゅにあやまときょうしつ","corp":"株式会社LITALICOパートナーズ","serviceTypes":["児童発達支援"],"ward":"大和市","address":"神奈川県大和市中央５−２−２２中央５丁目ＫＳビル ２Ｆ ２０１号室","tel":"046-261-8790","url":"https://junior.litalico.jp/school/kanagawa/lj-6109/","lat":35.46835247,"lng":139.45838655,"weekday":"10:00-18:00","saturday":"10:00-17:00","sunday":"10:00-17:00","holiday":"10:00-18:00","closed":"会社休業日（法人が定める日及び12/29〜1/3）","capacity":10,"id":"1453000695"},{"name":"ＬＩＴＡＬＩＣＯジュニア本厚木教室","nameKana":"りたりこじゅにあほんあつぎきょうしつ","corp":"株式会社LITALICOパートナーズ","serviceTypes":["児童発達支援"],"ward":"厚木市","address":"神奈川県厚木市中町三丁目６番１７号オーイズミホールディングス厚木ビル４階","tel":"046-297-4225","url":"https://junior.litalico.jp/school/kanagawa/lj-6118/","lat":35.44104567,"lng":139.36280553,"weekday":"10:00-17:35","saturday":"10:00-17:00","sunday":"10:00-17:00","holiday":"10:00-17:30","closed":"法人が定める休業日","capacity":10,"id":"1452900838"},{"name":"ＬＩＴＡＬＩＣＯジュニア藤沢教室","nameKana":"りたりこじゅにあふじさわきょうしつ","corp":"株式会社LITALICOパートナーズ","serviceTypes":["児童発達支援"],"ward":"藤沢市","address":"神奈川県藤沢市南藤沢２０−１８長塚第１ビル３Ｆ","tel":"0466-55-2410","url":"https://junior.litalico.jp/school/kanagawa/fujisawa/","lat":35.33723095,"lng":139.48848008,"weekday":"10:00-18:00","saturday":"10:00-18:00","sunday":"10:00-18:00","holiday":"10:00-18:00","closed":"会社休業日（法人が定める12/29〜1/3）","capacity":10,"id":"1452200254"},{"name":"ＬＩＴＡＬＩＣＯジュニア海老名教室","nameKana":"りたりこじゅにあえびなきょうしつ","corp":"株式会社LITALICOパートナーズ","serviceTypes":["児童発達支援"],"ward":"海老名市","address":"神奈川県海老名市中央２-１-１６センチュリー八芳4階","tel":"046-292-6095","url":"https://junior.litalico.jp/school/kanagawa/ebina/","lat":35.44988368,"lng":139.39226727,"weekday":"10:00-17:30","saturday":"10:00-17:30","sunday":"10:00-17:30","holiday":"10:00-17:30","closed":"法人が定める夏期休暇及び12/29〜1/3","capacity":10,"id":"1454200138"},{"name":"LITALICOジュニア横浜東口教室","nameKana":"りたりこじゅにあよこはまひがしぐちきょうしつ","corp":"株式会社LITALICOパートナーズ","serviceTypes":["児童発達支援"],"ward":"横浜市","address":"神奈川県横浜市神奈川区金港町６−１８アーバンスクエアⅡ　６階","tel":"045-444-3384","url":"https://junior.litalico.jp/school/kanagawa/yokohama-higashi/","lat":35.46876807,"lng":139.62598138,"weekday":"11:30-18:30","saturday":"10:00-18:00","sunday":"10:00-18:00","holiday":"10:00-18:30","closed":"会社休業日（法人が定める日及び12/29〜1/3）","capacity":10,"id":"1450200025"},{"name":"LITALICOジュニア横浜西口教室","nameKana":"りたりこじゅにあよこはまにしぐちきょうしつ","corp":"株式会社LITALICOパートナーズ","serviceTypes":["児童発達支援"],"ward":"横浜市","address":"神奈川県横浜市西区南幸二丁目１１番７号横浜西口藤澤ビル３階","tel":"045-311-8988","url":"https://junior.litalico.jp/school/kanagawa/yokohamanishi/","lat":35.4631356,"lng":139.6165937,"weekday":"11:30-18:30","saturday":"10:00-17:00","sunday":"10:00-17:00","holiday":"11:30-18:30","closed":"法人が定める夏期休暇及び12/29〜1/3","capacity":10,"id":"1450300064"},{"name":"LITALICOジュニア綱島教室","nameKana":"りたりこじゅにあつなしまきょうしつ","corp":"株式会社LITALICOパートナーズ","serviceTypes":["児童発達支援"],"ward":"横浜市","address":"神奈川県横浜市港北区綱島東２−１２−１９福島ビル２階","tel":"045-533-4366","url":"https://junior.litalico.jp/school/kanagawa/tsunashima/","lat":35.53697746,"lng":139.63661805,"weekday":"11:30-18:30","saturday":"10:00-17:00","sunday":"10:00-17:00","holiday":"10:00-18:30","closed":"法人が定める休業日","capacity":10,"id":"1450900277"},{"name":"LITALICOジュニアたまプラーザ教室","nameKana":"りたりこじゅにあたまぷらーざきょうしつ","corp":"株式会社LITALICOパートナーズ","serviceTypes":["児童発達支援"],"ward":"横浜市","address":"神奈川県横浜市青葉区美しが丘２−１６−８ベルビューたまプラーザ４階","tel":"045-905-2730","url":"https://junior.litalico.jp/school/kanagawa/tamaplaza/","lat":35.57923365,"lng":139.55890983,"weekday":"11:30-18:30","saturday":"09:30-17:30","sunday":"09:30-17:30","holiday":"09:30-17:30","closed":"法人が定める日及び 12/29〜1/3","capacity":10,"id":"1453700047"},{"name":"ＬＩＴＡＬＩＣＯジュニア東戸塚教室","nameKana":"りたりこじゅにあひがしとつかきょうしつ","corp":"株式会社LITALICOパートナーズ","serviceTypes":["児童発達支援"],"ward":"横浜市","address":"神奈川県横浜市戸塚区品濃町542-6東戸塚東口ビルディング　４階","tel":"045-828-3720","url":"https://junior.litalico.jp/school/kanagawa/higashitotsuka/","lat":35.43229701,"lng":139.5576635,"weekday":"11:30-18:30","saturday":"10:00-17:00","sunday":"10:00-17:00","holiday":"10:00-17:00","closed":"会社休業日（法人が定める日及び12/29〜1/3）を除く","capacity":10,"id":"1451000085"},{"name":"LITALICOジュニア二俣川教室","nameKana":"りたりこじゅにあふたまたがわきょうしつ","corp":"株式会社LITALICOパートナーズ","serviceTypes":["児童発達支援"],"ward":"横浜市","address":"神奈川県横浜市旭区二俣川２−５７−４二俣川２５７ビル　３階","tel":"045-360-8630","url":"https://junior.litalico.jp/school/kanagawa/futamatagawa/","lat":35.4603879,"lng":139.5330013,"weekday":"11:30-18:30","saturday":"09:30-17:30","sunday":"09:30-17:30","holiday":"10:00-18:30","closed":"法人が定める日及び12/29〜1/3","capacity":10,"id":"1453200063"},{"name":" LITALICOジュニアセンター南教室","nameKana":"りたりこじゅにあせんたーみなみきょうしつ","corp":"株式会社LITALICOパートナーズ","serviceTypes":["児童発達支援"],"ward":"横浜市","address":"神奈川県横浜市都筑区茅ケ崎中央３−１センター南ビル１階","tel":"045-948-5733","url":"https://junior.litalico.jp/school/kanagawa/centerminami/","lat":35.54493913,"lng":139.57374077,"weekday":"11:30-18:30","saturday":"10:00-17:00","sunday":"10:00-17:00","holiday":"10:00-18:00","closed":"法人が定める夏期休暇、年末年始（12月29日〜1月3日）","capacity":10,"id":"1453800052"},{"name":"LITALICOジュニア新横浜教室","nameKana":"りたりこじゅにあしんよこはまきょうしつ","corp":"株式会社LITALICOパートナーズ","serviceTypes":["児童発達支援"],"ward":"横浜市","address":"神奈川県横浜市港北区新横浜２−２−３新横浜第１竹生ビル２階","tel":"045-472-4782","url":"https://junior.litalico.jp/school/kanagawa/lj-6014/","lat":35.50668337,"lng":139.61305156,"weekday":"11:30-18:30","saturday":"10:00-17:00","sunday":"10:00-17:00","holiday":"10:00-18:00","closed":"法人が定める日及び12/29〜1/3","capacity":10,"id":"1450900061"},{"name":"ＬＩＴＡＬＩＣＯジュニア桜木町教室","nameKana":"りたりこじゅにあさくらぎちょうきょうしつ","corp":"株式会社LITALICOパートナーズ","serviceTypes":["児童発達支援"],"ward":"横浜市","address":"神奈川県横浜市中区野毛町３−１１８蓮華堂ビル４階","tel":"045-250-3936","url":"https://junior.litalico.jp/school/kanagawa/sakuragicho/","lat":35.44787092,"lng":139.62833164,"weekday":"11:30-18:30","saturday":"10:00-17:15","sunday":"10:00-17:15","holiday":"10:00-18:15","closed":"法人が定める夏期休暇及び12/29〜1/3","capacity":10,"id":"1450400120"},{"name":"ＬＩＴＡＬＩＣＯジュニア関内教室","nameKana":"りたりこじゅにあかんないきょうしつ","corp":"株式会社LITALICOパートナーズ","serviceTypes":["児童発達支援"],"ward":"横浜市","address":"神奈川県横浜市中区尾上町２−１８ＹＳビル３階","tel":"045-227-5221","url":"https://junior.litalico.jp/school/kanagawa/kannai/","lat":35.44526009,"lng":139.63736159,"weekday":"11:30-18:30","saturday":"10:00-17:15","sunday":"10:00-17:15","holiday":"10:00-17:15","closed":"法人が定める日、及び12/29〜1/3","capacity":10,"id":"1450400104"},{"name":"ＬＩＴＡＬＩＣＯジュニア金沢文庫教室","nameKana":"りたりこじゅにあかなざわぶんこきょうしつ","corp":"株式会社LITALICOパートナーズ","serviceTypes":["児童発達支援"],"ward":"横浜市","address":"神奈川県横浜市金沢区泥亀１−１−１大京ビルディング４階","tel":"045-781-8128","url":"https://junior.litalico.jp/school/kanagawa/kanazawabunko/","lat":35.34161562,"lng":139.6214527,"weekday":"11:30-18:30","saturday":"10:00-17:15","sunday":"10:00-17:15","holiday":"","closed":"","capacity":10,"id":"1450800147"},{"name":"LITALICOジュニア中山教室","nameKana":"りたりこじゅにあなかやまきょうしつ","corp":"株式会社LITALICOパートナーズ","serviceTypes":["児童発達支援"],"ward":"横浜市","address":"神奈川県横浜市緑区台村町292ユニオンビル3階","tel":"045-933-6590","url":"https://junior.litalico.jp/school/kanagawa/nakayama/","lat":35.5140398,"lng":139.53871939,"weekday":"11:30-18:30","saturday":"09:30-17:30","sunday":"09:30-17:30","holiday":"09:30-17:30","closed":"会社休業日（法人が定める日及び12/29〜1/3）","capacity":10,"id":"1453300269"},{"name":"LITALICOジュニア新杉田教室","nameKana":"りたりこじゅにあしんすぎたきょうしつ","corp":"株式会社LITALICOパートナーズ","serviceTypes":["児童発達支援"],"ward":"横浜市","address":"神奈川県横浜市磯子区新杉田町8-8ハマシップモール3F 6号室","tel":"045-771-0547","url":"https://junior.litalico.jp/school/kanagawa/shinsugita/","lat":35.40231655,"lng":139.61848013,"weekday":"10:30-17:30","saturday":"10:00-17:15","sunday":"10:00-17:15","holiday":"10:00-17:15","closed":"","capacity":10,"id":"1450700164"},{"name":"LITALICOジュニア反町教室","nameKana":"りたりこじゅにあたんまちきょうしつ","corp":"株式会社LITALICOパートナーズ","serviceTypes":["児童発達支援"],"ward":"横浜市","address":"神奈川県横浜市神奈川区泉町1-8タガミ・サンビューティービル２階","tel":"045-290-2150","url":"https://junior.litalico.jp/school/kanagawa/tammachi/","lat":35.47701119,"lng":139.6293722,"weekday":"11:30-18:30","saturday":"09:30-17:30","sunday":"09:30-17:30","holiday":"11:30-18:30","closed":"会社休業日（法人が定める日及び12/29〜1/3）","capacity":10,"id":"1450200348"},{"name":"LITALICOジュニア東戸塚駅前教室","nameKana":"りたりこじゅにあひがしとつかえきまえきょうしつ","corp":"株式会社LITALICOパートナーズ","serviceTypes":["児童発達支援"],"ward":"横浜市","address":"神奈川県横浜市戸塚区品濃町５３８-１０岡島ビル４階","tel":"045-828-0181","url":"https://junior.litalico.jp/school/kanagawa/higashitotsukaekimae/","lat":35.43142213,"lng":139.55759962,"weekday":"11:30-18:30","saturday":"10:00-17:00","sunday":"10:00-17:00","holiday":"10:00-18:00","closed":"法人が定める日及び 12/29〜1/3","capacity":10,"id":"1451000515"},{"name":"LITALICOジュニア鶴見教室","nameKana":"りたりこじゅにあつるみきょうしつ","corp":"株式会社LITALICOパートナーズ","serviceTypes":["児童発達支援"],"ward":"横浜市","address":"神奈川県横浜市鶴見区鶴見中央２−４−１６WELL COURT TURUMI ２０２号室","tel":"045-508-4850","url":"https://junior.litalico.jp/school/kanagawa/tsurumi/","lat":35.51006983,"lng":139.68001174,"weekday":"11:30-18:30","saturday":"10:00-17:00","sunday":"10:00-17:00","holiday":"10:00-17:15","closed":"法人が定める日及び 12/29〜1/3","capacity":10,"id":"1450100530"},{"name":"LITALICOジュニア戸塚教室","nameKana":"りたりこじゅにあとつかきょうしつ","corp":"株式会社LITALICOパートナーズ","serviceTypes":["児童発達支援"],"ward":"横浜市","address":"神奈川県横浜市戸塚区戸塚町１１８番地中山ＮＳビル４F","tel":"045-438-8072","url":"https://junior.litalico.jp/school/kanagawa/lj-6134/","lat":35.39826215,"lng":139.53197667,"weekday":"11:30-18:30","saturday":"10:00-17:00","sunday":"10:00-17:00","holiday":"10:30-17:30","closed":"法人が定める日及び 12/29〜1/3","capacity":10,"id":"1451000689"},{"name":"ＬＩＴＡＬＩＣＯジュニア大倉山教室","nameKana":"りたりこじゅにあおおくらやまきょうしつ","corp":"株式会社LITALICOパートナーズ","serviceTypes":["児童発達支援"],"ward":"横浜市","address":"神奈川県横浜市港北区大倉山３−５−５大倉山飯田ビル２階２０３号室","tel":"045-718-5681","url":"https://junior.litalico.jp/school/kanagawa/lj-6129/","lat":35.5209405,"lng":139.62968845,"weekday":"11:30-18:30","saturday":"09:30-16:30","sunday":"09:30-16:30","holiday":"10:30-17:30","closed":"会社休業日（法人が定める日及び12/29〜1/3）","capacity":10,"id":"1450900764"},{"name":"LITALICOジュニア川崎教室","nameKana":"りたりこじゅにあかわさききょうしつ","corp":"株式会社LITALICOパートナーズ","serviceTypes":["児童発達支援"],"ward":"川崎市","address":"神奈川県川崎市川崎区小川町１１−１０第10平沼ビル3階","tel":"044-233-0012","url":"https://junior.litalico.jp/school/kanagawa/kawasaki/","lat":35.52653933,"lng":139.69696541,"weekday":"12:30-18:30","saturday":"10:00-17:00","sunday":"10:00-17:00","holiday":"12:30-18:30","closed":"法人が定める日及び12/29〜1/3","capacity":10,"id":"1455000065"},{"name":"ＬＩＴＡＬＩＣＯジュニア溝の口教室","nameKana":"りたりこじゅにあみぞのくちきょうしつ","corp":"株式会社LITALICOパートナーズ","serviceTypes":["児童発達支援"],"ward":"川崎市","address":"神奈川県川崎市高津区二子４−４−７TSビルディング３階","tel":"044-812-5960","url":"https://junior.litalico.jp/school/kanagawa/mizonokuchi/","lat":35.60231648,"lng":139.6186472,"weekday":"12:30-18:30","saturday":"10:00-17:30","sunday":"10:00-17:30","holiday":"12:30-18:30","closed":"法人が定める夏期休暇及び12/29-1/3","capacity":10,"id":"1455300051"},{"name":"LITALICOジュニア川崎駅前教室","nameKana":"りたりこじゅにあかわさきえきまえきょうしつ","corp":"株式会社LITALICOパートナーズ","serviceTypes":["児童発達支援"],"ward":"川崎市","address":"神奈川県川崎市川崎区小川町2-7アイヴィタワー4階","tel":"044-221-0771","url":"https://junior.litalico.jp/school/kanagawa/kawasakiekimae/","lat":35.52840845,"lng":139.69918736,"weekday":"13:00-19:00","saturday":"10:00-17:00","sunday":"10:00-17:00","holiday":"10:00-19:00","closed":"法人が定める休業日及び12/29〜1/3","capacity":10,"id":"1455000263"},{"name":"LITALICOジュニア武蔵溝ノ口教室","nameKana":"りたりこじゅにあむさしみぞのくちきょうしつ","corp":"株式会社LITALICOパートナーズ","serviceTypes":["児童発達支援"],"ward":"川崎市","address":"神奈川県川崎市高津区久本3丁目3番3号ザ・344ビル201","tel":"044-829-6807","url":"https://junior.litalico.jp/school/kanagawa/musashimizonokuchi/","lat":35.59716471,"lng":139.61418165,"weekday":"12:30-18:30","saturday":"10:00-16:30","sunday":"10:00-16:30","holiday":"09:30-18:30","closed":"法人が定める日及び12/29〜1/3","capacity":10,"id":"1455300374"},{"name":"LITALICOジュニア中野島教室","nameKana":"りたりこじゅにあなかのしまきょうしつ","corp":"株式会社LITALICOパートナーズ","serviceTypes":["児童発達支援"],"ward":"川崎市","address":"神奈川県川崎市多摩区中野島６−１１−１エクラージュ1階","tel":"044-931-4203","url":"https://junior.litalico.jp/school/kanagawa/nakanoshima/","lat":35.61953879,"lng":139.56215207,"weekday":"12:30-18:30","saturday":"10:00-17:00","sunday":"10:00-17:00","holiday":"12:30-18:30","closed":"","capacity":10,"id":"1455400398"},{"name":"ＬＩＴＡＬＩＣＯジュニア武蔵新城教室","nameKana":"りたりこじゅにあむさししんじょうきょうしつ","corp":"株式会社LITALICOパートナーズ","serviceTypes":["児童発達支援"],"ward":"川崎市","address":"神奈川県川崎市中原区新城1002古澤店舗1階","tel":"044-740-1120","url":"https://junior.litalico.jp/school/kanagawa/musashishinjyo/","lat":35.58778535,"lng":139.62748603,"weekday":"11:30-17:30","saturday":"10:00-17:00","sunday":"10:00-16:00","holiday":"","closed":"会社休業日（法人が定める日及び 12/29〜1/3）","capacity":10,"id":"1455200624"},{"name":"LITALICOジュニア武蔵小杉教室","nameKana":"りたりこじゅにあむさしこすぎきょうしつ","corp":"株式会社LITALICOパートナーズ","serviceTypes":["児童発達支援"],"ward":"川崎市","address":"神奈川県川崎市中原区小杉御殿町2-69-1インテック小杉コーポビル２階","tel":"044-722-8430","url":"https://junior.litalico.jp/school/kanagawa/lj-6108/","lat":35.57875636,"lng":139.65254513,"weekday":"12:00-18:00","saturday":"10:00-17:30","sunday":"10:00-17:30","holiday":"12:00-18:00","closed":"会社休業日（法人が定める日及び 12/29〜1/3）","capacity":10,"id":"1455200798"},{"name":"LITALICOジュニア橋本教室","nameKana":"りたりこじゅにあはしもときょうしつ","corp":"株式会社ＬＩＴＡＬＩＣＯパートナーズ","serviceTypes":["児童発達支援"],"ward":"相模原市","address":"神奈川県相模原市緑区西橋本５丁目１番１号ラ・フロールＳＣ４階","tel":"042-700-1680","url":"https://junior.litalico.jp/school/kanagawa/hashimoto/","lat":35.59734095,"lng":139.33814227,"weekday":"10:00-17:00","saturday":"10:00-17:00","sunday":"10:00-17:00","holiday":"10:00-17:00","closed":"法人が定める夏期休暇、年末年始（12月29日〜1月3日）","capacity":10,"id":"1452601808"},{"name":"ＬＩＴＡＬＩＣＯジュニア相模原駅前教室","nameKana":"りたりこじゅにあさがみはらえきまえきょうしつ","corp":"株式会社ＬＩＴＡＬＩＣＯパートナーズ","serviceTypes":["児童発達支援"],"ward":"相模原市","address":"神奈川県相模原市中央区相模原１丁目２番１７号クリスタルサガミハラ６階","tel":"042-707-1408","url":"https://junior.litalico.jp/school/kanagawa/lj-6136/","lat":35.58104205,"lng":139.37021761,"weekday":"","saturday":"","sunday":"","holiday":"","closed":"","capacity":null,"id":"1452602707"},{"name":"LITALICOジュニア相模大野教室","nameKana":"りたりこじゅにあさがみおおのきょうしつ","corp":"株式会社ＬＩＴＡＬＩＣＯパートナーズ","serviceTypes":["児童発達支援"],"ward":"相模原市","address":"神奈川県相模原市南区相模大野３丁目１４番７号　ＳｏｆｔＢＬＤ．５Ｆ","tel":"042-767-5680","url":"https://junior.litalico.jp/school/kanagawa/sagamiono/","lat":35.53257077,"lng":139.43639398,"weekday":"10:00-17:30","saturday":"10:00-17:30","sunday":"10:00-17:30","holiday":"10:00-17:30","closed":"法人が定める日及び 12/29 1 /3","capacity":10,"id":"1452600248"},{"name":"LITALICOジュニア相模大野北口教室","nameKana":"りたりこじゅにあさがみおおのきたぐちきょうしつ","corp":"株式会社ＬＩＴＡＬＩＣＯパートナーズ","serviceTypes":["児童発達支援"],"ward":"相模原市","address":"神奈川県相模原市南区相模大野３丁目１４番１６号　第一足立ビル５階","tel":"042-765-7717","url":"https://junior.litalico.jp/school/kanagawa/sagamionokitaguchi/","lat":35.53249577,"lng":139.43598846,"weekday":"10:00-17:30","saturday":"10:00-17:30","sunday":"10:00-17:30","holiday":"10:00-17:30","closed":"法人が定める日及び12/29~1/3","capacity":10,"id":"1452600800"},{"name":"ハーティーパーチプラス","nameKana":"はーてぃーぱーちぷらす","corp":"一般社団法人ＵＮＩＴＥ","serviceTypes":["児童発達支援"],"ward":"川崎市","address":"神奈川県川崎市川崎区追分町17-13マンション鼓平1階","tel":"044-223-8088","url":"","lat":35.51879559,"lng":139.71633059,"weekday":"10:00-14:00","saturday":"","sunday":"","holiday":"","closed":"土曜　日曜　祝日　8/13〜8/14　12/30〜1/3","capacity":null,"id":"1455000495"},{"name":"Ａ　ｔо　Ｚ　Ａｃａｄｅｍｙ　児童発達支援","nameKana":"えーとぅーぜっとあかでみーじどうはったつしえん","corp":"Ａzurｅ　Ｐａｒｔｎｅｒｓ合同会社","serviceTypes":["児童発達支援"],"ward":"川崎市","address":"神奈川県川崎市多摩区西生田4-3-29マイタウン西生田105","tel":"044-819-8646","url":"https://atoz-academy.co.jp/","lat":35.61953879,"lng":139.56215207,"weekday":"09:00-11:45","saturday":"09:00-10:00","sunday":"","holiday":"09:00-10:00","closed":"日月","capacity":10,"id":"1455400562"},{"name":"ＬＩＢＯらぼ　かわさき園","nameKana":"りぼらぼかわさきえん","corp":"株式会社ＬＩＢＯ","serviceTypes":["児童発達支援"],"ward":"川崎市","address":"神奈川県川崎市川崎区宮前町2-2川崎エヌズビル1階1F号室","tel":"044-201-9988","url":"","lat":35.52809449,"lng":139.70387581,"weekday":"10:00-16:45","saturday":"10:00-16:45","sunday":"00:00-00:00","holiday":"10:00-16:45","closed":"日曜に加えて、年末年始及び施設休館日","capacity":10,"id":"1455000719"},{"name":"ＬＩＢＯらぼ　かわさきにし園","nameKana":"りぼらぼかわさきにしえん","corp":"株式会社ＬＩＢＯ","serviceTypes":["児童発達支援"],"ward":"川崎市","address":"神奈川県川崎市幸区中幸町1-18アルケディア御幸1階","tel":"044-533-7700","url":"https://www.libo-labo-preschool.com/","lat":35.5376906,"lng":139.69190727,"weekday":"10:00-16:45","saturday":"10:00-16:45","sunday":"00:00-00:00","holiday":"10:00-16:45","closed":"日曜日に加えて、年末年始及び施設休館日","capacity":10,"id":"1455100485"},{"name":"タイヨウスクール新城","nameKana":"たいようすくーるしんじょう","corp":"株式会社ＹＦＭ","serviceTypes":["児童発達支援","放課後等デイサービス"],"ward":"川崎市","address":"神奈川県川崎市高津区千年９８０","tel":"044-982-9940","url":"http://taiyoschool.com/","lat":35.58284735,"lng":139.62438395,"weekday":"09:00-12:30","saturday":"10:00-16:00","sunday":"","holiday":"09:00-15:00","closed":"日曜日","capacity":10,"id":"1455300176"},{"name":"からふるtoys","nameKana":"からふるといず","corp":"合同会社からふる","serviceTypes":["児童発達支援","放課後等デイサービス"],"ward":"川崎市","address":"神奈川県川崎市多摩区中野島4-1-12NA-1 2階","tel":"044-543-9616","url":"https://www.karafuru.tokyo/","lat":35.62917862,"lng":139.56180104,"weekday":"10:00-18:00","saturday":"09:00-17:00","sunday":"09:00-17:00","holiday":"09:00-17:00","closed":"年末年始（12月30日から1月3日）","capacity":20,"id":"1455400430"},{"name":"ONEPLAY.GIFTED横濱元町","nameKana":"わんぷれいぎふてっどよこはまもとまち","corp":"株式会社One play.","serviceTypes":["児童発達支援"],"ward":"横浜市","address":"神奈川県横浜市中区元町3-130-1MID横濱元町2F-C","tel":"045-226-5801","url":"","lat":35.44028555,"lng":139.64842476,"weekday":"10:00-17:00","saturday":"09:00-16:00","sunday":"","holiday":"","closed":"日曜日、祝日、年末年始（12/29〜1/3）","capacity":10,"id":"1450400237"},{"name":"ＯＮＥＰＬＡＹ．　ＧＩＦＴＥＤ　Ｘ　東神奈川","nameKana":"わんぷれいぎふてっどくろすひがしかながわ","corp":"株式会社One play.","serviceTypes":["児童発達支援","放課後等デイサービス"],"ward":"横浜市","address":"神奈川県横浜市神奈川区西神奈川１丁目５−１０Ｂｅｌｌｅｖｉａｇｅ　Ｙｏｋｏｈａｍａ　１Ｆ","tel":"045-317-4001","url":"","lat":35.478583,"lng":139.63170778,"weekday":"10:00-17:00","saturday":"09:00-16:00","sunday":"","holiday":"","closed":"日曜日、祝日、年末年始（12/29〜1/3）","capacity":10,"id":"1450200454"},{"name":"ＯＮＥＰＬＡＹ．ＧＩＦＴＥＤ　磯子","nameKana":"わんぷれいぎふてっどいそご","corp":"株式会社One play.","serviceTypes":["児童発達支援"],"ward":"横浜市","address":"神奈川県横浜市磯子区磯子３丁目４番１０号ブルックハイツ磯子　１F","tel":"045-751-8201","url":"https://oneplay-gifted.jp/","lat":35.40309143,"lng":139.61954949,"weekday":"10:00-17:00","saturday":"09:00-16:00","sunday":"","holiday":"","closed":"日曜日、祝日、年末年始（12/29〜1/3）","capacity":10,"id":"1450700206"},{"name":"ウイング希望が丘","nameKana":"ういんぐきぼうがおか","corp":"特定非営利法人空の翼","serviceTypes":["児童発達支援","放課後等デイサービス"],"ward":"横浜市","address":"神奈川県横浜市旭区中希望が丘107-32中希望ヶ丘吉田ビル2階","tel":"045-442-6456","url":"http://soranotsubasa.com/","lat":35.45876288,"lng":139.5144031,"weekday":"09:00-12:00","saturday":"09:00-12:00","sunday":"00:00-00:00","holiday":"00:00-00:00","closed":"日曜日、祝日、年末年始","capacity":10,"id":"1453200352"},{"name":"コペルプラス　川崎教室","nameKana":"こぺるぷらすかわさききょうしつ","corp":"昭和企業株式会社","serviceTypes":["児童発達支援"],"ward":"川崎市","address":"神奈川県川崎市幸区柳町１番６伸幸ビル４階","tel":"044-200-4840","url":"https://copelplus.copel.co.jp/","lat":35.53139989,"lng":139.69125473,"weekday":"10:00-18:00","saturday":"10:00-18:00","sunday":"10:00-18:00","holiday":"","closed":"月曜日、祝日","capacity":10,"id":"1455100196"},{"name":"コペルプラス　川崎東口教室","nameKana":"こぺるぷらすかわさきひがしぐちきょうしつ","corp":"昭和企業株式会社","serviceTypes":["児童発達支援"],"ward":"川崎市","address":"神奈川県川崎市川崎区東田町１１番地２６HSビル東田２階","tel":"044-276-9960","url":"https://copelplus.copel.co.jp/schoollist/kawasaki-higashi.html","lat":35.52738074,"lng":139.7024232,"weekday":"10:00-18:00","saturday":"10:00-18:00","sunday":"10:00-18:00","holiday":"","closed":"月曜日、祝日","capacity":10,"id":"1455000545"},{"name":"ブロッサムジュニア　読売ランド前教室","nameKana":"ぶろっさむじゅにあよみうりらんどまえきょうしつ","corp":"SOL株式会社","serviceTypes":["児童発達支援","放課後等デイサービス"],"ward":"川崎市","address":"神奈川県川崎市多摩区西生田２−１４−２１原島ビル２階 3階","tel":"044-455-7664","url":"https://h-navi.jp/support_facility/facilities/158464","lat":35.61481779,"lng":139.53092242,"weekday":"09:30-17:00","saturday":"09:30-17:00","sunday":"09:30-17:00","holiday":"09:30-17:00","closed":"12月31日から1月3日","capacity":10,"id":"1455400323"},{"name":"りんく","nameKana":"りんく","corp":"株式会社リンクエイジ","serviceTypes":["児童発達支援","放課後等デイサービス"],"ward":"川崎市","address":"神奈川県川崎市多摩区西生田2-13-12西生田ソフィアⅣ1階B号室","tel":"044-712-4991","url":"https://link-yomiran.com/","lat":35.6195388,"lng":139.5621521,"weekday":"10:30-12:30","saturday":"","sunday":"","holiday":"10:30-16:15","closed":"土曜・日曜、その他事業所が事前に告知する日","capacity":10,"id":"1455400489"},{"name":"りんく　第2教室","nameKana":"りんくだいにきょうしつ","corp":"株式会社リンクエイジ","serviceTypes":["児童発達支援","放課後等デイサービス"],"ward":"川崎市","address":"神奈川県川崎市多摩区西生田3-13-51F","tel":"044-819-7994","url":"https://link-yomiran2.com/","lat":35.61185984,"lng":139.52694231,"weekday":"10:30-12:30","saturday":"","sunday":"","holiday":"10:30-15:30","closed":"土曜、日曜、その他事業所が事前に告知する日","capacity":10,"id":"1455400604"},{"name":"発達支援つむぎ　生田ルーム","nameKana":"はったつしえんつむぎいくたるーむ","corp":"社会福祉法人どろんこ会","serviceTypes":["児童発達支援","放課後等デイサービス"],"ward":"川崎市","address":"神奈川県川崎市多摩区生田七丁目１５番７号四つ葉ビル2階","tel":"044-455-6640","url":"https://www.doronko.jp/facilities/tsumugi-ikuta/","lat":35.61581772,"lng":139.54230196,"weekday":"10:00-17:00","saturday":"10:00-17:00","sunday":"","holiday":"","closed":"日・祝日・年末年始","capacity":10,"id":"1455400521"},{"name":"発達支援つむぎ　海老名ルーム","nameKana":"はったつしえんつむぎえびなるーむ","corp":"社会福祉法人どろんこ会","serviceTypes":["児童発達支援"],"ward":"海老名市","address":"神奈川県海老名市めぐみ町３番１号VIVA GARDENS PERCH ５階","tel":"046-200-8271","url":"https://www.doronko.jp/facilities/tsumugi-ebina/","lat":35.44643136,"lng":139.39060626,"weekday":"","saturday":"","sunday":"","holiday":"","closed":"日・祝日・年末年始","capacity":10,"id":"1454200351"},{"name":"ほっぺ","nameKana":"ほっぺ","corp":"株式会社ヒューマニティー","serviceTypes":["児童発達支援","放課後等デイサービス"],"ward":"相模原市","address":"神奈川県相模原市南区若松５丁目１９番１０号アイル若松１階","tel":"0427055002","url":"http://hoppe-houdei.com/","lat":35.53758392,"lng":139.42428936,"weekday":"","saturday":"","sunday":"","holiday":"","closed":"","capacity":null,"id":"1452602020"},{"name":"すずかけの森","nameKana":"すずかけのもり","corp":"株式会社ＣＯＵＫＹＯ","serviceTypes":["児童発達支援"],"ward":"横浜市","address":"神奈川県横浜市港北区綱島西１−４−３７ハイムＫ．Ｙ１F","tel":"045-516-9986","url":"https://suzukakeno-mori.coukyo.jp/","lat":35.53807448,"lng":139.63377938,"weekday":"","saturday":"","sunday":"","holiday":"","closed":"","capacity":null,"id":"1450900632"},{"name":"コペルプラス根岸教室","nameKana":"こぺるぷらすねぎしきょうしつ","corp":"株式会社プエド","serviceTypes":["児童発達支援"],"ward":"横浜市","address":"神奈川県横浜市磯子区原町２−１３ライオンズマンション根岸第３　１階","tel":"045-349-9147","url":"https://www.puedo.jp/","lat":35.41604198,"lng":139.63024048,"weekday":"10:00-18:00","saturday":"10:00-18:00","sunday":"","holiday":"","closed":"日・月・祝/夏季休暇（8/13~8/15)年末年始（12/30~1/3)","capacity":10,"id":"1450700214"},{"name":"コペルプラス長津田教室","nameKana":"こぺるぷらすながつたきょうしつ","corp":"株式会社プエド","serviceTypes":["児童発達支援"],"ward":"横浜市","address":"神奈川県横浜市緑区長津田５−２−６０フジヨシビルＢ　１０３","tel":"045-482-7341","url":"https://www.puedo.jp/","lat":35.53108411,"lng":139.49400481,"weekday":"10:00-18:00","saturday":"10:00-18:00","sunday":"10:00-18:00","holiday":"","closed":"祝日　夏季休暇・年末年始(12/30~１/3)","capacity":10,"id":"1453300418"},{"name":"まなびクラブ武蔵小杉","nameKana":"まなびくらぶむさしこすぎ","corp":"合同会社ＲＳＴ","serviceTypes":["児童発達支援","放課後等デイサービス"],"ward":"川崎市","address":"神奈川県川崎市中原区丸子通2-682シルクガーデン101号室","tel":"044-733-5588","url":"https://rst.kids","lat":35.57630416,"lng":139.65569786,"weekday":"14:30-17:30","saturday":"12:00-17:30","sunday":"","holiday":"12:00-17:30","closed":"日曜日,年末年始（１２月30日から1月３日まで）、事業所が必要と認めた場合を除く","capacity":10,"id":"1455200665"},{"name":"スタジオそら綱島","nameKana":"すたじおそらつなしま","corp":"アース・キッズ　株式会社","serviceTypes":["児童発達支援","放課後等デイサービス"],"ward":"横浜市","address":"神奈川県横浜市港北区綱島西二丁目１３番９号ヴィラ綱島２０１","tel":"045-642-3422","url":"https://studiosora.jp/studio/tsunashima/","lat":35.53618586,"lng":139.63081584,"weekday":"","saturday":"","sunday":"","holiday":"","closed":"年末年始（12月31日〜1月3日）","capacity":10,"id":"1450900210"},{"name":"スタジオそら鶴見","nameKana":"すたじおそらつるみ","corp":"アース・キッズ　株式会社","serviceTypes":["児童発達支援","放課後等デイサービス"],"ward":"横浜市","address":"神奈川県横浜市鶴見区豊岡町25-16ウイング柿野屋201","tel":"045-717-9971","url":"https://studiosora.jp/","lat":35.5120863,"lng":139.67634264,"weekday":"","saturday":"","sunday":"","holiday":"","closed":"年末年始（12月31日〜1月3日）","capacity":10,"id":"1450100381"},{"name":"発達支援つむぎ　横浜東口ルーム","nameKana":"はったつしえんつむぎよこはまひがしぐちるーむ","corp":"社会福祉法人どろんこ会","serviceTypes":["児童発達支援"],"ward":"横浜市","address":"神奈川県横浜市西区平沼１−３８−２咲久良ビル４階","tel":"045-594-9322","url":"https://www.doronko.jp/facilities/tsumugi-yokohamahigashiguchi/","lat":35.46130526,"lng":139.62069048,"weekday":"10:00-17:00","saturday":"10:00-17:00","sunday":"","holiday":"","closed":"日・祝日・年末年始","capacity":10,"id":"1450300080"},{"name":"発達支援つむぎ新羽ルーム","nameKana":"はったつしえんつむぎにっぱるーむ","corp":"社会福祉法人どろんこ会","serviceTypes":["児童発達支援"],"ward":"横浜市","address":"神奈川県横浜市港北区新羽町2185-1","tel":"045-633-1390","url":"https://www.doronko.jp/facilities/tsumugi-nippa/","lat":35.526334,"lng":139.60890734,"weekday":"09:00-17:00","saturday":"09:00-17:00","sunday":"","holiday":"","closed":"日・祝日・年末年始","capacity":10,"id":"1450900491"},{"name":"児童発達支援　TODAY is New Life","nameKana":"じどうはったつしえんとぅでいいずにゅうらいふ","corp":"オネストリィ株式会社","serviceTypes":["児童発達支援"],"ward":"川崎市","address":"神奈川県川崎市麻生区上麻生5-38-7東和サープラス柿生1Ｆ","tel":"044-322-0719","url":"https://onandon-happiness.com/service/todayisnewlife","lat":35.59028192,"lng":139.49840901,"weekday":"10:00-17:00","saturday":"10:00-17:00","sunday":"10:00-17:00","holiday":"10:00-17:00","closed":"年末年始（12月30日〜1月3日）","capacity":10,"id":"1455600229"},{"name":"児童発達支援　ＴＯＤＡＹ　ｉｓ　Ｎｅｗ　Ｌｉｆｅ宮前平","nameKana":"じどうはったつしえんとぅでいいずにゅーらいふみやまえだいら","corp":"オネストリィ株式会社","serviceTypes":["児童発達支援"],"ward":"川崎市","address":"神奈川県川崎市宮前区宮前平1-4-142ステージオーシー宮前平Ｂ１階　Ｂ１・２","tel":"044-750-7683","url":"https://onandon-happiness.com/","lat":35.58926829,"lng":139.5787908,"weekday":"10:00-17:00","saturday":"10:00-17:00","sunday":"","holiday":"10:00-17:00","closed":"日曜日・年末年始(12月30日〜1月3日)","capacity":10,"id":"1455500486"},{"name":"スタジオそら鷺沼","nameKana":"すたじおそらさぎぬま","corp":"アース・キッズ株式会社","serviceTypes":["児童発達支援"],"ward":"川崎市","address":"神奈川県川崎市宮前区土橋３−２−１０鷺沼駅前スカイマンションＨ．Ｎ　Ｂ１０２号室","tel":"044-789-9090","url":"https://studiosora.jp/","lat":35.58042234,"lng":139.57319726,"weekday":"","saturday":"","sunday":"","holiday":"","closed":"年末年始(12月31日〜1月3日)","capacity":10,"id":"1455500270"},{"name":"Ａｐｐｌｅ　Ｊｕｎｉｏｒ　小田急相模原教室","nameKana":"あっぷるじゅにあおだきゅうさがみはらきょうしつ","corp":"株式会社ジーデバイス","serviceTypes":["児童発達支援","放課後等デイサービス"],"ward":"相模原市","address":"神奈川県相模原市南区南台６丁目１７番１８号","tel":"042-702-9470","url":"","lat":35.51847416,"lng":139.41556594,"weekday":"","saturday":"","sunday":"","holiday":"","closed":"","capacity":null,"id":"1452602293"},{"name":"Ａｐｐｌｅ　Ｊｕｎｉｏｒ　上鶴間教室","nameKana":"あっぷるじゅにあかみつるまきょうしつ","corp":"株式会社ジーデバイス","serviceTypes":["児童発達支援"],"ward":"相模原市","address":"神奈川県相模原市南区上鶴間２丁目１番５号","tel":"042-851-6337","url":"https://applejunior.co.jp/","lat":35.52504418,"lng":139.44840703,"weekday":"","saturday":"","sunday":"","holiday":"","closed":"","capacity":null,"id":"1452602459"},{"name":"Apple　Junior　本厚木教室","nameKana":"あっぷるじゅにあほんあつぎきょうしつ","corp":"株式会社ジーデバイス","serviceTypes":["児童発達支援"],"ward":"厚木市","address":"神奈川県厚木市岡田４丁目２２−３３","tel":"09054052914","url":"https://applejunior.co.jp/","lat":35.42575566,"lng":139.36823224,"weekday":"10:00-17:30","saturday":"10:00-17:30","sunday":"","holiday":"","closed":"日曜、祝日","capacity":10,"id":"1452900804"},{"name":"ＡＤＤＳ　Ｋｉｄｓ１ｓｔ　鎌倉","nameKana":"えーでぃーでぃーえすきっずふぁーすとかまくら","corp":"特定非営利活動法人ＡＤＤＳ","serviceTypes":["児童発達支援"],"ward":"鎌倉市","address":"神奈川県鎌倉市由比ガ浜三丁目１１番４８号由比ガ浜こどもセンター３階","tel":"0467-61-6615","url":"https://www.adds.or.jp","lat":35.31334784,"lng":139.54157914,"weekday":"09:30-16:30","saturday":"09:30-16:30","sunday":"","holiday":"","closed":"日曜日、月曜日、祝日、年末年始（12/29〜1/3）","capacity":10,"id":"1452100272"},{"name":"ブロッサムジュニア　座間教室","nameKana":"ぶろっさむじゅにあざまきょうしつ","corp":"株式会社サークル・バレー","serviceTypes":["児童発達支援","放課後等デイサービス"],"ward":"座間市","address":"神奈川県座間市入谷東二丁目３２−１４エールハイツ座間107","tel":"046-244-3367","url":"","lat":35.47931397,"lng":139.4051487,"weekday":"10:00-17:00","saturday":"10:00-16:00","sunday":"","holiday":"10:00-16:00","closed":"","capacity":10,"id":"1454100338"},{"name":"ブロッサムジュニア川崎登戸教室","nameKana":"ぶろっさむじゅにあかわさきのぼりときょうしつ","corp":"ブロッサムグループ株式会社","serviceTypes":["児童発達支援","放課後等デイサービス"],"ward":"川崎市","address":"神奈川県川崎市多摩区登戸３５０８　コアクレスト登戸1Ａ−Ｃ号室","tel":"044-322-8606","url":"https://junior.blossomgroup.co.jp/","lat":35.62132693,"lng":139.57148103,"weekday":"09:00-17:00","saturday":"09:00-16:00","sunday":"09:00-16:00","holiday":"09:00-16:00","closed":"年末年始","capacity":10,"id":"1455400281"},{"name":"ブロッサムジュニア向ヶ丘遊園教室","nameKana":"ぶろっさむじゅにあむかいがおかゆうえんきょうしつ","corp":"ブロッサムグループ株式会社","serviceTypes":["児童発達支援","放課後等デイサービス"],"ward":"川崎市","address":"神奈川県川崎市多摩区登戸1848プレズィール・イケダヤ　102号室","tel":"044-281-0762","url":"https://junior.blossomgroup.co.jp/","lat":35.61963867,"lng":139.56459059,"weekday":"10:00-18:00","saturday":"09:00-16:00","sunday":"09:00-16:00","holiday":"09:00-16:00","closed":"年末年始","capacity":10,"id":"1455400497"},{"name":"ふじさわ地域福祉事業所　児童発達支援　放課後等デイサービスたんぽぽ","nameKana":"ふじさわちいきふくしじぎょうしょじどうはったつしえんほうかごとうでいっさーびすたんぽぽ","corp":"労働者協同組合ワーカーズコープ・センター事業団","serviceTypes":["児童発達支援","放課後等デイサービス"],"ward":"藤沢市","address":"神奈川県藤沢市本藤沢６−１−９  １階長谷川ビル","tel":"0466-90-0516","url":"https://workerscoop-tanpopo.amebaownd.com","lat":35.3585199,"lng":139.47242605,"weekday":"10:30-16:30","saturday":"","sunday":"","holiday":"","closed":"土日祝","capacity":10,"id":"1452200106"},{"name":"Ｗａｐｉ藤沢","nameKana":"わぴふじさわ","corp":"株式会社俊英館","serviceTypes":["児童発達支援"],"ward":"藤沢市","address":"神奈川県藤沢市藤沢９９１−１９落合ビル２０４","tel":"0466-90-4910","url":"https://wapi-shuneikan.com/","lat":35.34006664,"lng":139.4831861,"weekday":"09:30-17:30","saturday":"","sunday":"","holiday":"","closed":"土・日・祝日","capacity":10,"id":"1452200981"},{"name":"ステラ","nameKana":"すてら","corp":"株式会社ＰＲＯＧＲＥＳＳ","serviceTypes":["児童発達支援","放課後等デイサービス"],"ward":"川崎市","address":"神奈川県川崎市多摩区中野島４丁目１６番１３号菅野ビル１階","tel":"044-819-8315","url":"","lat":35.63033717,"lng":139.55446596,"weekday":"10:00-18:00","saturday":"","sunday":"","holiday":"10:00-18:00","closed":"土日","capacity":10,"id":"1455400315"},{"name":"ステラプレナＤＵＯ","nameKana":"すてらぷれなでゅお","corp":"株式会社ＰＲＯＧＲＥＳＳ","serviceTypes":["児童発達支援"],"ward":"川崎市","address":"神奈川県川崎市高津区坂戸２−１７−８ＲＯＡＤ＆ＳＫＹ１階","tel":"044-322-8435","url":"https://www.progress-stella.com","lat":35.59488142,"lng":139.62645509,"weekday":"10:30-13:45","saturday":"10:30-13:45","sunday":"","holiday":"","closed":"火・日","capacity":10,"id":"1455300655"},{"name":"ステラスカイ","nameKana":"すてらすかい","corp":"株式会社ＰＲＯＧＲＥＳＳ","serviceTypes":["児童発達支援","放課後等デイサービス"],"ward":"横浜市","address":"神奈川県横浜市南区浦舟町３−４３−６アリスビル２０３号室","tel":"045-325-7800","url":"","lat":35.43429499,"lng":139.62684057,"weekday":"10:30-18:00","saturday":"","sunday":"","holiday":"","closed":"","capacity":10,"id":"1450500408"},{"name":"ぱぴぃ","nameKana":"ぱぴぃ","corp":"合同会社もりもり","serviceTypes":["児童発達支援","放課後等デイサービス"],"ward":"相模原市","address":"神奈川県相模原市中央区淵野辺本町１丁目８番６号","tel":"042-707-9310","url":"","lat":35.58072598,"lng":139.39924304,"weekday":"10:00-15:00","saturday":"09:30-17:30","sunday":"","holiday":"09:30-17:30","closed":"日曜日","capacity":5,"id":"1452602558"},{"name":"わいわいプラス　ラ・ポーズ","nameKana":"わいわいぷらすらぽーず","corp":"ムック株式会社","serviceTypes":["児童発達支援"],"ward":"相模原市","address":"神奈川県相模原市中央区陽光台２丁目３番２号ソレアード陽光台１０４号室","tel":"042-704-9011","url":"http://waiwai-plus.com/la.pause","lat":35.55755989,"lng":139.37272645,"weekday":"13:00-17:30","saturday":"10:30-17:30","sunday":"","holiday":"10:30-17:30","closed":"日曜日","capacity":10,"id":"1452602186"},{"name":"心花すげ","nameKana":"こはなすげ","corp":"一般社団法人心花","serviceTypes":["児童発達支援","放課後等デイサービス"],"ward":"川崎市","address":"神奈川県川崎市多摩区菅２丁目１３−１カサベルデ多摩101","tel":"044-322-0303","url":"https://cohana.or.jp/access/","lat":35.63238122,"lng":139.53022092,"weekday":"13:00-18:20","saturday":"","sunday":"","holiday":"","closed":"土曜日・日曜日・祝日・年末年始","capacity":10,"id":"1455400471"},{"name":"ぴっころもんど　さがみはら","nameKana":"ぴっころもんどさがみはら","corp":"一般社団法人なれっじ・ネットワーク","serviceTypes":["児童発達支援","放課後等デイサービス"],"ward":"相模原市","address":"神奈川県相模原市南区大野台３丁目２５番１９号エンプレス１０２","tel":"042-860-7256","url":"https://tampopo-piccolo.com/","lat":35.5506771,"lng":139.40067724,"weekday":"10:00-16:00","saturday":"10:00-16:00","sunday":"","holiday":"","closed":"水曜日、日曜、祝日","capacity":5,"id":"1452601550"},{"name":"リンク大和東教室","nameKana":"りんくやまとひがしきょうしつ","corp":"株式会社結ＰＬＵＳ","serviceTypes":["児童発達支援","放課後等デイサービス"],"ward":"大和市","address":"神奈川県大和市大和東３丁目４−４３階","tel":"046-200-7425","url":"https://yuiplus.com/","lat":35.47166029,"lng":139.46488893,"weekday":"09:30-17:30","saturday":"","sunday":"","holiday":"09:30-17:30","closed":"土・日　、年末年始（１２月２９日〜１月３日）","capacity":10,"id":"1453000414"},{"name":"リンク大和駅前教室","nameKana":"りんくやまとえきまえきょうしつ","corp":"株式会社結ＰＬＵＳ","serviceTypes":["児童発達支援","放課後等デイサービス"],"ward":"大和市","address":"神奈川県大和市大和東３丁目３−２第二小島ビル２階２０１号室","tel":"046-204-7154","url":"https://yuiplus.com/","lat":35.47167415,"lng":139.46251126,"weekday":"09:30-17:30","saturday":"","sunday":"","holiday":"09:30-17:30","closed":"土・日　、年末年始（１２月２９日〜１月３日）","capacity":10,"id":"1453000612"},{"name":"放課後等デイサービス　ウィズ・ユー本厚木","nameKana":"ほうかごとうでいさーびすうぃずゆーほんあつぎ","corp":"株式会社テクタード","serviceTypes":["児童発達支援","放課後等デイサービス"],"ward":"厚木市","address":"神奈川県厚木市旭町１丁目９−１６電車：小田急小田原線「本厚木駅」　徒歩5分","tel":"046-229-4071","url":"https://www.with-ac.com/shisetu/honatsugi/","lat":35.43668223,"lng":139.36252212,"weekday":"10:00-17:00","saturday":"10:00-16:00","sunday":"","holiday":"10:00-16:00","closed":"日曜日、年末年始（12月30日〜1月3日）","capacity":10,"id":"1452900903"},{"name":"こどもクロス　湘南教室","nameKana":"こどもくろすしょうなんきょうしつ","corp":"きずな株式会社","serviceTypes":["児童発達支援","放課後等デイサービス"],"ward":"茅ヶ崎市","address":"神奈川県茅ヶ崎市香川四丁目４番地９号　２階","tel":"0467-73-8642","url":"https://kp-shounan.com/","lat":35.35153058,"lng":139.39759264,"weekday":"13:00-17:30","saturday":"10:30-17:00","sunday":"","holiday":"","closed":"日曜　祝日　夏季休暇（8/12〜8/16）　冬期休暇（12/29〜1/3）","capacity":10,"id":"1452400532"},{"name":"脳を育てる運動療育センター　こどもプラス　秦野渋沢教室","nameKana":"のうをそだてるうんどうりょういくせんたーこどもぷらすはだのふじさわきょうしつ","corp":"きずな株式会社","serviceTypes":["児童発達支援","放課後等デイサービス"],"ward":"秦野市","address":"神奈川県秦野市柳町一丁目2番10号","tel":"0463-75-9855","url":"http://kp-shibusawa.com/","lat":35.37465958,"lng":139.18280693,"weekday":"13:00-17:00","saturday":"09:00-16:30","sunday":"","holiday":"","closed":"日曜、祝日","capacity":10,"id":"1452800277"},{"name":"まなびの森キラリ十日市場","nameKana":"まなびのもりきらりとおかいちば","corp":"株式会社こどもの森","serviceTypes":["児童発達支援","放課後等デイサービス"],"ward":"横浜市","address":"神奈川県横浜市緑区十日市場町819-13　2F","tel":"045-479-2522","url":"","lat":35.52508219,"lng":139.51667672,"weekday":"","saturday":"","sunday":"","holiday":"","closed":"","capacity":null,"id":"1453300319"},{"name":"まなびの森キラリ星川","nameKana":"まなびのもりきらりほしかわ","corp":"株式会社こどもの森","serviceTypes":["児童発達支援"],"ward":"横浜市","address":"神奈川県横浜市保土ケ谷区星川２−１２−６","tel":"045-332-1631","url":"","lat":35.4599913,"lng":139.59004109,"weekday":"","saturday":"","sunday":"","holiday":"","closed":"土、日、祝日、年末年始、お盆","capacity":10,"id":"1450600489"},{"name":"まなびの森キラリ中央林間","nameKana":"まなびのもりきらりちゅうおうりんかん","corp":"株式会社こどもの森","serviceTypes":["児童発達支援"],"ward":"大和市","address":"神奈川県大和市中央林間９−６−１","tel":"046-275-0880","url":"","lat":35.51067188,"lng":139.45037406,"weekday":"","saturday":"","sunday":"","holiday":"","closed":"","capacity":null,"id":"1453000646"},{"name":"まなびの森キラリ武蔵中原","nameKana":"まなびのもりきらりむさしなかはら","corp":"株式会社こどもの森","serviceTypes":["児童発達支援"],"ward":"川崎市","address":"神奈川県川崎市中原区下小田中３−７−２０","tel":"044-777-5666","url":"","lat":35.57443202,"lng":139.64592388,"weekday":"","saturday":"","sunday":"","holiday":"","closed":"","capacity":null,"id":"1455200723"},{"name":"まなびの森キラリ矢向","nameKana":"まなびのもりきらりやこう","corp":"株式会社こどもの森","serviceTypes":["児童発達支援"],"ward":"川崎市","address":"神奈川県川崎市幸区小倉３丁目１−１５","tel":"044-588-0180","url":"","lat":35.54257093,"lng":139.67156203,"weekday":"","saturday":"","sunday":"","holiday":"","closed":"","capacity":null,"id":"1455100568"},{"name":"まなびの森キラリ梶が谷","nameKana":"まなびのもりきらりかじがや","corp":"株式会社こどもの森","serviceTypes":["児童発達支援"],"ward":"川崎市","address":"神奈川県川崎市高津区末長１丁目９−１","tel":"044-877-1900","url":"","lat":35.5940376,"lng":139.60646617,"weekday":"","saturday":"","sunday":"","holiday":"","closed":"","capacity":null,"id":"1455300705"},{"name":"ＴＡＳＵＣ新川崎教室","nameKana":"たすくしんかわさききょうしつ","corp":"ＴＡＳＵＣ株式会社","serviceTypes":["児童発達支援","放課後等デイサービス"],"ward":"川崎市","address":"神奈川県川崎市幸区下平間197新井ビル201","tel":"080-7287-5628","url":"https://tasuc.com/shinkawasaki/","lat":35.5514111,"lng":139.67941936,"weekday":"09:00-17:30","saturday":"09:00-17:30","sunday":"","holiday":"09:00-17:30","closed":"日曜日、月曜日","capacity":10,"id":"1455100444"},{"name":"放課後等デイサービス　ウィズ・ユー中野島","nameKana":"ほうかごとうでいさーびすうぃずゆーなかのしま","corp":"合同会社ヴァンジェーロ","serviceTypes":["児童発達支援","放課後等デイサービス"],"ward":"川崎市","address":"神奈川県川崎市多摩区布田２１−３稲田中野島ビル１階","tel":"044-543-9813","url":"https://www.with-ac.com/shisetu/nakanoshima/","lat":35.63216768,"lng":139.54821947,"weekday":"10:00-17:00","saturday":"10:00-16:00","sunday":"","holiday":"10:00-16:00","closed":"日曜日、年末年始","capacity":10,"id":"1455400729"},{"name":"放課後等デイサービス　ウィズ・ユー相模原南橋本","nameKana":"ほうかごとうでいさーびすうぃずゆーさがみはらみなみはしもと","corp":"株式会社ラモードラメア","serviceTypes":["児童発達支援","放課後等デイサービス"],"ward":"相模原市","address":"神奈川県相模原市中央区南橋本1-15-3プラネット南橋本　102","tel":"042-703-1547","url":"https://lamourdelamere-recruit.com/","lat":35.57949393,"lng":139.35326661,"weekday":"10:00-18:00","saturday":"10:00-18:00","sunday":"00:00-00:00","holiday":"10:00-18:00","closed":"毎週日曜日、毎年12月30日、31日、1月1日、2日、3日","capacity":10,"id":"1452602129"},{"name":"あそびのひろば　こかげ","nameKana":"あそひのひろばこかげ","corp":"社会福祉法人大樹","serviceTypes":["児童発達支援","放課後等デイサービス"],"ward":"横浜市","address":"神奈川県横浜市鶴見区鶴見中央３−１０−２０あしほ総合クリニック２階","tel":"045-503-1256","url":"http://www.taiju.or.jp","lat":35.50844223,"lng":139.68234207,"weekday":"09:30-12:40","saturday":"","sunday":"","holiday":"","closed":"土、日、祝日、年末年始","capacity":6,"id":"1450100035"},{"name":"STELLA　KID　鶴ヶ峰教室","nameKana":"すてらきっどつるがみねきょうしつ","corp":"一般社団法人KID-G","serviceTypes":["児童発達支援"],"ward":"横浜市","address":"神奈川県横浜市旭区白根５丁目１０番地１AOKIYA　BLD１階","tel":"045-442-3097","url":"https://www.stellakid.com/","lat":35.48660373,"lng":139.54292977,"weekday":"09:30-16:00","saturday":"09:30-16:00","sunday":"","holiday":"","closed":"日祝日","capacity":10,"id":"1453200261"},{"name":"児童発達支援事業所　ＳＰＡＲＫ　ＫＩＤ　岸谷教室","nameKana":"じどうはったつしえんじぎょうしょすぱーくきっどきしやきょうしつ","corp":"一般社団法人KID-G","serviceTypes":["児童発達支援"],"ward":"横浜市","address":"神奈川県横浜市鶴見区岸谷１丁目２２−１０　２階","tel":"045-633-8131","url":"https://www.kid-g.com/guide/index/30","lat":35.49602156,"lng":139.66530521,"weekday":"10:30-16:40","saturday":"","sunday":"","holiday":"","closed":"土曜日、日曜日、祝日、年末年始（１２月２９日〜１月３日）","capacity":10,"id":"1450100613"},{"name":"まんまるキッズ鶴見教室","nameKana":"まんまるきっずつるみきょうしつ","corp":"株式会社自立","serviceTypes":["児童発達支援","放課後等デイサービス"],"ward":"横浜市","address":"神奈川県横浜市鶴見区下末吉１−２６−２８","tel":"045-834-5806","url":"https://ameblo.jp/hanamarukids-trm/","lat":35.51937988,"lng":139.67133191,"weekday":"10:00-17:00","saturday":"10:00-16:00","sunday":"","holiday":"10:00-17:00","closed":"土曜日・日曜日","capacity":10,"id":"1450100332"},{"name":"カンガルー療育支援室横浜北部ステーション","nameKana":"かんがるーりょういくしえんしつよこはまほくぶすてーしょん","corp":"株式会社美頼","serviceTypes":["児童発達支援","放課後等デイサービス"],"ward":"横浜市","address":"神奈川県横浜市都筑区北山田5-1-54プーロフェリチッタ101","tel":"045-534-4258","url":"https://www.mirai-heart.co.jp/kangaroo-hokubu/","lat":35.54485291,"lng":139.57053275,"weekday":"","saturday":"","sunday":"","holiday":"","closed":"","capacity":5,"id":"1453800854"},{"name":"カンガルー療育支援室横浜東部ステーション","nameKana":"かんがるーりょういくしえんしつよこはまとうぶすてーしょん","corp":"株式会社美頼","serviceTypes":["児童発達支援","放課後等デイサービス"],"ward":"横浜市","address":"神奈川県横浜市鶴見区矢向1-20-72ダイアパレス矢向第2-102号","tel":"045-947-2585","url":"https://www.mirai-heart.co.jp/kangaroo-toubu/","lat":35.53080601,"lng":139.67209832,"weekday":"","saturday":"","sunday":"","holiday":"","closed":"","capacity":null,"id":"1450100514"},{"name":"キッズスタジオグリーン","nameKana":"きっずすたじおぐりーん","corp":"株式会社ティービーオー","serviceTypes":["児童発達支援"],"ward":"横浜市","address":"神奈川県横浜市青葉区市ケ尾町518-1東急ドエル・アルス市が尾南102B","tel":"045-532-5315","url":"http://kids-studio-green.com/","lat":35.5439496,"lng":139.54620197,"weekday":"","saturday":"","sunday":"","holiday":"","closed":"","capacity":null,"id":"1453700328"},{"name":"きっずあいらんど港南台教室","nameKana":"きっずあいらんどこうなんだいきょうしつ","corp":"株式会社スモールワールド","serviceTypes":["児童発達支援","放課後等デイサービス"],"ward":"横浜市","address":"神奈川県横浜市港南区港南台５丁目１９番１５号　サウスポートベース小原１階","tel":"045-374-5031","url":"","lat":35.37026847,"lng":139.58270309,"weekday":"","saturday":"","sunday":"","holiday":"","closed":"","capacity":null,"id":"1453100420"},{"name":"子どもの発達教室たっち","nameKana":"こどものはったつきょうしつたっち","corp":"合同会社ConnectwithChildren","serviceTypes":["児童発達支援","放課後等デイサービス"],"ward":"横浜市","address":"神奈川県横浜市鶴見区豊岡町２０−２４清新スクエア１０１","tel":"045-570-5880","url":"","lat":35.50844223,"lng":139.68234207,"weekday":"10:00-17:00","saturday":"10:00-17:00","sunday":"10:00-17:00","holiday":"10:00-17:00","closed":"なし","capacity":10,"id":"1450100449"},{"name":"カンガルー療育支援室　川崎ステーション","nameKana":"かんがるーりょういくしえんしつかわさきすてーしょん","corp":"株式会社美頼","serviceTypes":["児童発達支援","放課後等デイサービス"],"ward":"川崎市","address":"神奈川県川崎市高津区二子４丁目２番２４号川添ビル１階","tel":"044-874-0774","url":"","lat":35.60333298,"lng":139.6177139,"weekday":"10:30-13:30","saturday":"10:30-13:30","sunday":"","holiday":"","closed":"","capacity":5,"id":"1455300630"},{"name":"ぽのあはうす　つるみいちば","nameKana":"ぽのあはうすつるみいちば","corp":"株式会社PONO　NOA","serviceTypes":["児童発達支援","放課後等デイサービス"],"ward":"横浜市","address":"神奈川県横浜市鶴見区平安町２丁目１０−１エステートＴ＆Ｎ１０２","tel":"090-2309-7955","url":"https://ponoa-house.com","lat":35.51122775,"lng":139.69172178,"weekday":"10:00-17:00","saturday":"10:00-17:00","sunday":"","holiday":"","closed":"日曜日・月曜日・祝日・年末年始（12月29日〜1月3日）","capacity":10,"id":"1450100563"},{"name":"ブロッサムジュニア横浜鶴見教室","nameKana":"ぶろっさむじゅにあよこはまつるみきょうしつ","corp":"株式会社パディントン","serviceTypes":["児童発達支援","放課後等デイサービス"],"ward":"横浜市","address":"神奈川県横浜市鶴見区豊岡町４０ー１３トヨオカ吉田ビル２階","tel":"045-947-3091","url":"https://burossamujuniahengbanghejianjiaoshi.webnode.jp/","lat":35.51346671,"lng":139.67359011,"weekday":"09:30-12:00","saturday":"09:30-12:00","sunday":"","holiday":"09:30-12:00","closed":"日曜日","capacity":10,"id":"1450100480"},{"name":"キッズライン","nameKana":"きっずらいん","corp":"一般社団法人　キッズライン","serviceTypes":["児童発達支援","放課後等デイサービス"],"ward":"横浜市","address":"神奈川県横浜市鶴見区岸谷一丁目11番10号","tel":"045-572-2627","url":"https://kidsline.jp","lat":35.49487725,"lng":139.6648164,"weekday":"10:15-17:00","saturday":"09:30-15:30","sunday":"","holiday":"","closed":"日曜日、月曜日、祝日、１２月２９日〜１月３日","capacity":10,"id":"1450100050"},{"name":"横浜市中部地域療育センター児童デイサービス事業所「フルール」","nameKana":"よこはましちゅうぶちいきりょういくせんたーじどうでいさーびすじぎょうしょふるーる","corp":"社会福祉法人青い鳥","serviceTypes":["児童発達支援"],"ward":"横浜市","address":"神奈川県横浜市中区山吹町１−３２階","tel":"045-260-0840","url":"https://www.aoitori-y.jp/yokohama-central-ryoiku/","lat":35.44031082,"lng":139.63233167,"weekday":"08:45-17:15","saturday":"","sunday":"","holiday":"","closed":"土日祝、年末年始","capacity":12,"id":"1450400021"},{"name":"横浜市中部地域療育センター","nameKana":"よこはましちゅうぶちいきりょういくせんたー","corp":"社会福祉法人青い鳥","serviceTypes":["児童発達支援"],"ward":"横浜市","address":"神奈川県横浜市南区清水ケ丘４９番地","tel":"045-253-0358","url":"https://www.aoitori-y.jp/yokohama-central-ryoiku/","lat":35.43916358,"lng":139.60947809,"weekday":"08:45-17:15","saturday":"","sunday":"","holiday":"","closed":"土日祝年末年始","capacity":60,"id":"1450500028"},{"name":"横浜市南部地域療育センター","nameKana":"よこはましなんぶちいきりょういくせんたー","corp":"社会福祉法人青い鳥","serviceTypes":["児童発達支援"],"ward":"横浜市","address":"神奈川県横浜市磯子区横浜市磯子区杉田5-32-20","tel":"045-774-3831","url":"http://www.aoitori-y.jp/","lat":35.4023165,"lng":139.6184802,"weekday":"08:45-17:15","saturday":"","sunday":"","holiday":"","closed":"日曜日・土曜日・国民の祝日・1月2日、1月3日、12月29日から12月31日まで","capacity":60,"id":"1450700016"},{"name":"横浜市南部地域療育センター児童発達支援事業所「はらっぱ」","nameKana":"よこはましなんぶちいきりょういくせんたーじどうはったつしえんじぎょうしょはらっぱ","corp":"社会福祉法人青い鳥","serviceTypes":["児童発達支援"],"ward":"横浜市","address":"神奈川県横浜市磯子区横浜市磯子区中原1-1-5新杉田ビル２・３階","tel":"045-352-8391","url":"http://www.aoitori-y.jp/","lat":35.4023165,"lng":139.6184802,"weekday":"08:45-17:15","saturday":"","sunday":"","holiday":"","closed":"日曜日・土曜日・国民の祝日・1月2日、1月3日、12月29日から12月31日まで","capacity":48,"id":"1450700024"},{"name":"横浜市東部地域療育センター児童発達支援事業所「パレット」","nameKana":"よこはましとうぶちいきりょういくせんたーじどうはったつしえんじぎょうしょぱれっと","corp":"社会福祉法人青い鳥","serviceTypes":["児童発達支援"],"ward":"横浜市","address":"神奈川県横浜市鶴見区鶴見中央５−４−１０ベルス・ベイサイド２階","tel":"045-501-6411","url":"","lat":35.5050344,"lng":139.67723432,"weekday":"","saturday":"","sunday":"","holiday":"","closed":"土日祝日及び年末年始","capacity":60,"id":"1450100027"},{"name":"横浜市東部地域療育センター","nameKana":"よこはましとうぶちいきりょういくせんたー","corp":"社会福祉法人青い鳥","serviceTypes":["児童発達支援"],"ward":"横浜市","address":"神奈川県横浜市神奈川区東神奈川１−２９横浜市東部療育ビル","tel":"045-441-7711","url":"http://www.aoitori-y.jp/yokohama-east-ryoiku/","lat":35.4770112,"lng":139.6293722,"weekday":"08:45-17:15","saturday":"","sunday":"","holiday":"","closed":"土日祝日","capacity":90,"id":"1450200017"},{"name":"横浜市東部地域療育センター　児童発達支援事業所「わかば」","nameKana":"よこはましとうぶちいきりょういくせんたーじどうはったつしえんじぎょうしょわかば","corp":"社会福祉法人青い鳥","serviceTypes":["児童発達支援"],"ward":"横浜市","address":"神奈川県横浜市神奈川区西神奈川１丁目１１番地の５アートビスタ横浜ビル３階","tel":"045-548-3477","url":"https://www.aoitori-y.jp/","lat":35.48025214,"lng":139.63145763,"weekday":"10:00-13:30","saturday":"","sunday":"","holiday":"","closed":"土曜・日曜・祝祭日・年末年始","capacity":48,"id":"1450200470"},{"name":"児童発達支援事業所おれんじハウス西横浜教室","nameKana":"じどうはったつしえんじぎょうしょおれんじはうすにしよこはまきょうしつ","corp":"ぷれいぐらんど株式会社","serviceTypes":["児童発達支援","居宅訪問型児童発達支援"],"ward":"横浜市","address":"神奈川県横浜市西区浜松町5-1西横浜新電ビル1階","tel":"045-315-7769","url":"https://peraichi.com/landing_pages/view/orange-jihatsu/","lat":35.45174812,"lng":139.6114416,"weekday":"09:00-17:00","saturday":"09:30-15:30","sunday":"","holiday":"","closed":"日・祝","capacity":15,"id":"1450300106"},{"name":"こどもサポート広場ｍｉｎａｔｏｓ白楽店","nameKana":"こどもさぽーとひろばみなとすはくらくてん","corp":"ヒューマンスターチャイルド株式会社","serviceTypes":["児童発達支援","放課後等デイサービス"],"ward":"横浜市","address":"神奈川県横浜市神奈川区白幡向町７−２ホーユウコンフォルトレディース白楽１０１","tel":"045-717-8901","url":"https://www.starchild.jp/minatos/","lat":35.49242008,"lng":139.63216816,"weekday":"10:00-19:00","saturday":"09:30-18:30","sunday":"","holiday":"10:00-19:00","closed":"日曜、12/29〜1/3","capacity":10,"id":"1450200512"},{"name":"こどもサポート広場ｍｉｎａｔｏs綱島店","nameKana":"こどもさぽーとひろばみなとすつなしまてん","corp":"ヒューマンスターチャイルド株式会社","serviceTypes":["児童発達支援","放課後等デイサービス"],"ward":"横浜市","address":"神奈川県横浜市港北区綱島東１−５−６ボヌール綱島４０１","tel":"045-717-6460","url":"https://www.starchild.jp/minatos/","lat":35.53518885,"lng":139.63452939,"weekday":"10:00-19:00","saturday":"09:30-18:30","sunday":"","holiday":"10:00-19:00","closed":"日曜、年末年始","capacity":10,"id":"1450900749"},{"name":"多機能型児童発達支援事業所　ディアーズ１’ｓｔ","nameKana":"たきのうがたじどうはったつしえんじぎょうしょでぃあーずふぁーすと","corp":"合同会社DDサポートユニット","serviceTypes":["児童発達支援","放課後等デイサービス"],"ward":"横浜市","address":"神奈川県横浜市神奈川区子安通１−１１０−１","tel":"045-594-7287","url":"","lat":35.4847993,"lng":139.64711174,"weekday":"","saturday":"","sunday":"","holiday":"","closed":"日・月","capacity":null,"id":"1450200256"},{"name":"療育特化型事業所ディアーズ１st鶴見市場","nameKana":"りょういくとっかがたじぎょうしょでぃあーずふぁーすとつるみいちば","corp":"合同会社DDサポートユニット","serviceTypes":["児童発達支援","放課後等デイサービス"],"ward":"横浜市","address":"神奈川県横浜市鶴見区市場大和町６−１５コーポ鈴木１階","tel":"045-717-8159","url":"","lat":35.51786028,"lng":139.6875137,"weekday":"","saturday":"","sunday":"","holiday":"","closed":"","capacity":null,"id":"1450100571"},{"name":"中川地域ケアプラザ　ルークス中川","nameKana":"なかがわちいきけあぷらざるーくすなかがわ","corp":"社会福祉法人　若竹大寿会","serviceTypes":["児童発達支援","放課後等デイサービス"],"ward":"横浜市","address":"神奈川県横浜市都筑区中川１−１−１","tel":"045-500-9321","url":"http://www.nakagawa-c-waka.jp/","lat":35.56300017,"lng":139.5696373,"weekday":"09:00-18:00","saturday":"09:00-18:00","sunday":"","holiday":"09:00-18:00","closed":"日曜、年末年始","capacity":6,"id":"1453800037"},{"name":"キッズアティック","nameKana":"きっずあてぃっく","corp":"ＫＩＤＳ　ＡＴＴＩＣ　ＵＮＩＴＥＤ　株式会社","serviceTypes":["児童発達支援","放課後等デイサービス"],"ward":"横浜市","address":"神奈川県横浜市神奈川区神大寺2-29-29-2F","tel":"045-413-1010","url":"https://www.kids-attic.org","lat":35.48713271,"lng":139.61267138,"weekday":"08:45-15:30","saturday":"07:30-13:30","sunday":"","holiday":"","closed":"日曜祝日","capacity":10,"id":"1450200173"},{"name":"川崎西部地域療育センター児童発達支援センター","nameKana":"かわさきせいぶちいきりょういくせんたーじどうはったつしえんせんたー","corp":"社会福祉法人青い鳥","serviceTypes":["児童発達支援"],"ward":"川崎市","address":"神奈川県川崎市宮前区平２丁目６番の１","tel":"044-865-2905","url":"http://www.aoitori-y.jp/","lat":35.60150808,"lng":139.56956343,"weekday":"08:30-17:00","saturday":"","sunday":"","holiday":"","closed":"土、日、祝日、12/29〜1/3","capacity":60,"id":"1455500015"},{"name":"川崎西部地域療育センター児童発達支援事業所","nameKana":"かわさきせいぶちいきりょういくせんたーじどうはったつしえんじぎょうしょ","corp":"社会福祉法人青い鳥","serviceTypes":["児童発達支援"],"ward":"川崎市","address":"神奈川県川崎市宮前区平２丁目６番の１","tel":"044-865-2905","url":"https://www.aoitori-y.jp/","lat":35.60150808,"lng":139.56956343,"weekday":"08:30-17:00","saturday":"","sunday":"","holiday":"","closed":"土、日、祝日、12/29/〜1/3","capacity":10,"id":"1455500023"},{"name":"川崎市子ども発達・相談支援センター　アエルたま","nameKana":"かわさきしこどもはったつそうだんせんたーあえるたま","corp":"社会福祉法人青い鳥","serviceTypes":["児童発達支援"],"ward":"川崎市","address":"神奈川県川崎市多摩区西生田2-1-20","tel":"044-299-6812","url":"","lat":35.61543998,"lng":139.53891338,"weekday":"08:30-17:00","saturday":"","sunday":"","holiday":"","closed":"土日祝日、年末年始（12/29〜1/3）","capacity":10,"id":"1455400554"},{"name":"川崎市子ども発達・相談支援センター　アエルみやまえ","nameKana":"かわさきしこどもはったつそうだんせんたーあえるみやまえ","corp":"社会福祉法人青い鳥","serviceTypes":["児童発達支援"],"ward":"川崎市","address":"神奈川県川崎市宮前区馬絹6-6-9フューモビル1F","tel":"044-852-5252","url":"","lat":35.58249783,"lng":139.59329546,"weekday":"08:30-17:00","saturday":"","sunday":"","holiday":"","closed":"土日祝日、年末年始（12/29〜1/3）","capacity":10,"id":"1455500460"},{"name":"横須賀市療育相談センター","nameKana":"よこすかしりょういくそうだんせんたー","corp":"社会福祉法人青い鳥","serviceTypes":["児童発達支援","医療型児童発達支援"],"ward":"横須賀市","address":"神奈川県横須賀市小川町１６番地はぐくみかん","tel":"046-822-6741","url":"https://www.aoitori-y.jp/","lat":35.28270952,"lng":139.67260005,"weekday":"10:00-14:30","saturday":"","sunday":"","holiday":"","closed":"土、日、祝日、年末年始","capacity":50,"id":"1451900037"},{"name":"児童発達支援とことこ戸塚第2教室","nameKana":"じどうはったつしえんとことことつかだいにきょうしつ","corp":"社会福祉法人　昴","serviceTypes":["児童発達支援","放課後等デイサービス"],"ward":"横浜市","address":"神奈川県横浜市戸塚区戸塚町2779-2舟田ビル2階6号室","tel":"045-871-1313","url":"","lat":35.40001193,"lng":139.53348209,"weekday":"","saturday":"","sunday":"","holiday":"","closed":"","capacity":null,"id":"1451000465"},{"name":"ハッピーキッズＦＣ横浜","nameKana":"はっぴーきっずえふしーよこはま","corp":"株式会社亜多夢","serviceTypes":["児童発達支援","放課後等デイサービス"],"ward":"横浜市","address":"神奈川県横浜市西区赤門町二丁目25番地　日本電能ビル2階・3階","tel":"045-341-0280","url":"","lat":35.44250501,"lng":139.62098233,"weekday":"","saturday":"","sunday":"","holiday":"","closed":"","capacity":null,"id":"1450300148"},{"name":"運動発達支援えすぴー","nameKana":"うんどうはったつしえんえすぴー","corp":"株式会社笑仲理","serviceTypes":["児童発達支援"],"ward":"相模原市","address":"神奈川県相模原市南区上鶴間本町８丁目５番２号ジョルカビル１階","tel":"042-705-8185","url":"https://enari-inc.com/","lat":35.53146007,"lng":139.45162042,"weekday":"10:00-18:00","saturday":"10:00-18:00","sunday":"","holiday":"","closed":"日、月、祝日","capacity":10,"id":"1452602335"},{"name":"Ａｐｐｌｅ　Ｊｕｎｉｏｒ　鵜野森教室","nameKana":"あっぷるじゅにあうのもりきょうしつ","corp":"療育サポート株式会社","serviceTypes":["児童発達支援"],"ward":"相模原市","address":"神奈川県相模原市南区鵜野森１丁目１６番１０号メイプルハウス町田１階","tel":"09017981468","url":"","lat":35.54451108,"lng":139.43175505,"weekday":"09:30-17:00","saturday":"09:30-17:00","sunday":"00:00-00:00","holiday":"00:00-00:00","closed":"日祝祭日及び第2第4土曜日以外の土曜日","capacity":10,"id":"1452602384"},{"name":"放課後等デイサービスウィズ・ユー港南台","nameKana":"ほうかごとうでいさーびすうぃずゆーこうなんだい","corp":"ココロクリエーション株式会社","serviceTypes":["児童発達支援","放課後等デイサービス"],"ward":"横浜市","address":"神奈川県横浜市港南区港南台５丁目２３−３５港南台Ｋビル２０２","tel":"045-374-3444","url":"","lat":35.36838813,"lng":139.58059218,"weekday":"10:00-16:00","saturday":"","sunday":"","holiday":"10:00-16:00","closed":"土曜日、日曜日","capacity":10,"id":"1453100537"},{"name":"エブリイ","nameKana":"えぶりい","corp":"株式会社ぐっぴー","serviceTypes":["児童発達支援","放課後等デイサービス"],"ward":"横浜市","address":"神奈川県横浜市西区久保町２１−２１郡山ビル２階","tel":"045-309-9518","url":"https://www.every-ds.jp/","lat":35.45028163,"lng":139.61060004,"weekday":"10:00-13:00","saturday":"","sunday":"","holiday":"","closed":"土曜、日曜、祝日","capacity":10,"id":"1450300163"},{"name":"ｔｉｎｏ","nameKana":"てぃの","corp":"合同会社ｔｉｎｏ−ｃｈｏｕ","serviceTypes":["児童発達支援","放課後等デイサービス"],"ward":"平塚市","address":"神奈川県平塚市宮の前2-20クレアール湘南102","tel":"0463-73-6929","url":"https://www.tino-chou.com/","lat":35.33184077,"lng":139.35064554,"weekday":"09:30-17:00","saturday":"","sunday":"","holiday":"","closed":"土日祝","capacity":10,"id":"1452000480"},{"name":"つむぎ子ども教室","nameKana":"つむぎこどもきょうしつ","corp":"特定非営利活動法人ムーミンの会","serviceTypes":["児童発達支援","放課後等デイサービス"],"ward":"横浜市","address":"神奈川県横浜市西区浜松町10−10なかまの杜　3Ｆ","tel":"045-315-2172","url":"http://moomin-asobi.org/","lat":35.45252024,"lng":139.60985288,"weekday":"09:00-15:00","saturday":"09:00-16:00","sunday":"","holiday":"","closed":"日曜・祭日・年末年始","capacity":10,"id":"1450300015"},{"name":"つむぎ子ども教室Ⅱ","nameKana":"つむぎこどもきょうしつつー","corp":"特定非営利活動法人ムーミンの会","serviceTypes":["児童発達支援","放課後等デイサービス"],"ward":"横浜市","address":"神奈川県横浜市西区久保町24-352Ｆ","tel":"045-341-4695","url":"http://moomin-asobi.org/tsumugi2/index.html","lat":35.45003443,"lng":139.60988901,"weekday":"09:00-15:00","saturday":"09:00-16:00","sunday":"","holiday":"","closed":"日曜・祭日・年末年始","capacity":7,"id":"1450300130"},{"name":"さくら児童デイサービス上倉田","nameKana":"さくらじどうでいさーびすかみくらた","corp":"さくらメディカルケア株式会社","serviceTypes":["児童発達支援","放課後等デイサービス"],"ward":"横浜市","address":"神奈川県横浜市戸塚区上倉田町４６４リバーサイドパレス１０１","tel":"045-392-6260","url":"http://www.sakura-kids.co.jp/index.html","lat":35.39872323,"lng":139.53445981,"weekday":"09:30-13:00","saturday":"","sunday":"","holiday":"09:30-13:00","closed":"土曜日・日曜日・12月30日〜1月3日","capacity":10,"id":"1451000176"},{"name":"キッズコネクション","nameKana":"きっずこねくしょん","corp":"一般社団法人　絆実","serviceTypes":["児童発達支援","放課後等デイサービス"],"ward":"横浜市","address":"神奈川県横浜市中区本牧町一丁目　２８２−６","tel":"045-884-9601","url":"https://www.kids-connection.info","lat":35.42885583,"lng":139.65817711,"weekday":"10:00-18:00","saturday":"10:00-15:00","sunday":"","holiday":"10:00-15:00","closed":"日曜、年末年始、夏季休業","capacity":10,"id":"1450400161"},{"name":"ＹＭＣＡ児童発達支援きくな","nameKana":"わいえむしーえーじどうはったつしえんきくな","corp":"公益財団法人　横浜YMCA","serviceTypes":["児童発達支援"],"ward":"横浜市","address":"神奈川県横浜市港北区菊名６−１３−５７横浜北ＹＭＣＡ内","tel":"045-433-4321","url":"https://www.yokohamaymca.org/","lat":35.51177185,"lng":139.63147712,"weekday":"09:00-16:00","saturday":"","sunday":"","holiday":"","closed":"指定日","capacity":10,"id":"1450900145"},{"name":"フレンズジム南山田","nameKana":"ふれんずじむみなみやまだ","corp":"株式会社　ビー・フレンズ","serviceTypes":["児童発達支援","放課後等デイサービス"],"ward":"横浜市","address":"神奈川県横浜市都筑区南山田２−３６−１６セントエミネンス","tel":"045-595-9695","url":"http://friendsgym.jp/","lat":35.55448287,"lng":139.59227737,"weekday":"10:00-12:00","saturday":"10:00-12:00","sunday":"00:00-00:00","holiday":"10:00-12:00","closed":"日曜日、夏季休業(8/13-16)、年末年始(12/30-1/3)","capacity":10,"id":"1453800219"},{"name":"フレンズジム中川","nameKana":"ふれんずじむなかがわ","corp":"株式会社　ビー・フレンズ","serviceTypes":["児童発達支援","放課後等デイサービス"],"ward":"横浜市","address":"神奈川県横浜市都筑区中川３−２８−１６ボナール七番館","tel":"045-482-4420","url":"http://friendsgym.jp/","lat":35.56105875,"lng":139.56542671,"weekday":"10:30-12:30","saturday":"10:00-12:00","sunday":"00:00-00:00","holiday":"10:30-12:30","closed":"日曜日、夏季休業（8/13〜16）、年末年始（12/30〜1/3）","capacity":10,"id":"1453800128"},{"name":"こぱんはうすさくら横浜本牧教室","nameKana":"こぱんはうすさくらよこはまほんもくきょうしつ","corp":"株式会社TEAM J","serviceTypes":["児童発達支援"],"ward":"横浜市","address":"神奈川県横浜市中区本牧原1番4号MURALLAHONMOKU2階","tel":"045-319-6712","url":"","lat":35.42293753,"lng":139.66779846,"weekday":"10:00-17:00","saturday":"10:00-16:00","sunday":"","holiday":"10:00-16:00","closed":"日曜日","capacity":10,"id":"1450400260"},{"name":"ぐっと、あっと鶴見","nameKana":"ぐっとあっとつるみ","corp":"株式会社保育のみらい","serviceTypes":["児童発達支援","放課後等デイサービス"],"ward":"横浜市","address":"神奈川県横浜市神奈川区下末吉1-8-17レジデンス横浜Ⅱ203","tel":"045-642-6815","url":"https://good-at-kanagawa.net/","lat":35.47701119,"lng":139.6293722,"weekday":"10:00-15:00","saturday":"","sunday":"","holiday":"","closed":"土曜日、日曜日、祝日、年末年始","capacity":10,"id":"1450100522"},{"name":"放課後等デイサービス ウィズ・ユー武蔵小杉","nameKana":"ほうかごとうでいさーびすうぃずゆーむさしこすぎ","corp":"合同会社エフセット・ジャパン","serviceTypes":["児童発達支援"],"ward":"川崎市","address":"神奈川県川崎市中原区下沼部1760カインド玉川1F","tel":"044-750-0904","url":"https://www.with-ac.com/shisetu/musashikosugi/","lat":35.57301314,"lng":139.6676969,"weekday":"09:00-17:00","saturday":"09:00-16:00","sunday":"","holiday":"","closed":"12/30〜1/3まで、8/13〜8/15まで、祝日、日曜日、","capacity":10,"id":"1455200715"},{"name":"放課後等デイサービス　ウィズ・ユー武蔵小杉ミサンガ","nameKana":"ほうかごとうでいさーびすうぃずゆーむさしこすぎみさんが","corp":"合同会社エフセット・ジャパン","serviceTypes":["児童発達支援","放課後等デイサービス"],"ward":"川崎市","address":"神奈川県川崎市中原区上丸子山王町２丁目１３１８−６シゲタハウスセレクト １F","tel":"044-863-7123","url":"","lat":35.57592925,"lng":139.6669967,"weekday":"09:00-17:00","saturday":"09:00-17:00","sunday":"","holiday":"","closed":"12/30〜1/3まで、8/13〜8/15まで、祝日、日曜日","capacity":10,"id":"1455200780"},{"name":"クオール上大岡教室","nameKana":"くおーるかみおおおかきょうしつ","corp":"株式会社ナビライン","serviceTypes":["児童発達支援","放課後等デイサービス"],"ward":"横浜市","address":"神奈川県横浜市港南区上大岡東２−４４−１１ケイマンション上大岡１Ｆ","tel":"045-353-5860","url":"https://www.coeur-yokohama.com/","lat":35.40390188,"lng":139.59838465,"weekday":"10:00-17:30","saturday":"","sunday":"","holiday":"","closed":"土日祝休み、夏季休業、年末年始休業あり","capacity":10,"id":"1453100487"},{"name":"ＹＭＣＡ児童発達支援ふじさわ","nameKana":"わいえむしーえーじどうはったつしえんふじさわ","corp":"公益財団法人横浜ＹＭＣＡ","serviceTypes":["児童発達支援"],"ward":"藤沢市","address":"神奈川県藤沢市鵠沼石上１−１３−７","tel":"0466-26-1150","url":"https://alt.yokohamaymca.org","lat":35.33529503,"lng":139.48677185,"weekday":"11:00-17:00","saturday":"09:00-15:00","sunday":"","holiday":"","closed":"月曜日、日曜日、GW、年末年始","capacity":10,"id":"1452200726"},{"name":"こども支援ｋｕｐｕ","nameKana":"こどもしえんくぷ","corp":"特定非営利活動法人みちしるべ","serviceTypes":["児童発達支援"],"ward":"横浜市","address":"神奈川県横浜市都筑区早渕１−３６−１５","tel":"045-875-3377","url":"https://kodomo-kupu.jp","lat":35.54481239,"lng":139.59957156,"weekday":"09:45-16:00","saturday":"","sunday":"","holiday":"","closed":"土日祝","capacity":10,"id":"1453800326"},