[{"name":"デイサービスセンター春日和向陽","nameKana":"でいさーびすせんたーはるびよりこうよう","corp":"株式会社ワールドステイ","serviceTypes":["児童発達支援","放課後等デイサービス"],"ward":"新潟市","address":"新潟県新潟市東区向陽３丁目１１番地１０","tel":"025-275-7021","url":"","lat":37.94040886,"lng":139.11575204,"weekday":"09:00-16:30","saturday":"09:00-16:30","sunday":"09:00-16:30","holiday":"09:00-16:30","closed":"","capacity":25,"id":"1550101230"},{"name":"グローバルキッズメソッド８５","nameKana":"ぐろーばるきっずめそっどえいてぃいふぁいぶ","corp":"ハッピーライフケア株式会社","serviceTypes":["児童発達支援"],"ward":"新潟市","address":"新潟県新潟市西区小針３丁目３７番３０号","tel":"025-211-4191","url":"https://gkids-park.com/gkpshop/kobari/","lat":37.88714941,"lng":138.99698862,"weekday":"09:00-18:00","saturday":"09:00-18:00","sunday":"","holiday":"09:00-18:00","closed":"日、8/13-8/16、12/31-1/3","capacity":10,"id":"1550101495"},{"name":"グローバルキッズメソッド１１９","nameKana":"ぐろーばるきっずめそっど","corp":"ハッピーライフケア株式会社","serviceTypes":["児童発達支援","放課後等デイサービス"],"ward":"新潟市","address":"新潟県新潟市西区青山8-2-57","tel":"025-378-4271","url":"","lat":37.89810079,"lng":138.9961436,"weekday":"10:00-15:30","saturday":"10:00-13:30","sunday":"","holiday":"10:00-13:30","closed":"","capacity":10,"id":"1550101560"},{"name":"グローバルキッズメソッド１３１","nameKana":"ぐろーばるきっずめそっど","corp":"ハッピーライフケア株式会社","serviceTypes":["児童発達支援","放課後等デイサービス"],"ward":"新潟市","address":"新潟県新潟市東区根室新町1-9","tel":"025-383-8481","url":"","lat":37.94768865,"lng":139.1168904,"weekday":"10:00-15:30","saturday":"10:00-13:30","sunday":"","holiday":"10:00-13:30","closed":"","capacity":10,"id":"1550101693"},{"name":"グローバルキッズメソッド140","nameKana":"ぐろーばるきっずめそっど","corp":"ハッピーライフケア株式会社","serviceTypes":["児童発達支援"],"ward":"上越市","address":"新潟県上越市国府3-17-57","tel":"025-546-7464","url":"","lat":37.1598953,"lng":138.22716922,"weekday":"10:00-15:30","saturday":"10:00-13:30","sunday":"","holiday":"10:00-13:30","closed":"","capacity":10,"id":"1550300253"},{"name":"はぴねす長岡","nameKana":"はぴねすながおか","corp":"オネストリィ株式会社","serviceTypes":["児童発達支援"],"ward":"長岡市","address":"新潟県長岡市古正寺3-92","tel":"0258-86-5441","url":"https://happiness-koshoji.com/topics/post-13","lat":37.45770709,"lng":138.82238224,"weekday":"08:00-16:00","saturday":"08:00-16:00","sunday":"08:00-16:00","holiday":"08:00-16:00","closed":"12月30日~1月3日","capacity":10,"id":"1550200214"},{"name":"発達支援つむぎ　見附ルーム","nameKana":"はったつしえんつむぎみつけるーむ","corp":"社会福祉法人どろんこ会","serviceTypes":["児童発達支援"],"ward":"見附市","address":"新潟県見附市熱田町287番地","tel":"0258-94-6141","url":"","lat":37.51847498,"lng":138.91803581,"weekday":"09:00-17:00","saturday":"09:00-17:00","sunday":"","holiday":"","closed":"土・日・祝日、１２月２９日から１月３日まで","capacity":10,"id":"1551100132"},{"name":"ひかりキッズ　アンジェ","nameKana":"ひかりきっずあんじぇ","corp":"社会福祉法人聖愛会","serviceTypes":["児童発達支援","放課後等デイサービス"],"ward":"新潟市","address":"新潟県新潟市北区太夫浜1639-46","tel":"025-250-1942","url":"","lat":37.95631329,"lng":139.15413968,"weekday":"10:00-12:00","saturday":"","sunday":"","holiday":"","closed":"土曜、日曜、祝日　8月13日〜15日　12月29日〜1月3日","capacity":10,"id":"1550101834"},{"name":"てるいんとこ","nameKana":"てるいんとこ","corp":"特定非営利活動法人てるいんとこ","serviceTypes":["児童発達支援","放課後等デイサービス"],"ward":"新潟市","address":"新潟県新潟市北区石動２丁目２番地１５","tel":"025-384-8535","url":"http://teruintoko.wix.com","lat":37.92288647,"lng":139.21256345,"weekday":"09:30-17:30","saturday":"","sunday":"","holiday":"","closed":"土曜日・日曜日・祝祭日・お盆（8/13〜15）・年末年始（12/30〜1/3）","capacity":10,"id":"1550100430"},{"name":"こども発達支援たんたん","nameKana":"こどもはったつしえんたんたん","corp":"もふぅ株式会社","serviceTypes":["児童発達支援","放課後等デイサービス"],"ward":"新潟市","address":"新潟県新潟市東区はなみずき二丁目６番１６号","tel":"025-288-6009","url":"https://mohuu.jp","lat":37.91708051,"lng":139.10274349,"weekday":"","saturday":"","sunday":"","holiday":"","closed":"水・土・日曜日、国民の祝日、8月13日から16日、12月29日から1月3日","capacity":10,"id":"1550101586"},{"name":"発達支援ノワール","nameKana":"はったつしえんのわーる","corp":"合同会社ノワール","serviceTypes":["児童発達支援","放課後等デイサービス"],"ward":"新潟市","address":"新潟県新潟市東区中山6-19-5　ウェル新潟ビル206","tel":"025-290-7625","url":"","lat":37.91496607,"lng":139.08363085,"weekday":"09:30-18:00","saturday":"09:30-18:00","sunday":"","holiday":"09:30-18:00","closed":"日曜、年末・年始（12/31〜1/3）、当事業所が定める日","capacity":10,"id":"1550101933"},{"name":"Ｂｅトゥインクル","nameKana":"びーとぅいんくる","corp":"社会福祉法人　亀田郷芦沼会","serviceTypes":["児童発達支援","放課後等デイサービス"],"ward":"新潟市","address":"新潟県新潟市東区はなみずき２−３−７","tel":"025-270-0755","url":"http://www.ashinuma.com/","lat":37.91795268,"lng":139.10402944,"weekday":"09:00-15:30","saturday":"","sunday":"","holiday":"","closed":"土日祝","capacity":15,"id":"1550100224"},{"name":"ばんびくらぶ","nameKana":"ばんびくらぶ","corp":"社会福祉法人いぶきサポート協会","serviceTypes":["児童発達支援","放課後等デイサービス"],"ward":"新潟市","address":"新潟県新潟市東区紫竹卸新町２００６番地１","tel":"025-385-6133","url":"http://ibukisupport.jp/facilities/bambiclub","lat":37.90499775,"lng":139.09002005,"weekday":"09:00-16:00","saturday":"","sunday":"","holiday":"09:00-17:00","closed":"土曜、日曜祝日及び8/13、12/30〜1/3","capacity":10,"id":"1550100281"},{"name":"こぱんはうすさくら新潟中央教室","nameKana":"こぱんはうすさくらにいがたちゅうおうきょうしつ","corp":"株式会社Bluefeed　Japan","serviceTypes":["児童発達支援"],"ward":"新潟市","address":"新潟県新潟市中央区医学町通２番町１０番地１ダイアパレス医学町１０１","tel":"025-201-9630","url":"","lat":37.92248072,"lng":139.04323672,"weekday":"10:00-13:00","saturday":"10:00-13:00","sunday":"10:00-13:00","holiday":"10:00-13:00","closed":"","capacity":10,"id":"1550101479"},{"name":"こぱんはうすさくら新潟女池教室","nameKana":"こぱんはうすさくらにいがためいけきょうしつ","corp":"株式会社Bluefeed　Japan","serviceTypes":["児童発達支援","放課後等デイサービス"],"ward":"新潟市","address":"新潟県新潟市中央区女池２−５−１３","tel":"025-250-5263","url":"","lat":37.89492831,"lng":139.04518225,"weekday":"10:00-17:30","saturday":"10:00-16:00","sunday":"10:00-16:00","holiday":"10:00-16:00","closed":"","capacity":null,"id":"1550101859"},{"name":"ドダイ","nameKana":"どだい","corp":"特定非営利活動法人ギフト","serviceTypes":["児童発達支援","放課後等デイサービス"],"ward":"新潟市","address":"新潟県新潟市中央区美咲町1-30-25","tel":"025-282-7149","url":"https://gift-mama.net","lat":37.89222753,"lng":139.01455397,"weekday":"09:00-12:00","saturday":"","sunday":"","holiday":"","closed":"土曜日、日曜日、祝日、お盆休み8月１３〜15日、年末年始12月30日〜1月3日","capacity":10,"id":"1550101925"},{"name":"E.C.O.ジュニアアカデミー","nameKana":"えこじゅにああかでみー","corp":"株式会社C.A.R.E.","serviceTypes":["児童発達支援"],"ward":"新潟市","address":"新潟県新潟市秋葉区川口１１３番地３","tel":"0250-23-1005","url":"http://www.eco-niigata.net","lat":37.7885254,"lng":139.1146402,"weekday":"09:00-16:00","saturday":"09:30-15:30","sunday":"","holiday":"09:30-15:30","closed":"日曜日、年末年始（12月29日〜１月３日）","capacity":10,"id":"1550100836"},{"name":"森のBright Star by　ECO","nameKana":"もりのぶらいとすたーばいえこ","corp":"株式会社C.A.R.E.","serviceTypes":["児童発達支援"],"ward":"新潟市","address":"新潟県新潟市西区浦山４丁目３番１０号","tel":"025-267-3005","url":"http://eco-niigata.net","lat":37.90067308,"lng":139.00211263,"weekday":"09:00-16:00","saturday":"09:00-16:00","sunday":"","holiday":"09:00-16:00","closed":"日曜、年末年始（12月29日〜１月３日）","capacity":10,"id":"1550101156"},{"name":"Ｅ．Ｃ．Ｏ．キッズアカデミー","nameKana":"えこきっずあかでみー","corp":"株式会社C.A.R.E.","serviceTypes":["児童発達支援"],"ward":"新潟市","address":"新潟県新潟市秋葉区川口１０９番地６","tel":"0250-23-0005","url":"http://www.eco-niigata.net","lat":37.81817772,"lng":139.11872139,"weekday":"14:00-18:00","saturday":"09:30-15:30","sunday":"","holiday":"09:30-15:30","closed":"日曜日、年末年始（12月29日〜1月3日）","capacity":10,"id":"1550100679"},{"name":"STEP BY STEP E.C.O.","nameKana":"すてっぷばいすてっぷえこ","corp":"株式会社C.A.R.E.","serviceTypes":["児童発達支援","放課後等デイサービス"],"ward":"新潟市","address":"新潟県新潟市南区白根１３３８番地１","tel":"025-372-1777","url":"http://www.eco-niigata.net","lat":37.76437833,"lng":139.01759349,"weekday":"09:30-15:30","saturday":"09:30-15:30","sunday":"","holiday":"09:30-15:30","closed":"土曜日、日曜日、祝日、年末年始（12月29日〜1月3日）","capacity":10,"id":"1550101438"},{"name":"あすなろ","nameKana":"あすなろ","corp":"株式会社　真友社","serviceTypes":["児童発達支援","放課後等デイサービス"],"ward":"長岡市","address":"新潟県長岡市四郎丸４丁目９番４号　ＳＫサカイビル４階","tel":"0258-86-8869","url":"https://asunaro-nagaoka.wixsite.com/shinyusya","lat":37.44422581,"lng":138.85730937,"weekday":"10:00-14:00","saturday":"10:00-14:00","sunday":"10:00-14:00","holiday":"10:00-14:00","closed":"お盆・年末年始","capacity":10,"id":"1550200156"},{"name":"あすなろくれよん","nameKana":"あすなろくれよん","corp":"株式会社　真友社","serviceTypes":["児童発達支援"],"ward":"長岡市","address":"新潟県長岡市曙３丁目３番15号","tel":"0258-86-8869","url":"","lat":37.42996077,"lng":138.85085818,"weekday":"10:00-17:00","saturday":"","sunday":"","holiday":"","closed":"土曜・日曜・祝日・お盆休み・年末年始","capacity":null,"id":"1550200230"},{"name":"あすなろキャンバス","nameKana":"あすなろきゃんばす","corp":"株式会社　真友社","serviceTypes":["児童発達支援","放課後等デイサービス"],"ward":"長岡市","address":"新潟県長岡市曙3丁目3番15号","tel":"0258-89-7969","url":"","lat":37.42996077,"lng":138.85085818,"weekday":"10:00-14:00","saturday":"","sunday":"","holiday":"","closed":"","capacity":10,"id":"1550200297"},{"name":"Pastel Color","nameKana":"ぱすてるからー","corp":"合同会社大庭","serviceTypes":["児童発達支援","放課後等デイサービス"],"ward":"新潟市","address":"新潟県新潟市東区粟山２丁目１番６号","tel":"025-384-4087","url":"https://pastelcolor.jp/","lat":37.89700418,"lng":139.09859211,"weekday":"11:20-17:30","saturday":"09:00-16:00","sunday":"00:00-00:00","holiday":"09:00-16:00","closed":"日曜、年末年始12/29〜1/3、GW5/3〜5/5、お盆8/13〜8/15","capacity":10,"id":"1550101271"},{"name":"Pastel Color Palette 新松崎教室","nameKana":"ぱすてるからーぱれっとしんまつさききょうしつ","corp":"合同会社大庭","serviceTypes":["児童発達支援"],"ward":"新潟市","address":"新潟県新潟市東区新松崎１丁目１０−２２-","tel":"025-288-1207","url":"https://pastelcolor.jp/","lat":37.93326791,"lng":139.11591911,"weekday":"12:00-18:00","saturday":"09:00-16:00","sunday":"00:00-00:00","holiday":"09:00-16:00","closed":"日曜、年末年始12/29〜1/3、GW5/3~5/5、お盆8/13〜8/15","capacity":10,"id":"1550101503"},{"name":"児童発達支援・放課後等デイサービスくりえいと","nameKana":"じどうはったつしえんほうかごとうでいさーびすくりえいと","corp":"合同会社ＣＲＥＡＴＥ","serviceTypes":["児童発達支援","放課後等デイサービス"],"ward":"新潟市","address":"新潟県新潟市秋葉区古田１丁目３番９号ポイントＡ　２Ｆ","tel":"0250-47-3085","url":"https://www.create-houday-akiha.com/","lat":37.79383852,"lng":139.11074032,"weekday":"10:00-12:00","saturday":"","sunday":"","holiday":"10:00-16:00","closed":"土日","capacity":10,"id":"1550101339"},{"name":"児童発達支援くりえいと２","nameKana":"じどうはったつしえんくりえいと","corp":"合同会社ＣＲＥＡＴＥ","serviceTypes":["児童発達支援"],"ward":"新潟市","address":"新潟県新潟市秋葉区秋葉1丁目３−１５マンション秋葉３０８号室","tel":"0250-47-4210","url":"https://www.create-houday-akiha.com/","lat":37.79306434,"lng":139.1312974,"weekday":"09:00-17:00","saturday":"","sunday":"","holiday":"10:00-16:00","closed":"土日","capacity":10,"id":"1550101719"},{"name":"児童発達支援みんな","nameKana":"じどうはったつしえんみんな","corp":"合同会社さとうた","serviceTypes":["児童発達支援","放課後等デイサービス"],"ward":"新潟市","address":"新潟県新潟市中央区山二ツ五丁目1番22号山二ツ事務所Ｂ号室・倉庫","tel":"025-384-0386","url":"https://minnasatouta.com/","lat":37.89343758,"lng":139.08891523,"weekday":"10:00-17:30","saturday":"10:00-17:00","sunday":"","holiday":"","closed":"日曜日、祝日　12月29日〜1月3日","capacity":10,"id":"1550101784"},{"name":"SMiDデイサービス　なな色","nameKana":"えすえむあいでぃーでいさーびすなないろ","corp":"特定非営利活動法人Briidge.","serviceTypes":["児童発達支援"],"ward":"新潟市","address":"新潟県新潟市中央区網川原1-15-11Lily-be穂高D","tel":"025-278-3793","url":"http://www.smidnanairo.com","lat":37.89548024,"lng":139.0210007,"weekday":"08:30-17:30","saturday":"08:30-17:30","sunday":"00:00-00:00","holiday":"08:30-17:30","closed":"日曜","capacity":5,"id":"1550101842"},{"name":"フェリクス曽根","nameKana":"ふぇりくすそね","corp":"社会福祉法人　新潟地区手をつなぐ育成会","serviceTypes":["児童発達支援","放課後等デイサービス"],"ward":"新潟市","address":"新潟県新潟市西蒲区曽根1195-1","tel":"0256-77-9111","url":"","lat":37.79531912,"lng":138.92148971,"weekday":"09:30-12:00","saturday":"","sunday":"","holiday":"","closed":"土曜日、日曜日、祝日、8月13日〜8月15日、12月29日〜1月3日","capacity":10,"id":"1550101578"},{"name":"新潟県はまぐみ小児療育センター","nameKana":"にいがたけんはまぐみしょうにりょういくせんたー","corp":"新潟県","serviceTypes":["児童発達支援","医療型児童発達支援","放課後等デイサービス"],"ward":"新潟市","address":"新潟県新潟市中央区水道町１丁目５９３２番地","tel":"025-266-0151","url":"http://www.pref.niigata.lg.jp/site/humagumi/hamagumi.html","lat":37.91957232,"lng":139.02783565,"weekday":"10:00-15:00","saturday":"","sunday":"","holiday":"","closed":"","capacity":45,"id":"1550100109"},{"name":"かやま保育園","nameKana":"かやまほいくえん","corp":"新潟市","serviceTypes":["児童発達支援"],"ward":"新潟市","address":"新潟県新潟市北区嘉山１−２−４１","tel":"025-387-5585","url":"","lat":37.9125239,"lng":139.21877171,"weekday":"09:00-15:00","saturday":"","sunday":"","holiday":"","closed":"土曜日、日曜日、祝日、12/29~1/3","capacity":20,"id":"1550100042"},{"name":"新潟市立児童発達支援センター","nameKana":"にいがたしりつじどうはったつしえんせんたー","corp":"新潟市","serviceTypes":["児童発達支援"],"ward":"新潟市","address":"新潟県新潟市中央区神道寺南２丁目４番２７号","tel":"025-247-6531","url":"https://www.city.niigata.lg.jp/kosodate/ninshin/shien/syogai/sodan/sodancenter/index.html","lat":37.89481749,"lng":139.05965318,"weekday":"08:30-17:00","saturday":"08:30-12:30","sunday":"","holiday":"","closed":"日曜日、祝日、１２月２９日〜１月３日、卒園式翌日から入園式前日までの期間","capacity":50,"id":"1550100018"},{"name":"エンジェル児童療育教室","nameKana":"えんじぇるじどうりょういくきょうしつ","corp":"社会福祉法人笑顔の会","serviceTypes":["児童発達支援"],"ward":"新潟市","address":"新潟県新潟市中央区堀之内南1-18-19エンジェル児童療育教室","tel":"025-384-4228","url":"https://angel-jrk.com/","lat":37.9036497,"lng":139.05146462,"weekday":"09:00-16:30","saturday":"09:00-16:30","sunday":"","holiday":"","closed":"年末年始、祝日","capacity":20,"id":"1550100190"},{"name":"エンジェル西療育教室","nameKana":"えんじぇるにしりょういくきょうしつ","corp":"社会福祉法人笑顔の会","serviceTypes":["児童発達支援"],"ward":"新潟市","address":"新潟県新潟市西区小瀬778エンジェル西療育教室","tel":"025-378-0619","url":"https://angel-jrk.com/","lat":37.82214934,"lng":138.92640196,"weekday":"08:30-16:30","saturday":"08:30-16:30","sunday":"","holiday":"","closed":"","capacity":15,"id":"1550100422"},{"name":"真友ライト","nameKana":"しんゆうらいと","corp":"株式会社真友社","serviceTypes":["児童発達支援","放課後等デイサービス"],"ward":"新潟市","address":"新潟県新潟市中央区西堀通五番町855-5フロンティア古町ビル１階","tel":"025-374-7775","url":"https://https://shinyucircle.shinyusya.jp/light","lat":37.92225018,"lng":139.04195079,"weekday":"10:00-14:00","saturday":"10:00-18:00","sunday":"","holiday":"","closed":"日・祝日・お盆（8/13〜15）・お正月（12/30〜1/4）","capacity":10,"id":"1550101545"},{"name":"夢のみずうみ村ぴかぴか","nameKana":"ゆめのみずうみむらぴかぴか","corp":"株式会社イシカワホールディングズ","serviceTypes":["児童発達支援"],"ward":"新潟市","address":"新潟県新潟市江南区曙町3丁目4番10号","tel":"025-288-7100","url":"http://yumenomizuumi-niigata.com/shisetsu.html","lat":37.86031753,"lng":139.12680792,"weekday":"08:45-16:00","saturday":"","sunday":"","holiday":"08:45-16:00","closed":"土曜、日曜、夏季休業8月13日、年末年始12月31日から1月2日","capacity":10,"id":"1550101636"},{"name":"ほめて育てるABA推進「ことりん」","nameKana":"ほめてそだてるえーびーえーすいしんことりん","corp":"株式会社Growth","serviceTypes":["児童発達支援","放課後等デイサービス"],"ward":"新潟市","address":"新潟県新潟市西区五十嵐中島４−２２−５１ジュネスⅥ　B","tel":"025-374-6560","url":"https://kotorin.com/","lat":37.84845701,"lng":138.91956714,"weekday":"09:00-17:00","saturday":"09:00-16:00","sunday":"","holiday":"09:00-16:00","closed":"日、盆正月","capacity":10,"id":"1550100653"},{"name":"けやきのもり","nameKana":"けやきのもり","corp":"株式会社ヒューマンリソース","serviceTypes":["児童発達支援"],"ward":"新潟市","address":"新潟県新潟市中央区笹口1丁目２０−５ファイ・ビル１Ｆ","tel":"025-250-1472","url":"https://keyaki.hp.peraichi.com/","lat":37.91139915,"lng":139.06658502,"weekday":"10:00-17:00","saturday":"10:00-17:00","sunday":"","holiday":"10:00-17:00","closed":"日曜日、月曜日","capacity":10,"id":"1550101677"},{"name":"済生会三条療育サポートセンターひまわり","nameKana":"さいせいかいさんじょうりょういくさぽーとせんたーひまわり","corp":"社会福祉法人恩賜財団済生会支部新潟県済生会","serviceTypes":["児童発達支援","放課後等デイサービス"],"ward":"三条市","address":"新潟県三条市大野畑6番86-11号","tel":"0256-35-1600","url":"","lat":37.62740169,"lng":138.94087752,"weekday":"09:15-12:15","saturday":"","sunday":"","holiday":"","closed":"土、日、祝、年末年始","capacity":10,"id":"1550400087"},{"name":"LigLig","nameKana":"りぐりぐ","corp":"株式会社ingrow","serviceTypes":["児童発達支援","放課後等デイサービス"],"ward":"新潟市","address":"新潟県新潟市西区小新西２丁目１１番１４号アイリス小新１","tel":"025-211-4576","url":"","lat":37.87610899,"lng":138.99230383,"weekday":"","saturday":"","sunday":"","holiday":"","closed":"日曜日、祝日","capacity":10,"id":"1550101016"},{"name":"ブロッサムジュニア　西新潟教室","nameKana":"ぶろっさむじゅにあにしにいがたきょうしつ","corp":"ノワックス合同会社","serviceTypes":["児童発達支援","放課後等デイサービス"],"ward":"新潟市","address":"新潟県新潟市西区五十嵐一の町６７０３番地１","tel":"025-210-5588","url":"https://www.blossom-nishiniigta.jimdofree.com","lat":37.87005249,"lng":138.94835347,"weekday":"09:00-12:00","saturday":"","sunday":"","holiday":"","closed":"日曜・祝日・年末年始","capacity":10,"id":"1550101289"},{"name":"らふてるキッズ","nameKana":"らふてるきっず","corp":"合同会社らふてる","serviceTypes":["児童発達支援","放課後等デイサービス"],"ward":"新潟市","address":"新潟県新潟市西区五十嵐中島４丁目２２番５１号ジュネスⅣＢ","tel":"025-378-0946","url":"https://laftelkids.com/","lat":37.87406662,"lng":138.97168657,"weekday":"09:00-16:30","saturday":"09:00-16:00","sunday":"","holiday":"","closed":"日曜日、祝日、8/13〜8/15、12/31〜1/3、第一、第五土曜日","capacity":10,"id":"1550101388"},{"name":"Sprouts","nameKana":"すぷらうつ","corp":"合同会社デイブレイク","serviceTypes":["児童発達支援","放課後等デイサービス"],"ward":"新潟市","address":"新潟県新潟市西区大野町３４３６−７","tel":"025-378-3562","url":"https://sprouts-aba.com/","lat":37.84623588,"lng":139.01376798,"weekday":"09:00-17:00","saturday":"09:00-17:00","sunday":"","holiday":"","closed":"日曜、祝日、8月13日から15日、12月29日から1月3日","capacity":10,"id":"1550101354"},{"name":"こどもサークル新潟西","nameKana":"こどもさーくるにいがたにし","corp":"株式会社ハートフルマインド","serviceTypes":["児童発達支援","放課後等デイサービス"],"ward":"新潟市","address":"新潟県新潟市西区平島３丁目５番地１３Ｙビル２階","tel":"0252017636","url":"https://www.kodomocircle.com/branch/niigatanishi/","lat":37.89386032,"lng":139.00835144,"weekday":"10:00-13:15","saturday":"10:00-16:00","sunday":"","holiday":"10:00-16:00","closed":"日曜日、年末年始（１２月３１日〜１月３日）","capacity":10,"id":"1550101396"},{"name":"こどもサークル新潟空港通り","nameKana":"こどもさーくるにいがたくうこうどおり","corp":"株式会社ハートフルマインド","serviceTypes":["児童発達支援","放課後等デイサービス"],"ward":"新潟市","address":"新潟県新潟市東区河渡甲388","tel":"025-250-1275","url":"https://www.kodomocircle.com/branch/niigatakuukoudoori/","lat":37.9472135,"lng":139.10129431,"weekday":"10:00-13:15","saturday":"10:00-16:00","sunday":"","holiday":"10:00-16:00","closed":"日曜日、年末年始（12月31日、1月1日、1月2日、1月3日）","capacity":10,"id":"1550101651"},{"name":"児童発達支援・・放課後等デイサービス　そらとぶしっぽ","nameKana":"じどうはったつしえんほうかごとうでいさーびすそらとぶしっぽ","corp":"特定非営利活動法人健康サポート　プラス","serviceTypes":["児童発達支援","放課後等デイサービス"],"ward":"新潟市","address":"新潟県新潟市西区山田３３３８番地","tel":"025-378-2556","url":"https://soratobushippo.com/","lat":37.86969439,"lng":139.01581082,"weekday":"09:00-12:00","saturday":"09:00-12:00","sunday":"","holiday":"","closed":"火曜日、日曜及び祝日、8/14、12/31〜1/3","capacity":10,"id":"1550101172"},{"name":"ブロッサムジュニア青山教室","nameKana":"ぶろっさむじゅにああおやまきょうしつ","corp":"NKV合同会社","serviceTypes":["児童発達支援","放課後等デイサービス"],"ward":"新潟市","address":"新潟県新潟市西区青山２−８−１５","tel":"025-378-2327","url":"https://blossomjr-aoyama.jimdosite.com/","lat":37.89702634,"lng":139.00360155,"weekday":"09:00-12:00","saturday":"","sunday":"","holiday":"","closed":"土日祝、年末年始、お盆","capacity":10,"id":"1550101768"},{"name":"児童発達支援・放課後等デイサービス Will be","nameKana":"じどうはったつしえんほうかごとうでいさーびすうぃるびー","corp":"株式会社ＫＩＭ","serviceTypes":["児童発達支援"],"ward":"新潟市","address":"新潟県新潟市西区寺尾上6-17-27なし","tel":"025-378-0816","url":"https://willbe.website/houkagoday/","lat":37.87250257,"lng":138.96294038,"weekday":"09:00-18:00","saturday":"","sunday":"","holiday":"","closed":"土曜、日曜、祝日","capacity":10,"id":"1550101875"},{"name":"国立病院機構西新潟中央病院「あかしあ」","nameKana":"こくりつびょういんきこうにしにいがたちゅうおうびょういんあかしあ","corp":"独立行政法人国立病院機構西新潟中央病院","serviceTypes":["児童発達支援","放課後等デイサービス"],"ward":"新潟市","address":"新潟県新潟市西区真砂1丁目14番1号","tel":"025-265-3171","url":"http://www.masa.go.jp/","lat":37.89050684,"lng":138.98526452,"weekday":"","saturday":"","sunday":"","holiday":"","closed":"祝日","capacity":15,"id":"1550100083"},{"name":"スパーク出来島","nameKana":"すぱーくできじま","corp":"一般社団法人　医療福祉研究会","serviceTypes":["児童発達支援","放課後等デイサービス"],"ward":"新潟市","address":"新潟県新潟市中央区出来島２丁目８番２５号","tel":"025-288-5450","url":"https://www.aigo-care.com/","lat":37.89964105,"lng":139.02495029,"weekday":"09:00-17:00","saturday":"09:00-17:00","sunday":"","holiday":"09:00-17:00","closed":"日曜、月曜","capacity":10,"id":"1550101552"},{"name":"スパーク＋青山","nameKana":"すぱーくぷらすあおやま","corp":"一般社団法人　医療福祉研究会","serviceTypes":["児童発達支援","放課後等デイサービス"],"ward":"新潟市","address":"新潟県新潟市西区青山８丁目２番３８号","tel":"0252112355","url":"https://www.aigo-care.com","lat":37.8988979,"lng":138.9954381,"weekday":"09:00-17:00","saturday":"09:00-17:00","sunday":"","holiday":"09:00-17:00","closed":"日曜、月曜","capacity":10,"id":"1550100372"},{"name":"コスモス","nameKana":"こすもす","corp":"社会福祉法人　更生慈仁会","serviceTypes":["児童発達支援"],"ward":"新潟市","address":"新潟県新潟市西区上新栄町１丁目２番１２号","tel":"025-269-4001","url":"http://www.jyujien.com/","lat":37.88850933,"lng":138.9711133,"weekday":"15:15-17:00","saturday":"","sunday":"","holiday":"","closed":"土日祝","capacity":10,"id":"1550100075"},{"name":"児童発達支援すみれ","nameKana":"じどうはったつしえんすみれ","corp":"社会福祉法人　更生慈仁会","serviceTypes":["児童発達支援"],"ward":"新潟市","address":"新潟県新潟市西区上新栄町１丁目３番３号新潟市西区上新栄町1丁目3番3号　児童発達支援すみれ","tel":"025-260-2166","url":"","lat":37.88743726,"lng":138.97201605,"weekday":"09:00-15:30","saturday":"","sunday":"","holiday":"","closed":"土・日・祝日、12月29日から1月3日","capacity":10,"id":"1550100570"},{"name":"よつば園　西蒲","nameKana":"よつばえんにしかん","corp":"アビリティ有限会社","serviceTypes":["児童発達支援","放課後等デイサービス"],"ward":"新潟市","address":"新潟県新潟市西蒲区越前浜５３２０","tel":"0256-78-7716","url":"","lat":37.80984616,"lng":138.84777093,"weekday":"09:00-11:00","saturday":"09:00-16:00","sunday":"","holiday":"","closed":"土曜・日曜・祝日及び８月１３日〜１５日、１２月２９日〜１月３日","capacity":10,"id":"1550100539"},{"name":"よつば園 青山","nameKana":"よつばえんあおやま","corp":"アビリティ有限会社","serviceTypes":["児童発達支援","放課後等デイサービス"],"ward":"新潟市","address":"新潟県新潟市西区平島1丁目17-2","tel":"025-378-4523","url":"","lat":37.88974395,"lng":139.00465188,"weekday":"09:00-12:00","saturday":"","sunday":"","holiday":"","closed":"土曜日　日曜日　国民の祝日　8/13〜15　12/29~1/3","capacity":10,"id":"1550100869"},{"name":"ＳＵＮＮＹ","nameKana":"さにー","corp":"合同会社MARUYAMA","serviceTypes":["児童発達支援","放課後等デイサービス"],"ward":"新潟市","address":"新潟県新潟市西蒲区馬堀3551番地13","tel":"0256-77-8470","url":"","lat":37.74834362,"lng":138.91116227,"weekday":"10:30-18:00","saturday":"","sunday":"","holiday":"","closed":"土日、祝日、12月29日〜1月3日","capacity":10,"id":"1550100893"},{"name":"発達支援ユニコーン　こしじ教室","nameKana":"はったつしえんゆにこーんこしじきょうしつ","corp":"合同会社クエント","serviceTypes":["児童発達支援","放課後等デイサービス"],"ward":"長岡市","address":"新潟県長岡市来迎寺字渋田甲2602番2越路ていしゃば交流施設ここらて1階","tel":"0258-86-6027","url":"http://llc-quent.com/","lat":37.44626719,"lng":138.85127949,"weekday":"09:30-18:00","saturday":"09:30-18:00","sunday":"","holiday":"09:30-18:00","closed":"日曜日、12/31〜1/3、当事業所が定める日","capacity":10,"id":"1550200289"},{"name":"発達支援ユニコーンの森","nameKana":"はったつしえんゆにこーんのもり","corp":"合同会社クエント","serviceTypes":["児童発達支援","放課後等デイサービス"],"ward":"長岡市","address":"新潟県長岡市関原町2丁目136番地","tel":"0258-86-8383","url":"http://llc-quent.com","lat":37.45370136,"lng":138.77432934,"weekday":"09:30-18:00","saturday":"09:30-18:00","sunday":"","holiday":"09:30-18:00","closed":"日曜日、12/31〜1/3、当事業所が定める日","capacity":10,"id":"1550200370"},{"name":"発達支援　ユニコーン","nameKana":"はったつしえんゆにこーん","corp":"合同会社リレイズ","serviceTypes":["児童発達支援"],"ward":"長岡市","address":"新潟県長岡市千手2丁目10番21号2階","tel":"0258-86-7981","url":"http://llc-reraize.com","lat":37.4420954,"lng":138.8446139,"weekday":"09:00-18:00","saturday":"09:00-18:00","sunday":"09:00-18:00","holiday":"09:00-18:00","closed":"12/31〜1/3、当事業所が定める日","capacity":10,"id":"1550200271"},{"name":"るぴなす","nameKana":"るぴなす","corp":"合同会社connect","serviceTypes":["児童発達支援","放課後等デイサービス"],"ward":"長岡市","address":"新潟県長岡市表町4丁目4番地3表町ビル1F","tel":"0258-94-6240","url":"https://sites.google.com/view/rupinasuconnect/ホーム","lat":37.4521776,"lng":138.84885174,"weekday":"09:30-13:30","saturday":"09:30-13:30","sunday":"","holiday":"","closed":"日曜日・祝日・第2第4第5土曜日","capacity":10,"id":"1550200354"},{"name":"キッズサポートすまいる","nameKana":"きっずさぽーとすまいる","corp":"株式会社Ｋ＆ａ　ｃｏｌｚａ","serviceTypes":["児童発達支援"],"ward":"長岡市","address":"新潟県長岡市与板町与板乙2439番地6キッズサポートすまいる","tel":"0258","url":"http://www.big-advance.site/s/131/1732","lat":37.54176019,"lng":138.8118827,"weekday":"09:30-12:30","saturday":"09:30-12:30","sunday":"00:00-00:00","holiday":"00:00-00:00","closed":"日曜祭日","capacity":10,"id":"1550200198"},{"name":"キッズサポートすまいる・はすがた","nameKana":"きっずさぽーとすまいるはすがた","corp":"株式会社Ｋ＆ａ　ｃｏｌｚａ","serviceTypes":["児童発達支援","放課後等デイサービス"],"ward":"長岡市","address":"新潟県長岡市鉄工町1丁目1番40号株式会社K＆a colza","tel":"050-1190-6264","url":"https://www.big-advance.site/s/131/1732","lat":37.47009461,"lng":138.82997249,"weekday":"09:00-12:30","saturday":"09:00-12:30","sunday":"00:00-00:00","holiday":"00:00-00:00","closed":"日祝祭日","capacity":10,"id":"1550200248"},{"name":"児童発達支援　放課後等デイサービス　つむぎ","nameKana":"じどうはったつしえんほうかごとうでいさーびすつむぎ","corp":"社会福祉法人　栃尾福祉会","serviceTypes":["児童発達支援","放課後等デイサービス"],"ward":"長岡市","address":"新潟県長岡市栃尾表町5番6号","tel":"0258-86-6262","url":"http://www.tochio-fukushikai.jp/sp/","lat":37.47451395,"lng":138.9935853,"weekday":"09:00-14:00","saturday":"","sunday":"","holiday":"","closed":"土・日・祝日、12月29日〜1月3日","capacity":8,"id":"1550200339"},{"name":"長岡療育園通園センター","nameKana":"ながおかりょういくえんつうえんせんたー","corp":"社会福祉法人　長岡福祉協会","serviceTypes":["児童発達支援","放課後等デイサービス"],"ward":"長岡市","address":"新潟県長岡市深沢町字高寺２２７８番地８","tel":"0258-46-6611","url":"https://www.nagaryo.or.jp/","lat":37.4462672,"lng":138.8512795,"weekday":"08:30-17:00","saturday":"","sunday":"","holiday":"","closed":"土日、国民の祝祭日、年末年始","capacity":20,"id":"1550200057"},{"name":"ケアステーション県央","nameKana":"けあすてーしょんけんおう","corp":"社会福祉法人　長岡福祉協会","serviceTypes":["児童発達支援","放課後等デイサービス"],"ward":"三条市","address":"新潟県三条市下須頃字野中１０２３番地２","tel":"0256-47-0530","url":"https://www.nagaryo.or.jp/","lat":37.6367456,"lng":138.9617023,"weekday":"09:00-17:00","saturday":"","sunday":"","holiday":"","closed":"土日、祝日、年末年始","capacity":20,"id":"1550400020"},{"name":"ケアステーション魚沼","nameKana":"けあすてーしょんうおぬま","corp":"社会福祉法人　長岡福祉協会","serviceTypes":["児童発達支援","放課後等デイサービス"],"ward":"魚沼市","address":"新潟県魚沼市小出島８２０−17","tel":"025-792-5488","url":"https://www.nagaryo.or.jp/","lat":37.23603567,"lng":138.96147206,"weekday":"08:30-17:00","saturday":"","sunday":"","holiday":"","closed":"土日、祝日、年末年始","capacity":20,"id":"1552300020"},{"name":"多機能こどもセンター銀河","nameKana":"たきのうこどもせんたーぎんが","corp":"社会福祉法人　虹のまち福祉会","serviceTypes":["児童発達支援","放課後等デイサービス"],"ward":"長岡市","address":"新潟県長岡市宮栄３−１７−１５","tel":"0258-31-6555","url":"http://nijinomachi.jp/ginga/","lat":37.4247251,"lng":138.84054866,"weekday":"10:00-15:00","saturday":"10:00-12:30","sunday":"","holiday":"","closed":"第２・４・５土曜日、日曜祝祭日、法人の特に定める日","capacity":10,"id":"1550200123"},{"name":"柿が丘学園","nameKana":"かきがおかがくえん","corp":"長岡市","serviceTypes":["児童発達支援"],"ward":"長岡市","address":"新潟県長岡市柿町１１５番地","tel":"0258-32-4991","url":"http://www.city.nagaoka.niigata.jp/kosodate/cate2/kakigaoka.htm","lat":37.4168904,"lng":138.86597641,"weekday":"08:30-17:15","saturday":"08:30-12:30","sunday":"","holiday":"","closed":"日曜日・国民の祝日に関する法律に規定する休日・12月29日から翌年1月3日まで","capacity":30,"id":"1550200024"},{"name":"巻わくわくフレンズ","nameKana":"まきわくわくふれんず","corp":"マルソー株式会社","serviceTypes":["児童発達支援","放課後等デイサービス"],"ward":"新潟市","address":"新潟県新潟市西蒲区巻乙251-4ＪＲ越後線　巻駅から徒歩12分","tel":"0256-78-7781","url":"https://www.fbwakuwaku.com/blank-3","lat":37.76199383,"lng":138.8799954,"weekday":"09:00-12:00","saturday":"10:00-16:00","sunday":"","holiday":"","closed":"日曜・祝日・お盆休み・12/30〜1/3","capacity":10,"id":"1550101149"},{"name":"あさひナーシングセンター","nameKana":"あさひなーしんぐせんたー","corp":"社会福祉法人あさひ共生福祉会","serviceTypes":["児童発達支援"],"ward":"三条市","address":"新潟県三条市西裏館3丁目6番54号","tel":"0256-47-4299","url":"http://asahikyousei.jp/","lat":37.6367456,"lng":138.9617023,"weekday":"10:00-16:00","saturday":"","sunday":"","holiday":"10:00-16:00","closed":"土曜日、日曜日、年末年始","capacity":1,"id":"1550400111"},{"name":"まるまる広場本成寺","nameKana":"まるまるひろばほんじょうじ","corp":"日の丸観光タクシー株式会社","serviceTypes":["児童発達支援"],"ward":"三条市","address":"新潟県三条市西本成寺一丁目33番20号","tel":"0256-35-0066","url":"","lat":37.61798623,"lng":138.94024753,"weekday":"10:00-14:00","saturday":"10:00-14:00","sunday":"","holiday":"","closed":"日曜日、祝日、年末年始（12月29日〜1月3日）","capacity":10,"id":"1550400137"},{"name":"スパークスタジオ県央","nameKana":"すぱーくすたじおけんおう","corp":"株式会社　あさひコモンズ","serviceTypes":["児童発達支援","放課後等デイサービス"],"ward":"三条市","address":"新潟県三条市神明町2番1-102パルム２　102","tel":"0256-64-7741","url":"https://asahicommons.co.jp","lat":37.62945206,"lng":138.96174148,"weekday":"09:00-17:00","saturday":"09:00-17:00","sunday":"","holiday":"09:00-17:00","closed":"毎週日曜日、月曜日、年末年始（12月31日〜1月3日）","capacity":10,"id":"1550400095"},{"name":"三条市子ども発達ルーム","nameKana":"さんじょうしこどもはったつるーむ","corp":"三条市","serviceTypes":["児童発達支援"],"ward":"三条市","address":"新潟県三条市新堀１３１１番地三条市役所栄庁舎内","tel":"0256-45-1122","url":"https://www.city.sanjo.niigata.jp/\t\t\t\t\t\t\t\t\t\t\t\t\t\t\t\t","lat":37.58739709,"lng":138.92264429,"weekday":"09:00-17:00","saturday":"","sunday":"","holiday":"","closed":"土曜、日曜、祝日、12月29日〜１月３日\t\t\t\t\t\t\t\t\t\t\t\t\t\t\t\t\t\t\t\t","capacity":20,"id":"1550400012"},{"name":"柏崎市早期療育事業元気館","nameKana":"かしわざきしそうきりょういくじぎょうげんきかん","corp":"柏崎市","serviceTypes":["児童発達支援"],"ward":"柏崎市","address":"新潟県柏崎市栄町１８番２６号元気館","tel":"0257-20-4216","url":"","lat":37.37586257,"lng":138.55506114,"weekday":"09:00-16:00","saturday":"","sunday":"","holiday":"","closed":"土曜、日曜、祝日、１２月２９日から１月３日","capacity":20,"id":"1550500035"},{"name":"くるーる２","nameKana":"くるーるつー","corp":"社会福祉法人　ロングラン","serviceTypes":["児童発達支援","放課後等デイサービス"],"ward":"柏崎市","address":"新潟県柏崎市錦町５番２０号","tel":"0257-21-5090","url":"http://www.longrun.or.jp/","lat":37.36758607,"lng":138.56228519,"weekday":"09:00-18:00","saturday":"","sunday":"","holiday":"","closed":"土日祝日、12月29日〜1月3日、夏休みなど会社が定める休日","capacity":8,"id":"1550500068"},{"name":"たんぽぽ","nameKana":"たんぽぽ","corp":"独立行政法人　国立病院機構　新潟病院","serviceTypes":["児童発達支援","放課後等デイサービス"],"ward":"柏崎市","address":"新潟県柏崎市赤坂町３−５２赤坂町３番５２号","tel":"0257-22-2126","url":"http://www.niigata-nh.go.jp","lat":37.35885312,"lng":138.53715051,"weekday":"09:30-16:30","saturday":"00:00-00:00","sunday":"00:00-00:00","holiday":"00:00-00:00","closed":"土曜日、日曜日及び祝日","capacity":10,"id":"1550500084"},{"name":"てんらん","nameKana":"てんらん","corp":"ビノン株式会社","serviceTypes":["児童発達支援"],"ward":"新潟市","address":"新潟県新潟市東区中野山７−９−１５","tel":"050-5438-8419","url":"","lat":37.90052081,"lng":139.10724392,"weekday":"09:00-17:00","saturday":"09:00-17:00","sunday":"","holiday":"","closed":"土日、祝祭日　お盆休み　12月３１日から1月3日","capacity":10,"id":"1550101818"},{"name":"児童発達支援・放課後等デイサービス　Calm","nameKana":"じどうはったつしえんほうかごとうでいさーびすかーむ","corp":"合同会社和心美","serviceTypes":["児童発達支援","放課後等デイサービス"],"ward":"新発田市","address":"新潟県新発田市大手町4丁目3-25","tel":"0254-28-8768","url":"http://www.inet-shibata.or.jp/~calm/","lat":37.95122344,"lng":139.32624526,"weekday":"10:00-12:00","saturday":"10:00-16:00","sunday":"","holiday":"","closed":"日曜日、祝日","capacity":10,"id":"1550600199"},{"name":"新発田市こども発達相談室","nameKana":"しばたしこどもはったつそうだんしつ","corp":"新発田市","serviceTypes":["児童発達支援"],"ward":"新発田市","address":"新潟県新発田市住吉町１−７−１７猿橋コミュニティセンター2階","tel":"0254-26-3359","url":"http://www.city.shibata.jp","lat":37.95245312,"lng":139.30975542,"weekday":"08:30-17:00","saturday":"","sunday":"","holiday":"","closed":"国民の祝日と１２月２９日〜１月３日","capacity":12,"id":"1550600033"},{"name":"ひまわり学園","nameKana":"ひまわりがくえん","corp":"社会福祉法人　のぞみの家福祉会","serviceTypes":["児童発達支援"],"ward":"新発田市","address":"新潟県新発田市住吉町1丁目7番6号西園すこやか園","tel":"0254-24-1611","url":"https://www.nozominoie.or.jp/","lat":37.95209208,"lng":139.31051092,"weekday":"08:30-16:00","saturday":"08:30-16:00","sunday":"00:00-00:00","holiday":"00:00-00:00","closed":"土、日、祝日","capacity":20,"id":"1550600132"},{"name":"はったつしえんきち　田ガモ","nameKana":"はったつしえんきちたがも","corp":"一般社団法人KSWCにいがた","serviceTypes":["児童発達支援"],"ward":"加茂市","address":"新潟県加茂市後須田661-1","tel":"0256474938","url":"http://kswc2021-ngt.com","lat":37.69456728,"lng":139.01834407,"weekday":"09:00-16:15","saturday":"","sunday":"","holiday":"","closed":"土曜日、日曜日、祝日、１２月３０日〜１月３日","capacity":10,"id":"1550900037"},{"name":"発育広場　五合目","nameKana":"はついくひろばごごうめ","corp":"合同会社craft map","serviceTypes":["児童発達支援","放課後等デイサービス"],"ward":"柏崎市","address":"新潟県柏崎市大字横山440番地1","tel":"090-3545-0768","url":"","lat":37.34887997,"lng":138.55650306,"weekday":"09:30-15:30","saturday":"","sunday":"","holiday":"","closed":"土曜日、日曜日、国民の祝日、12月29日〜1月３日","capacity":10,"id":"1550500118"},{"name":"十日町市発達支援センター","nameKana":"とおかまちしはったつしえんせんたー","corp":"十日町市","serviceTypes":["児童発達支援"],"ward":"十日町","address":"新潟県十日町市学校町１丁目６１４番地３２","tel":"025-752-7270","url":"http://www.city.tokamachi.lg.jp/kosodate_gakko/B007/B028/1454068608846.html","lat":37.12895634,"lng":138.76745314,"weekday":"08:30-16:30","saturday":"","sunday":"","holiday":"","closed":"土、日、祝日、年末年始（１２月29日〜1月３日）","capacity":20,"id":"1551000035"},{"name":"りんくるーみつけ","nameKana":"りんくるーみつけ","corp":"株式会社ラスティック","serviceTypes":["児童発達支援","放課後等デイサービス"],"ward":"見附市","address":"新潟県見附市市野坪町38番地5","tel":"0258-86-6412","url":"https://lincrew-mitsuke.com/","lat":37.5345421,"lng":138.90663647,"weekday":"10:00-16:30","saturday":"","sunday":"","holiday":"","closed":"土曜日、日曜日、祝日、お盆休み、年末年始","capacity":5,"id":"1551100108"},{"name":"発達支援ステーション シエル","nameKana":"はったつしえんすてーしょんしえる","corp":"合同会社リエゾン","serviceTypes":["児童発達支援","放課後等デイサービス"],"ward":"小千谷市","address":"新潟県小千谷市高梨町１９３１−２旧高梨保育園","tel":"0258898202","url":"http://hattatsu-ciel.com","lat":37.35293592,"lng":138.81220397,"weekday":"09:30-18:00","saturday":"00:00-00:00","sunday":"00:00-00:00","holiday":"00:00-00:00","closed":"土曜・日曜・祝祭日","capacity":10,"id":"1550800054"},{"name":"まごころ学園児童発達支援センター","nameKana":"まごころがくえんじどうはったつしえんせんたー","corp":"新潟県中越福祉事務組合","serviceTypes":["児童発達支援"],"ward":"見附市","address":"新潟県見附市田井町4476番地","tel":"0258-62-1811","url":"","lat":37.50172959,"lng":138.92576352,"weekday":"09:00-15:00","saturday":"","sunday":"","holiday":"","closed":"土日　祝日","capacity":10,"id":"1551100058"},{"name":"はるstep","nameKana":"はるすてっぷ","corp":"一般社団法人Natural","serviceTypes":["児童発達支援","放課後等デイサービス"],"ward":"村上市","address":"新潟県村上市山田930-5","tel":"0254-75-5149","url":"https://shien-natural.net/","lat":38.15925315,"lng":139.46105761,"weekday":"08:00-18:00","saturday":"","sunday":"","holiday":"","closed":"土曜日・日曜日・祝祭日・年末年始（12月30日〜1月3日）、運営法人の指定する日","capacity":10,"id":"1551200064"},{"name":"こども発達支援所　はる","nameKana":"こどもはったつしえんじょはる","corp":"一般社団法人Natural","serviceTypes":["児童発達支援","放課後等デイサービス","居宅訪問型児童発達支援"],"ward":"村上市","address":"新潟県村上市羽黒町11番13号","tel":"0254-62-7200","url":"https://shien-natural.net/","lat":38.21677981,"lng":139.48252052,"weekday":"09:00-17:00","saturday":"","sunday":"","holiday":"","closed":"土曜日・日曜日・祝祭日・年末年始（12月30日〜1月3日）、運営法人の指定する日","capacity":24,"id":"1551200080"},{"name":"ハルガーデン","nameKana":"はるがーでん","corp":"合同会社BOND","serviceTypes":["児童発達支援","放課後等デイサービス","居宅訪問型児童発達支援"],"ward":"村上市","address":"新潟県村上市安良町1番1号　1F","tel":"0254-62-7701","url":"https://haru-bond.com","lat":38.22343426,"lng":139.47804813,"weekday":"09:00-17:00","saturday":"","sunday":"","holiday":"","closed":"土日祝日","capacity":5,"id":"1551200122"},{"name":"ロンディーネの杜","nameKana":"ろんでぃーねのもり","corp":"燕メタセコイアの会","serviceTypes":["児童発達支援","放課後等デイサービス","居宅訪問型児童発達支援"],"ward":"燕市","address":"新潟県燕市吉田神田町19番8号","tel":"0256-78-7001","url":"https://www.metasekoia.com/","lat":37.69341851,"lng":138.88313683,"weekday":"09:00-17:00","saturday":"","sunday":"","holiday":"","closed":"土、日、祝日、年末年始（12月29日〜1月3日）","capacity":10,"id":"1551300088"},{"name":"つばめ療育館しばた分館","nameKana":"つばめりょういくかんしばたぶんかん","corp":"株式会社Noseつばめ療育館","serviceTypes":["児童発達支援"],"ward":"新発田市","address":"新潟県新発田市御幸町2丁目15番3号","tel":"0254-20-7241","url":"http://www.ryoiku-kan.com","lat":37.94575419,"lng":139.31617446,"weekday":"09:00-17:00","saturday":"","sunday":"","holiday":"","closed":"土・日曜日、国民の祝日、8月13日から15日、12月30日から1月3日","capacity":10,"id":"1550600215"},{"name":"つばめ療育館　親子館","nameKana":"つばめりょういくかんおやこかん","corp":"株式会社Noseつばめ療育館","serviceTypes":["児童発達支援","放課後等デイサービス"],"ward":"燕市","address":"新潟県燕市勘新985番2","tel":"0256-66-1211","url":"http://www.ryoiku-kan.com","lat":37.69184041,"lng":138.95144651,"weekday":"09:15-17:00","saturday":"","sunday":"","holiday":"","closed":"土・日曜日、国民の祝日、8月13日から15日、12月30日から1月3日","capacity":10,"id":"1551300062"},{"name":"つばめ療育館吉田分館","nameKana":"つばめりょういくかんよしだぶんかん","corp":"株式会社Noseつばめ療育館","serviceTypes":["児童発達支援"],"ward":"燕市","address":"新潟県燕市吉田旭町2丁目5番10号","tel":"0256-77-9134","url":"","lat":37.686858,"lng":138.87476586,"weekday":"09:30-17:30","saturday":"","sunday":"","holiday":"","closed":"土・日曜日、国民の祝日、8月13日から15日、12月30日から1月3日","capacity":10,"id":"1551300104"},{"name":"つばめ療育館","nameKana":"つばめりょういくかん","corp":"株式会社Noseつばめ療育館","serviceTypes":["児童発達支援","放課後等デイサービス"],"ward":"燕市","address":"新潟県燕市勘新1111番地1","tel":"0256-66-1211","url":"http://www.ryoiku-kan.com","lat":37.69210706,"lng":138.95203533,"weekday":"09:15-14:00","saturday":"","sunday":"","holiday":"","closed":"土・日曜日、国民の祝日、8月13日から15日、12月30日から1月3日","capacity":10,"id":"1551300054"},{"name":"きららにじぐみ","nameKana":"きららにじぐみ","corp":"吉田福祉会","serviceTypes":["児童発達支援","放課後等デイサービス"],"ward":"燕市","address":"新潟県燕市吉田東栄町３４番１０号","tel":"0256-78-7804","url":"https://yosihuku.com/","lat":37.6797284,"lng":138.87391348,"weekday":"09:00-17:00","saturday":"","sunday":"","holiday":"09:00-17:00","closed":"土曜日、日曜日、祝日、　12月29日から1月3日","capacity":10,"id":"1551300013"},{"name":"ほっぷ・すてっぷ","nameKana":"ほっぷすてっぷ","corp":"株式会社桜翠","serviceTypes":["児童発達支援"],"ward":"糸魚川市","address":"新潟県糸魚川市一の宮二丁目1番12号","tel":"025-555-7705","url":"","lat":37.03935524,"lng":137.86657652,"weekday":"09:00-18:00","saturday":"09:00-18:00","sunday":"","holiday":"09:00-18:00","closed":"日曜日、年末年始（12/30〜1/3）、夏季休暇（8/13・14）","capacity":5,"id":"1551500059"},{"name":"発達支援センターめだか園","nameKana":"はったつしえんせんたーめだかえん","corp":"糸魚川市","serviceTypes":["児童発達支援"],"ward":"糸魚川市","address":"新潟県糸魚川市上刈１丁目１４番１号","tel":"025-552-8322","url":"http://www.city.itoigawa.lg.jp/","lat":37.03992719,"lng":137.85422784,"weekday":"09:00-16:00","saturday":"","sunday":"","holiday":"","closed":"土曜日、日曜日、国民の祝日に関する法律に規定する休日、年末年始等","capacity":15,"id":"1551500018"},{"name":"SMiDデイサービス　ふう","nameKana":"えすえむあいでぃーでーさーびすふう","corp":"特定非営利活動法人キャリーグレース","serviceTypes":["児童発達支援","放課後等デイサービス"],"ward":"妙高市","address":"新潟県妙高市上町9番2号コミュニティセンター1階","tel":"0255-85-1377","url":"http://www.smid-fuu.com","lat":37.02278462,"lng":138.25006153,"weekday":"10:00-17:00","saturday":"10:00-17:00","sunday":"","holiday":"10:00-17:00","closed":"日曜日　８月１３日〜１５日　１２月２９日〜１月３日まで","capacity":5,"id":"1551600065"},{"name":"妙高市早期療育施設ひばり園","nameKana":"みょうこうしそうきりょういくしせつひばりえん","corp":"妙高市","serviceTypes":["児童発達支援"],"ward":"妙高市","address":"新潟県妙高市小出雲三丁目１２番６号","tel":"0255-72-9418","url":"","lat":37.01729097,"lng":138.25496402,"weekday":"09:00-17:15","saturday":"","sunday":"","holiday":"","closed":"土・日・祝日","capacity":20,"id":"1551600024"},{"name":"街なかデイサービス　たからばこ","nameKana":"まちなかでいさーびすたからばこ","corp":"株式会社　縁","serviceTypes":["児童発達支援","放課後等デイサービス"],"ward":"五泉市","address":"新潟県五泉市村松甲2197番地1","tel":"0250-47-7826","url":"","lat":37.69263825,"lng":139.17782783,"weekday":"09:00-17:45","saturday":"09:00-17:45","sunday":"09:00-17:45","holiday":"09:00-17:45","closed":"年中無休","capacity":30,"id":"1551700089"},{"name":"ブロッサムジュニア　上越春日山教室","nameKana":"ぶろっさむじゅにあじょうえつかすがやまきょうしつ","corp":"株式会社　Certo","serviceTypes":["児童発達支援","放課後等デイサービス"],"ward":"上越市","address":"新潟県上越市春日山町3丁目1番21号ロイヤルパレス春日山１Ｆ","tel":"025-520-8536","url":"https://www.blossom-certo.com/","lat":37.14785532,"lng":138.23341074,"weekday":"09:00-17:30","saturday":"09:00-16:00","sunday":"","holiday":"09:00-16:00","closed":"日曜、GW、盆、年末年始","capacity":10,"id":"1550300170"},{"name":"ブロッサムジュニア上越春日新田教室","nameKana":"ぶろっさむじゅにあじょうえつかすがしんでんきょうしつ","corp":"株式会社　Certo","serviceTypes":["児童発達支援","放課後等デイサービス"],"ward":"上越市","address":"新潟県上越市春日新田5丁目5-22シオノヤ貸事務所","tel":"025-530-7902","url":"","lat":37.16841484,"lng":138.25496915,"weekday":"09:00-17:30","saturday":"09:00-16:00","sunday":"","holiday":"09:00-16:00","closed":"日曜日、GW、盆、年末年始","capacity":10,"id":"1550300188"},{"name":"ブロッサムジュニア上越大手町教室","nameKana":"ぶろっさむじゅにあじょうえつおおてまちきょうしつ","corp":"株式会社　Certo","serviceTypes":["児童発達支援","放課後等デイサービス"],"ward":"上越市","address":"新潟県上越市大手町6番地3","tel":"025-546-7624","url":"","lat":37.10888883,"lng":138.2471666,"weekday":"09:00-17:30","saturday":"09:00-16:00","sunday":"","holiday":"09:00-16:00","closed":"日曜日、年末年始、お盆、ゴールデンウイーク","capacity":10,"id":"1550300196"},{"name":"ブロッサムジュニア　柏崎教室","nameKana":"ぶろっさむじゅにあかしわざききょうしつ","corp":"株式会社　Certo","serviceTypes":["児童発達支援","放課後等デイサービス"],"ward":"柏崎市","address":"新潟県柏崎市北半田2丁目3番12号","tel":"0257-41-4166","url":"","lat":37.36442573,"lng":138.57619453,"weekday":"09:00-17:30","saturday":"09:00-16:00","sunday":"","holiday":"09:00-16:00","closed":"日曜、GW、盆、年末年始","capacity":10,"id":"1550500100"},{"name":"SMiDデイサービスSora","nameKana":"えすえむあいでぃでいさーびすそら","corp":"特定非営利活動法人　ギフテッド","serviceTypes":["児童発達支援"],"ward":"上越市","address":"新潟県上越市寺町2丁目20番1号　福祉交流プラザ1階","tel":"025-542-9129","url":"https://www.npo-gifted.com/","lat":37.10843852,"lng":138.23771467,"weekday":"09:00-17:00","saturday":"09:00-17:00","sunday":"","holiday":"09:00-17:00","closed":"日曜日　8月13日〜15日　12月29日〜1月3日まで　職員研修日等","capacity":5,"id":"1550300212"},{"name":"まーち","nameKana":"まーち","corp":"ドリームアカンパニー合同会社","serviceTypes":["児童発達支援","放課後等デイサービス"],"ward":"上越市","address":"新潟県上越市本町3丁目2番22号","tel":"070-8473-8530","url":"https://march-sound.com/","lat":37.10961364,"lng":138.24468624,"weekday":"09:00-17:00","saturday":"09:00-15:00","sunday":"","holiday":"09:00-15:00","closed":"日曜日及びGW、お盆、年末年始","capacity":10,"id":"1550300246"},{"name":"スパークハウス上越ふじまき","nameKana":"すぱーくはうすじょうえつふじまき","corp":"株式会社　リボーン","serviceTypes":["児童発達支援","放課後等デイサービス"],"ward":"上越市","address":"新潟県上越市藤巻7番35号","tel":"025-523-0710","url":"https://riborn.co.jp/spark/","lat":37.1364738,"lng":138.24380464,"weekday":"10:00-18:00","saturday":"09:00-17:00","sunday":"09:00-17:00","holiday":"09:00-17:00","closed":"日曜日、祝日５月３日〜５日、 ８月１4日・１５日、１２月３１日〜１月３日まで","capacity":10,"id":"1550300154"},{"name":"上越市こども発達支援センター","nameKana":"じょうえつしこどもはったつしえんせんたー","corp":"上越市","serviceTypes":["児童発達支援"],"ward":"上越市","address":"新潟県上越市寺町2丁目20番1号福祉交流プラザ","tel":"025-522-4609","url":"https://www.city.joetsu.niigata.jp/soshiki/hattatsu/","lat":37.10843852,"lng":138.23771467,"weekday":"08:30-17:15","saturday":"","sunday":"","holiday":"","closed":"土曜日、日曜日、祝日、年末年始","capacity":40,"id":"1550300162"},{"name":"児童発達支援・放課後等デイサービス　またあした","nameKana":"じどうはったつしえんほうかごとうでいさーびすまたあした","corp":"株式会社井手塾","serviceTypes":["児童発達支援","放課後等デイサービス"],"ward":"上越市","address":"新潟県上越市子安1201メゾンヒカリ1F","tel":"025-520-8146","url":"","lat":37.10826751,"lng":138.27506646,"weekday":"13:00-18:00","saturday":"09:00-15:00","sunday":"","holiday":"09:00-15:00","closed":"　日曜　GW　","capacity":10,"id":"1550300238"},{"name":"こどものことばとこころの相談室","nameKana":"こどものことばとこころのそうだんしつ","corp":"社会福祉法人　阿賀野市社会福祉協議会","serviceTypes":["児童発達支援","放課後等デイサービス"],"ward":"阿賀野市","address":"新潟県阿賀野市岡山町4番12号","tel":"0250-61-2260","url":"http://www.agano.net/shakyo/5jiritsu/kotoba/kotoba.html","lat":37.83554998,"lng":139.22382447,"weekday":"09:00-17:00","saturday":"09:00-17:00","sunday":"00:00-00:00","holiday":"00:00-00:00","closed":"日曜日、国民の祝日、12月29日から翌年１月３日まで。隔週の土曜日・木曜日","capacity":20,"id":"1552100073"},{"name":"かがやきこども園","nameKana":"かがやきこどもえん","corp":"社会福祉法人かがやき福祉会","serviceTypes":["児童発達支援","放課後等デイサービス"],"ward":"阿賀野市","address":"新潟県阿賀野市寺社甲３８４８−２１２","tel":"0250-68-1119","url":"http://www.fukushi-kagayaki.jp/","lat":37.78629306,"lng":139.2343359,"weekday":"09:00-16:00","saturday":"09:00-16:00","sunday":"","holiday":"","closed":"土、日曜、祝日、12月30日〜1月3日","capacity":10,"id":"1552100057"},{"name":"佐渡市子ども若者相談センター","nameKana":"さどしこどもわかものそうだんせんたー","corp":"佐渡市","serviceTypes":["児童発達支援"],"ward":"佐渡市","address":"新潟県佐渡市金井新保乙1107-1佐渡市子ども若者相談センター","tel":"0259-58-8077","url":"https://www.city.sado.niigata.jp/","lat":38.03133163,"lng":138.37055278,"weekday":"08:45-17:00","saturday":"","sunday":"","holiday":"","closed":"土日祝日、12月29日~1月3日","capacity":10,"id":"1552200055"},{"name":"共生ふれんど魚沼","nameKana":"ともいきふれんどうおぬま","corp":"一般社団法人S＆P","serviceTypes":["児童発達支援"],"ward":"魚沼市","address":"新潟県魚沼市井口新田128番地9","tel":"025-792-6405","url":"","lat":37.23323337,"lng":138.97348757,"weekday":"09:00-12:30","saturday":"","sunday":"","holiday":"","closed":"原則として、土曜日、日曜日、国民の休日及び年末年始","capacity":10,"id":"1552300053"},{"name":"共生ふれんど","nameKana":"ともいきふれんど","corp":"一般社団法人S＆P","serviceTypes":["児童発達支援","放課後等デイサービス"],"ward":"南魚沼市","address":"新潟県南魚沼市南魚沼市","tel":"025-776-2077","url":"","lat":37.0655409,"lng":138.8760672,"weekday":"09:00-12:30","saturday":"","sunday":"","holiday":"","closed":"原則として、土曜日、日曜日、国民の休日及び年末年始","capacity":10,"id":"1552400010"},{"name":"児童デイサービス　みそら","nameKana":"じどうでいさーびすみそら","corp":"一般社団法人S＆P","serviceTypes":["児童発達支援","放課後等デイサービス"],"ward":"長岡市","address":"新潟県長岡市川崎5丁目497番地101号","tel":"0258-86-4848","url":"https://www.sp2020tomoiki.com/","lat":37.4532442,"lng":138.86968224,"weekday":"09:30-17:30","saturday":"","sunday":"","holiday":"","closed":"土、日、国民の休日、12月30日〜1月3日","capacity":10,"id":"1550200321"},{"name":"ここいろスペース","nameKana":"ここいろすぺーす","corp":"特定非営利活動法人cocoiro","serviceTypes":["児童発達支援","放課後等デイサービス"],"ward":"南魚沼郡湯沢町","address":"新潟県南魚沼郡湯沢町大字湯沢1831番地","tel":"080-5199-9811","url":"https://www.cocoiro-yuzawa.com/","lat":36.93421568,"lng":138.81437057,"weekday":"09:30-17:30","saturday":"","sunday":"","holiday":"10:00-16:00","closed":"土曜日、日曜日、年末年始、その他事業所が定めた祝日","capacity":10,"id":"1555800018"},{"name":"ハッピーハート保育はなみずき","nameKana":"はっぴーはーとほいくはなみずき","corp":"株式会社　シーエスシー","serviceTypes":["児童発達支援"],"ward":"新潟市","address":"新潟県新潟市東区はなみずき1-15-35","tel":"025-278-8711","url":"https://www.happy-heart.club/","lat":37.91523619,"lng":139.10099374,"weekday":"09:00-15:00","saturday":"09:00-15:00","sunday":"","holiday":"","closed":"日曜日・祝日・お盆・年末年始","capacity":10,"id":"1550101727"},{"name":"ハッピーハート保育新潟西","nameKana":"はっぴーはーとほいくにいがたにし","corp":"株式会社　シーエスシー","serviceTypes":["児童発達支援"],"ward":"新潟市","address":"新潟県新潟市西区坂井東４−２−１４コンドミニアムリベロ坂井１階","tel":"025-378-1268","url":"http://www.happy-heart.club/index.html","lat":37.87102552,"lng":138.97591976,"weekday":"09:00-15:00","saturday":"09:00-15:00","sunday":"","holiday":"","closed":"日曜日・祝日・お盆・年末年始","capacity":10,"id":"1550100471"},{"name":"ハッピーハート保育中央","nameKana":"はっぴーはーとほいくちゅうおう","corp":"株式会社　シーエスシー","serviceTypes":["児童発達支援"],"ward":"新潟市","address":"新潟県新潟市中央区笹口３−２５ダイヤモンドハイツ笹口２−１号","tel":"025-385-7780","url":"http://www.csc-gr.com","lat":37.91100482,"lng":139.06952647,"weekday":"09:00-15:00","saturday":"09:00-15:00","sunday":"","holiday":"","closed":"日曜日・祝日・お盆・年末年始","capacity":10,"id":"1550100489"},{"name":"こどもサポート教室「きらり」女池神明校","nameKana":"こどもさぽーときょうしつきらりめいけしんめいこう","corp":"株式会社クラ・ゼミ","serviceTypes":["児童発達支援","放課後等デイサービス"],"ward":"新潟市","address":"新潟県新潟市中央区女池神明２丁目３−３神明オフィスビル１階Ａ号室","tel":"025-288-5026","url":"https://kirari-kodomo.com/around/around-272/","lat":37.88942037,"lng":139.03564439,"weekday":"10:00-19:00","saturday":"10:00-19:00","sunday":"","holiday":"10:00-19:00","closed":"日曜日","capacity":10,"id":"1550100513"},{"name":"こどもサポート教室「きらり」姥ケ山校","nameKana":"こどもさぽーときょうしつきらりうばがやまこう","corp":"株式会社クラ・ゼミ","serviceTypes":["児童発達支援"],"ward":"新潟市","address":"新潟県新潟市中央区姥ケ山５丁目１４−８１","tel":"025-250-1412","url":"https://kirari-kodomo.com/around/around-271/","lat":37.89088203,"lng":139.0786355,"weekday":"10:00-19:00","saturday":"10:00-19:00","sunday":"","holiday":"10:00-19:00","closed":"日曜日","capacity":10,"id":"1550100604"},{"name":"こどもサポート教室「きらり」新潟西校","nameKana":"こどもさぽーときょうしつきらりにいがたにしこう","corp":"株式会社クラ・ゼミ","serviceTypes":["児童発達支援","放課後等デイサービス"],"ward":"新潟市","address":"新潟県新潟市西区大学南１丁目７８２５番地５","tel":"025-378-6808","url":"https://kirari-kodomo.com/","lat":37.86701114,"lng":138.94656234,"weekday":"10:00-19:00","saturday":"10:00-19:00","sunday":"","holiday":"10:00-19:00","closed":"日曜日","capacity":10,"id":"1550100794"},{"name":"こどもサポート教室「きらり」はくさん校","nameKana":"こどもさぽーときょうしつきらりはくさんこう","corp":"株式会社クラ・ゼミ","serviceTypes":["児童発達支援","放課後等デイサービス"],"ward":"新潟市","address":"新潟県新潟市中央区上大川前通４番町４６番地３","tel":"025-201-6226","url":"https://kirari-kodomo.com/","lat":37.91726751,"lng":139.04693382,"weekday":"10:00-19:00","saturday":"10:00-19:00","sunday":"","holiday":"10:00-19:00","closed":"日曜日","capacity":10,"id":"1550100901"},{"name":"コペルプラス　新潟駅前教室","nameKana":"こぺるぷらすにいがたえきまえきょうしつ","corp":"株式会社クラ・ゼミ","serviceTypes":["児童発達支援","放課後等デイサービス"],"ward":"新潟市","address":"新潟県新潟市中央区東大通2丁目3番26号　プレイス新潟7階","tel":"025-282-7470","url":"https://copelplus.copel.co.jp/school/niigata-class/","lat":37.91607618,"lng":139.05887143,"weekday":"10:00-18:00","saturday":"10:00-18:00","sunday":"10:00-18:00","holiday":"","closed":"営業日は教室の年間スケジュール表に準ずることとする。","capacity":10,"id":"1550101669"},{"name":"こどもサポート教室「きらり」三条校","nameKana":"こどもさぽーときょうしつきらりさんじょうこう","corp":"株式会社クラ・ゼミ","serviceTypes":["児童発達支援"],"ward":"三条市","address":"新潟県三条市興野3丁目21番30号","tel":"0256-64-8556","url":"http://kirari-kodomo.com/","lat":37.63331303,"lng":138.97749791,"weekday":"10:00-19:00","saturday":"10:00-19:00","sunday":"","holiday":"10:00-19:00","closed":"日曜日","capacity":10,"id":"1550400079"},{"name":"こどもサポート教室「きらり」北長岡校","nameKana":"こどもさぽーときょうしつきらりきたながおかこう","corp":"株式会社クラ・ゼミ","serviceTypes":["児童発達支援","放課後等デイサービス"],"ward":"長岡市","address":"新潟県長岡市稲保南1丁目219-17","tel":"0258-86-8320","url":"https://kirari-kodomo.com/around/around-416/","lat":37.47816408,"lng":138.87697784,"weekday":"10:00-19:00","saturday":"10:00-19:00","sunday":"","holiday":"10:00-19:00","closed":"日曜日","capacity":10,"id":"1550200305"},{"name":"コペルプラス　長岡教室","nameKana":"こぺるぷらすながおかきょうしつ","corp":"株式会社クラ・ゼミ","serviceTypes":["児童発達支援","放課後等デイサービス"],"ward":"長岡市","address":"新潟県長岡市関東町５−５長岡ファーストビル201号室","tel":"0258-94-4622","url":"https://copelplus.copel.co.jp/school/nagaoka/","lat":37.45285533,"lng":138.85286229,"weekday":"10:00-18:00","saturday":"10:00-18:00","sunday":"","holiday":"","closed":"日曜、月曜","capacity":10,"id":"1550200396"},{"name":"こどもサポート教室「きらり」三条本成寺校","nameKana":"こどもさぽーときょうしつきらりさんじょうほんじょうじこう","corp":"株式会社クラ・ゼミ","serviceTypes":["児童発達支援","放課後等デイサービス"],"ward":"三条市","address":"新潟県三条市東本成寺１４−１９","tel":"0256-64-7796","url":"http://kirari-kodomo.com","lat":37.61858926,"lng":138.95010175,"weekday":"09:00-18:00","saturday":"09:00-18:00","sunday":"","holiday":"09:00-18:00","closed":"日曜日","capacity":10,"id":"1550400152"},{"name":"こどもサポート教室「きらり」長岡校","nameKana":"こどもさぽーときょうしつきらりながおかこう","corp":"株式会社クラ・ゼミ","serviceTypes":["児童発達支援","放課後等デイサービス"],"ward":"長岡市","address":"新潟県長岡市今朝白三丁目１１番５号白井店舗１階","tel":"0258-89-7085","url":"http://kirari-kodomo.com/","lat":37.4504001,"lng":138.85911993,"weekday":"10:00-19:00","saturday":"10:00-19:00","sunday":"","holiday":"10:00-19:00","closed":"日曜日","capacity":10,"id":"1550200131"},{"name":"COMPASS発達支援センター長岡","nameKana":"こんぱすはったつしえんせんたーながおか","corp":"株式会社三葉","serviceTypes":["児童発達支援","放課後等デイサービス"],"ward":"長岡市","address":"新潟県長岡市喜多町407番　喜多町ウイング1階1号室","tel":"0258-94-5438","url":"https://www.compass-mitsuba.com/facility/26027","lat":37.45196049,"lng":138.80053822,"weekday":"10:00-13:00","saturday":"10:00-16:00","sunday":"","holiday":"","closed":"日、祝日、年末年始休暇(12月29日〜1月3日)","capacity":10,"id":"1550200362"},{"name":"そらひろ　ドリーム","nameKana":"そらひろどりーむ","corp":"株式会社ソラヒロ","serviceTypes":["児童発達支援"],"ward":"新潟市","address":"新潟県新潟市中央区出来島２丁目１１番３号","tel":"0253856771","url":"https://sorahiro.jp","lat":37.89926059,"lng":139.02631133,"weekday":"10:00-16:00","saturday":"10:00-16:00","sunday":"","holiday":"10:00-16:00","closed":"日曜日・夏季・年末年始","capacity":10,"id":"1550100828"},{"name":"そらひろドリームⅡ","nameKana":"そらひろどりーむつー","corp":"株式会社ソラヒロ","serviceTypes":["児童発達支援"],"ward":"新潟市","address":"新潟県新潟市江南区曽野木1-35-38","tel":"025-384-8750","url":"https://sorahiro.jp","lat":37.86453731,"lng":139.04002292,"weekday":"10:00-16:00","saturday":"10:00-16:00","sunday":"","holiday":"10:00-16:00","closed":"日曜日・夏季・年末年始","capacity":10,"id":"1550101743"},{"name":"放課後等デイサービス　ココカラLIFE　新島教室","nameKana":"ほうかごとうでいさーびすここかららいふしんしまきょうしつ","corp":"株式会社ピーエイケア","serviceTypes":["放課後等デイサービス"],"ward":"新潟市","address":"新潟県新潟市中央区新島町通１ノ町１９７６","tel":"025-378-4512","url":"http://coco-color.com/cocolife/","lat":37.92057826,"lng":139.04914447,"weekday":"14:00-17:30","saturday":"10:00-16:00","sunday":"","holiday":"","closed":"日曜日、国民の祝日、12月29日から1月3日まで","capacity":10,"id":"1550101644"},{"name":"デイサービスセンター春日和見附","nameKana":"でいさーびすせんたーはるびよりみつけ","corp":"株式会社ワールドステイ","serviceTypes":["放課後等デイサービス"],"ward":"見附市","address":"新潟県見附市葛巻町1689-1なし","tel":"0258-86-4843","url":"https://www.worldstay.jp","lat":37.53114536,"lng":138.90881689,"weekday":"09:00-16:30","saturday":"09:00-16:30","sunday":"09:00-16:30","holiday":"09:00-16:30","closed":"なし","capacity":22,"id":"1551100074"},{"name":"デイサービスセンター春日和真砂","nameKana":"でいさーびすせんたーはるびよりまさご","corp":"株式会社ワールドステイ","serviceTypes":["放課後等デイサービス"],"ward":"新潟市","address":"新潟県新潟市西区真砂３丁目１１番３１号","tel":"025-267-3211","url":"","lat":37.89327592,"lng":138.98419779,"weekday":"09:00-16:30","saturday":"09:00-16:30","sunday":"","holiday":"09:00-16:30","closed":"毎週日曜日","capacity":25,"id":"1550101255"},{"name":"デイサービスセンター春日和浜谷町","nameKana":"でいさーびすせんたーはるびよりはまやちょう","corp":"株式会社ワールドステイ","serviceTypes":["放課後等デイサービス"],"ward":"新潟市","address":"新潟県新潟市東区浜谷町１丁目２番１号","tel":"0253856870","url":"http://www.worldstay.jp/","lat":37.94713522,"lng":139.09026709,"weekday":"09:00-16:30","saturday":"09:00-16:30","sunday":"09:00-16:30","holiday":"09:00-16:30","closed":"なし","capacity":32,"id":"1550101222"},{"name":"デイサービスセンター春日和竹尾","nameKana":"でいさーびすせんたーはるたけお","corp":"株式会社ワールドステイ","serviceTypes":["放課後等デイサービス"],"ward":"新潟市","address":"新潟県新潟市東区竹尾３丁目２１番３０号ワールドステイ竹尾","tel":"025-279-2171","url":"http://www.worldstay.jp/","lat":37.91387225,"lng":139.09463874,"weekday":"09:00-16:30","saturday":"09:00-16:30","sunday":"09:00-16:30","holiday":"09:00-16:30","closed":"","capacity":25,"id":"1550101214"},{"name":"デイサービスセンター春日和小針","nameKana":"でいさーびすせんたーはるこばり","corp":"株式会社ワールドステイ","serviceTypes":["放課後等デイサービス"],"ward":"新潟市","address":"新潟県新潟市西区小針１丁目４５番３１号","tel":"025-201-6465","url":"","lat":37.88616117,"lng":139.00625201,"weekday":"09:00-16:30","saturday":"09:00-16:30","sunday":"09:00-16:30","holiday":"09:00-16:30","closed":"","capacity":33,"id":"1550101248"},{"name":"デイサービスセンター春日和北葉町","nameKana":"でいさーびすせんたーはるきたばちょう","corp":"株式会社ワールドステイ","serviceTypes":["放課後等デイサービス"],"ward":"新潟市","address":"新潟県新潟市東区北葉町９番３号","tel":"025-275-3012","url":"","lat":37.93842953,"lng":139.07584577,"weekday":"09:00-16:30","saturday":"09:00-16:30","sunday":"09:00-16:30","holiday":"09:00-16:30","closed":"","capacity":25,"id":"1550101206"},{"name":"デイサービスセンター春日和高井","nameKana":"でいさーびすせんたーはるたかい","corp":"株式会社ワールドステイ","serviceTypes":["放課後等デイサービス"],"ward":"新潟市","address":"新潟県新潟市南区高井興野１２４番地１","tel":"025-362-3712","url":"","lat":37.79554927,"lng":139.01454028,"weekday":"09:00-16:30","saturday":"09:00-16:30","sunday":"09:00-16:30","holiday":"09:00-16:30","closed":"なし","capacity":44,"id":"1550101263"},{"name":"グローバルキッズメソッド１４２","nameKana":"ぐろーばるきっずめそっどひゃくよんじゅうに","corp":"ハッピーライフケア株式会社","serviceTypes":["放課後等デイサービス"],"ward":"新潟市","address":"新潟県新潟市西区小新西2-20-25","tel":"025-201-7952","url":"","lat":37.87415652,"lng":138.99355945,"weekday":"15:30-17:30","saturday":"10:00-16:00","sunday":"","holiday":"10:00-16:00","closed":"","capacity":10,"id":"1550101826"},{"name":"はぴねす長岡","nameKana":"はぴねすながおか","corp":"オネストリィ株式会社","serviceTypes":["放課後等デイサービス"],"ward":"長岡市","address":"新潟県長岡市古正寺3-92","tel":"0258-86-5436","url":"https://happiness-koshoji.com/topics/post-13","lat":37.45770709,"lng":138.82238224,"weekday":"13:00-18:00","saturday":"09:00-16:30","sunday":"09:00-16:30","holiday":"09:00-16:30","closed":"12月30~1月3日","capacity":10,"id":"1550200214"},{"name":"はぴねす長岡２","nameKana":"はぴねすながおかに","corp":"オネストリィ株式会社","serviceTypes":["放課後等デイサービス"],"ward":"長岡市","address":"新潟県長岡市古正寺3丁目125番地","tel":"0258-86-5435","url":"","lat":37.45772929,"lng":138.82195172,"weekday":"13:00-18:00","saturday":"09:00-16:30","sunday":"09:00-16:30","holiday":"09:00-16:30","closed":"12月30日〜1月3日","capacity":20,"id":"1550200347"},{"name":"放課後等デイサービスおひさま","nameKana":"ほうかごとうでいさーびすおひさま","corp":"ノーティス株式会社","serviceTypes":["放課後等デイサービス"],"ward":"村上市","address":"新潟県村上市山居町２丁目２−２５","tel":"0254-56-0238","url":"https://yn-au.co.jp/?distinations=ohisama_murakami/","lat":38.21395451,"lng":139.46626408,"weekday":"14:00-18:30","saturday":"09:30-17:30","sunday":"","holiday":"","closed":"日曜・祝日、８月13日〜16日、12月29日〜1月3日、職員研修日","capacity":10,"id":"1551200015"},{"name":"ひなた川岸校","nameKana":"ひなたかわぎしこう","corp":"社会福祉法人藤の木原福祉会","serviceTypes":["放課後等デイサービス"],"ward":"新潟市","address":"新潟県新潟市中央区川岸町２−７−３リバーステージ新潟1階１０１号","tel":"025-378-3770","url":"","lat":37.90937913,"lng":139.03169956,"weekday":"13:00-18:00","saturday":"","sunday":"","holiday":"","closed":"土日祝・8/13〜8/15・12/29〜1/3","capacity":10,"id":"1550101610"},{"name":"放課後等デイサービス　ととと","nameKana":"ほうかごとうでいさーびすととと","corp":"一般社団法人てぺてこ","serviceTypes":["放課後等デイサービス"],"ward":"新潟市","address":"新潟県新潟市北区三軒屋町2-10","tel":"025-282-5297","url":"https://tepeteco-tototo.studio.site/","lat":37.94782792,"lng":139.14433003,"weekday":"14:00-18:00","saturday":"","sunday":"","holiday":"","closed":"土曜日、日曜日、国民の祝日、お盆休み、１２月２９日から１月４日","capacity":10,"id":"1550101883"},{"name":"おひさま","nameKana":"おひさま","corp":"社会福祉法人　新潟太陽福祉会","serviceTypes":["放課後等デイサービス"],"ward":"新潟市","address":"新潟県新潟市北区太夫浜字下浜山675番地","tel":"025-258-6337","url":"https://niigata-taiyo.com","lat":37.913546,"lng":139.221588,"weekday":"14:30-17:30","saturday":"09:00-16:00","sunday":"","holiday":"","closed":"日曜、祝日及び12月29日〜1月3日","capacity":10,"id":"1550100182"},{"name":"ピンポン","nameKana":"ぴんぽん","corp":"有限会社里の和","serviceTypes":["放課後等デイサービス"],"ward":"新潟市","address":"新潟県新潟市北区上土地亀９４９","tel":"025-384-4892","url":"http://satonowa.jp/","lat":37.91267364,"lng":139.20900058,"weekday":"14:30-17:30","saturday":"09:00-17:30","sunday":"","holiday":"09:00-17:30","closed":"毎週日曜日　他、12月31日〜1月3日","capacity":10,"id":"1550100125"},{"name":"てるいんとこ　にこにこ","nameKana":"てるいんとこにこにこ","corp":"特定非営利活動法人てるいんとこ","serviceTypes":["放課後等デイサービス"],"ward":"新潟市","address":"新潟県新潟市北区嘉山３丁目５番２７号","tel":"025-388-3598","url":"http://teruintoko.wix.com","lat":37.90860778,"lng":139.22226879,"weekday":"14:30-17:30","saturday":"","sunday":"","holiday":"","closed":"土曜日・日曜日・祝日・お盆（8/13〜15）・年末年始（12/30〜1/3）","capacity":10,"id":"1550100745"},{"name":"てるいんとこ　さんさん","nameKana":"てるいんとこさんさん","corp":"特定非営利活動法人てるいんとこ","serviceTypes":["放課後等デイサービス"],"ward":"新潟市","address":"新潟県新潟市北区柳原７丁目３番１号","tel":"025-384-0508","url":"https://teruintoko.wixsite.com/teruintoko","lat":37.91874791,"lng":139.20543399,"weekday":"14:30-17:30","saturday":"","sunday":"","holiday":"","closed":"土曜日・日曜日・祝祭日・お盆（8/13〜15）・年末年始（12/30〜1/3）","capacity":10,"id":"1550101057"},{"name":"放課後等デイサービスじぇむぱれっと　モア","nameKana":"ほうかごとうでいさーびすじぇむぱれっともあ","corp":"株式会社エーグルブルー","serviceTypes":["放課後等デイサービス"],"ward":"新潟市","address":"新潟県新潟市東区山木戸4丁目7番11号放課後等デイサービスじぇむぱれっと　モア","tel":"025-250-0670","url":"https://aigleblue.wixsite.com/gempalett","lat":37.92207094,"lng":139.08474133,"weekday":"14:00-17:30","saturday":"09:00-17:00","sunday":"","holiday":"09:00-17:00","closed":"日曜日、8月13日〜8月15日、12月29日〜1月3日","capacity":10,"id":"1550101313"},{"name":"放課後等デイサービスじぇむぱれっと","nameKana":"ほうかごとうでいさーびすじぇむぱれっと","corp":"株式会社エーグルブルー","serviceTypes":["放課後等デイサービス"],"ward":"新潟市","address":"新潟県新潟市東区中島2丁目1番20号1階","tel":"025-250-0161","url":"https://aigleblue.wixsite.com/gempalett","lat":37.9087785,"lng":139.11046544,"weekday":"14:00-17:30","saturday":"09:00-17:00","sunday":"","holiday":"09:00-17:00","closed":"お盆（8/13〜8/15）　年末年始（12/29〜1/3）","capacity":10,"id":"1550100596"},{"name":"ヒラメキ","nameKana":"ひらめき","corp":"一般社団法人ＣＵＲＯＣＯ","serviceTypes":["放課後等デイサービス"],"ward":"新潟市","address":"新潟県新潟市東区松和町8-26","tel":"025-250-7195","url":"https://curoco.org/","lat":37.94133354,"lng":139.09712829,"weekday":"13:00-17:30","saturday":"09:00-17:00","sunday":"09:00-17:00","holiday":"09:00-17:00","closed":"","capacity":10,"id":"1550101750"},{"name":"みいむアートスタジオ","nameKana":"みいむあーとすたじお","corp":"一般社団法人ユーモップ","serviceTypes":["放課後等デイサービス"],"ward":"新潟市","address":"新潟県新潟市東区大山1-10-5","tel":"025-384-8175","url":"","lat":37.93366638,"lng":139.07850438,"weekday":"13:30-17:30","saturday":"09:00-15:00","sunday":"","holiday":"09:00-15:00","closed":"日曜日、末年始（12/30から1/2)およびお盆期間（8/13-8/15)","capacity":10,"id":"1550101941"},{"name":"ららら　ドリーム","nameKana":"らららどりーむ","corp":"社会福祉法人　愛宕福祉会","serviceTypes":["放課後等デイサービス"],"ward":"新潟市","address":"新潟県新潟市北区早通８","tel":"025-384-0215","url":"https://www.atago.or.jp/lalala/","lat":37.92092819,"lng":139.17547323,"weekday":"14:00-18:00","saturday":"09:00-17:00","sunday":"","holiday":"09:00-17:00","closed":"日曜日","capacity":10,"id":"1550100737"},{"name":"キッズデイサービス　GROW","nameKana":"きっずでいさーびすぐろう","corp":"株式会社　ＧＲＯＷ","serviceTypes":["放課後等デイサービス"],"ward":"新潟市","address":"新潟県新潟市東区下場新町８番１１号","tel":"025-278-3983","url":"https://www.rakuda-grow.com/","lat":37.90594256,"lng":139.10639651,"weekday":"09:00-18:00","saturday":"09:00-18:00","sunday":"","holiday":"09:00-18:00","closed":"毎週日曜日","capacity":5,"id":"1550101024"},{"name":"キッズデイサービス　らくだ","nameKana":"きっずでいさーびすらくだ","corp":"株式会社　ＧＲＯＷ","serviceTypes":["放課後等デイサービス"],"ward":"新潟市","address":"新潟県新潟市東区竹尾2丁目1-15","tel":"025-256-8461","url":"http://www.rakuda-grow.com","lat":37.91208043,"lng":139.0879614,"weekday":"14:00-18:00","saturday":"09:00-17:00","sunday":"","holiday":"09:00-17:00","closed":"日曜日　8/13〜8/15　12/30〜1/3","capacity":10,"id":"1550100307"},{"name":"キッズデイサービス　らくだ　長潟店","nameKana":"きっずでいさーびすらくだながたてん","corp":"株式会社　ＧＲＯＷ","serviceTypes":["放課後等デイサービス"],"ward":"新潟市","address":"新潟県新潟市中央区長潟３丁目７番３７号","tel":"025-290-7092","url":"http://www.rakuda-grow.com","lat":37.88729052,"lng":139.0698641,"weekday":"09:00-18:00","saturday":"09:00-18:00","sunday":"","holiday":"09:00-18:00","closed":"日曜日、8/13〜8/15,12/30〜1/3","capacity":10,"id":"1550100562"},{"name":"ななふくクラブ","nameKana":"ななふくくらぶ","corp":"一般社団法人　ななふく福祉会","serviceTypes":["放課後等デイサービス"],"ward":"新潟市","address":"新潟県新潟市東区海老ケ瀬３００２番　","tel":"025-250-5650","url":"http://nana-fuku.com/","lat":37.93277076,"lng":139.12347683,"weekday":"09:00-18:00","saturday":"","sunday":"","holiday":"","closed":"土曜日・日曜日・祝日","capacity":10,"id":"1550100448"},{"name":"だんだんのへや","nameKana":"だんだんのへや","corp":"社会福祉法人　亀田郷芦沼会","serviceTypes":["放課後等デイサービス"],"ward":"新潟市","address":"新潟県新潟市東区下木戸２−２８−１３","tel":"025-270-0755","url":"","lat":37.9287541,"lng":139.09437374,"weekday":"14:00-17:00","saturday":"","sunday":"","holiday":"","closed":"土日祝日","capacity":7,"id":"1550101800"},{"name":"東ぽっぷこ〜んクラブ","nameKana":"ひがしぽっぷこーんくらぶ","corp":"社会福祉法人いぶきサポート協会","serviceTypes":["放課後等デイサービス"],"ward":"新潟市","address":"新潟県新潟市東区海老ケ瀬31番地新潟市立東特別支援学校内","tel":"025-271-9124","url":"http://ibukisupport.jp/facilities/higashipop","lat":37.93577051,"lng":139.12852071,"weekday":"14:00-18:00","saturday":"","sunday":"","holiday":"","closed":"土曜、日曜祝日及びお盆、年末年始","capacity":10,"id":"1550100265"},{"name":"西ぽっぷこ〜んクラブ","nameKana":"にしぽっぷこーんくらぶ","corp":"社会福祉法人いぶきサポート協会","serviceTypes":["放課後等デイサービス"],"ward":"新潟市","address":"新潟県新潟市西蒲区新潟市西蒲区新潟市西蒲区堀山新田８８番地　新潟市立西特別支援学校内","tel":"0256-73-3372","url":"http://ibukisupport.jp/facilities/nishipop","lat":37.7604581,"lng":138.8892779,"weekday":"14:00-18:00","saturday":"","sunday":"","holiday":"","closed":"土曜、日曜、祝日及び8/13、12/29〜1/3","capacity":10,"id":"1550100257"},{"name":"かなで","nameKana":"かなで","corp":"社会福祉法人いぶきサポート協会","serviceTypes":["放課後等デイサービス"],"ward":"新潟市","address":"新潟県新潟市西区五十嵐二の町8746-2新潟市西区五十嵐二の町8746-2　かなで","tel":"025-211-4848","url":"http://ibukisupport.jp/facilities/kanade","lat":37.86575526,"lng":138.92564269,"weekday":"14:00-18:00","saturday":"09:00-17:00","sunday":"","holiday":"09:00-17:00","closed":"日曜及び8/13,12/29〜1/3　　第1,３,５土曜日","capacity":10,"id":"1550100687"},{"name":"附属ぽっぷこ〜んクラブ","nameKana":"ふぞくぽっぷこーんくらぶ","corp":"社会福祉法人いぶきサポート協会","serviceTypes":["放課後等デイサービス"],"ward":"新潟市","address":"新潟県新潟市中央区西大畑町５２１４番地　新潟大学附属特別支援学校内すなやまの家","tel":"025-201-8647","url":"http://ibukisupport.jp/facilities","lat":37.92569127,"lng":139.03442364,"weekday":"14:00-18:00","saturday":"","sunday":"","holiday":"","closed":"土曜、日曜、祝日","capacity":10,"id":"1550100315"},{"name":"こぱんはうすさくら　新潟中央教室","nameKana":"こぱんはうすさくらにいがたちゅうおうきょうしつ","corp":"株式会社Bluefeed　Japan","serviceTypes":["放課後等デイサービス"],"ward":"新潟市","address":"新潟県新潟市中央区医学町通２番町１０番地１ダイアパレス医学町１０１","tel":"025-201-9630","url":"","lat":37.92248072,"lng":139.04323672,"weekday":"14:00-17:00","saturday":"10:00-16:00","sunday":"10:00-16:00","holiday":"10:00-16:00","closed":"水曜日","capacity":10,"id":"1550101479"},{"name":"放課後等デイサービス　アソビバ","nameKana":"ほうかごとうでいさーびすあそびば","corp":"特定非営利活動法人ギフト","serviceTypes":["放課後等デイサービス"],"ward":"新潟市","address":"新潟県新潟市江南区鵜ノ子４丁目４６６番地アピタ新潟亀田店２階","tel":"025-384-8950","url":"https://gift-mama.net/","lat":37.87212029,"lng":139.08893,"weekday":"09:30-18:30","saturday":"09:00-18:00","sunday":"","holiday":"09:00-18:00","closed":"毎週日曜日、指定祝日","capacity":10,"id":"1550101065"},{"name":"りるの空","nameKana":"りるのそら","corp":"株式会社ライフデザイン","serviceTypes":["放課後等デイサービス"],"ward":"新潟市","address":"新潟県新潟市中央区新光町5-1千歳ビル6階","tel":"025-250-5303","url":"http://lifedesignathome.jp","lat":37.90018533,"lng":139.02250878,"weekday":"13:00-18:00","saturday":"09:00-16:00","sunday":"","holiday":"","closed":"日曜、国民の祝日、8/13〜8/15、12/30〜1/3","capacity":10,"id":"1550100760"},{"name":"放課後等デイサービスオハナ東","nameKana":"ほうかごとうでいさーびすおはなひがし","corp":"ライフサポートクリエーション株式会社","serviceTypes":["放課後等デイサービス"],"ward":"新潟市","address":"新潟県新潟市東区物見山４丁目４番１２号","tel":"025-384-4869","url":"","lat":37.94180851,"lng":139.09822264,"weekday":"14:00-18:00","saturday":"10:00-17:00","sunday":"","holiday":"10:00-17:00","closed":"日曜、夏季、年末年始","capacity":10,"id":"1550100729"},{"name":"放課後等デイサービスオハナ女池","nameKana":"ほうかごとうでいさーびすおはなめいけ","corp":"ライフサポートクリエーション株式会社","serviceTypes":["放課後等デイサービス"],"ward":"新潟市","address":"新潟県新潟市中央区大島２０９","tel":"025-383-6586","url":"","lat":37.8817654,"lng":139.02446223,"weekday":"13:00-17:00","saturday":"10:00-16:00","sunday":"10:00-16:00","holiday":"10:00-16:00","closed":"夏季、冬季休暇","capacity":10,"id":"1550100703"},{"name":"放課後等デイサービスオハナ魁","nameKana":"ほうかごとうでいさーびすおはなさきがけ","corp":"ライフサポートクリエーション株式会社","serviceTypes":["放課後等デイサービス"],"ward":"新潟市","address":"新潟県新潟市中央区魁町3373-25","tel":"025-211-4656","url":"","lat":37.92958003,"lng":139.05620401,"weekday":"13:00-17:00","saturday":"10:00-16:00","sunday":"","holiday":"10:00-16:00","closed":"日曜、夏季、年末年始","capacity":10,"id":"1550100711"},{"name":"エコ","nameKana":"えこ","corp":"株式会社C.A.R.E.","serviceTypes":["放課後等デイサービス"],"ward":"新潟市","address":"新潟県新潟市江南区旭4丁目1番1５号","tel":"025-382-0007","url":"http://www.eco-niigata.net","lat":37.87777298,"lng":139.10343406,"weekday":"14:00-18:00","saturday":"09:30-15:30","sunday":"","holiday":"09:30-15:30","closed":"日曜日、年末年始（１２月２９日〜１月３日）","capacity":10,"id":"1550100455"},{"name":"ecoインターナショナル","nameKana":"えこいんたーなしょなる","corp":"株式会社C.A.R.E.","serviceTypes":["放課後等デイサービス"],"ward":"新潟市","address":"新潟県新潟市江南区亀田緑町３丁目２番４７号","tel":"025-382-0005","url":"http://www.eco-niigata.net","lat":37.87260397,"lng":139.09950958,"weekday":"14:00-18:00","saturday":"09:30-15:30","sunday":"","holiday":"09:30-15:30","closed":"日曜日、年末年始（１２月２９日〜１月３日）","capacity":10,"id":"1550100554"},{"name":"E.C.O.キッズアカデミー","nameKana":"えこきっずあかでみー","corp":"株式会社C.A.R.E.","serviceTypes":["放課後等デイサービス"],"ward":"新潟市","address":"新潟県新潟市秋葉区川口１０９−６","tel":"0250-23-0005","url":"http://www.eco-niigata.net","lat":37.81817772,"lng":139.11872139,"weekday":"14:00-18:00","saturday":"09:30-15:30","sunday":"","holiday":"09:30-15:30","closed":"日曜日、年末年始（１２月２９日〜１月３日）","capacity":10,"id":"1550100679"},{"name":"森のBright Star by ECO","nameKana":"もりのぶらいとすたーばいえこ","corp":"株式会社C.A.R.E.","serviceTypes":["放課後等デイサービス"],"ward":"新潟市","address":"新潟県新潟市西区浦山４丁目３番１０号","tel":"0252673005","url":"http://www.eco-niigata.net","lat":37.90067308,"lng":139.00211263,"weekday":"09:00-17:30","saturday":"09:00-16:00","sunday":"","holiday":"09:00-16:00","closed":"日曜日、年末年始（12月29日〜１月３日）","capacity":10,"id":"1550101156"},{"name":"MOUNT BLUE BY ECO","nameKana":"まうんとぶるーばいえこ","corp":"株式会社C.A.R.E.","serviceTypes":["放課後等デイサービス"],"ward":"新潟市","address":"新潟県新潟市秋葉区程島字東裏通９２６番地１","tel":"0250-23-2225","url":"http://www.eco-niigata.net","lat":37.78852536,"lng":139.11464023,"weekday":"14:00-18:00","saturday":"09:30-15:30","sunday":"","holiday":"09:30-15:30","closed":"日曜日、年末年始（12月29日〜1月3日）","capacity":10,"id":"1550101487"},{"name":"あすなろくれよん","nameKana":"あすなろくれよん","corp":"株式会社　真友社","serviceTypes":["放課後等デイサービス"],"ward":"長岡市","address":"新潟県長岡市曙３丁目３番15号","tel":"0258-89-7969","url":"https://asunaro-nagaoka.wixsite.com/shinyusyaa","lat":37.42996077,"lng":138.85085818,"weekday":"10:00-17:00","saturday":"","sunday":"","holiday":"","closed":"土曜・日曜・祝日・お盆休み・年末年始","capacity":5,"id":"1550200230"},{"name":"放課後等デイサービス　オハナ新発田","nameKana":"ほうかごとうでいさーびすおはなしばた","corp":"ライフサポートクリエーション株式会社","serviceTypes":["放課後等デイサービス"],"ward":"新発田市","address":"新潟県新発田市五十公野4837番7号","tel":"0254-28-7124","url":"","lat":37.92878592,"lng":139.34916846,"weekday":"14:00-18:00","saturday":"10:00-17:00","sunday":"","holiday":"10:00-17:00","closed":"日曜日","capacity":10,"id":"1550600116"},{"name":"放課後等デイサービス　ピース","nameKana":"ほうかごとうでいさーびすぴーす","corp":"株式会社グロー・サポートシステム","serviceTypes":["放課後等デイサービス"],"ward":"加茂市","address":"新潟県加茂市大郷町１丁目１３−2","tel":"0256-47-6822","url":"","lat":37.65552562,"lng":139.04345377,"weekday":"14:00-18:00","saturday":"10:00-16:00","sunday":"","holiday":"10:00-16:00","closed":"　日曜日","capacity":10,"id":"1551700063"},{"name":"放課後等デイサービス　ピース　COLORS","nameKana":"ほうかごとうでいさーびすぴーすからーず","corp":"株式会社グロー・サポートシステム","serviceTypes":["放課後等デイサービス"],"ward":"加茂市","address":"新潟県加茂市寿町19-3","tel":"0256-47-4347","url":"","lat":37.65882243,"lng":139.04417572,"weekday":"14:00-18:00","saturday":"10:00-16:00","sunday":"","holiday":"10:00-16:00","closed":"日曜日","capacity":10,"id":"1550900029"},{"name":"放課後等デイサービス　アプリ","nameKana":"ほうかごとうでいさーびすあぷり","corp":"株式会社ｃｈｉｅｎｎｏｗａ","serviceTypes":["放課後等デイサービス"],"ward":"新潟市","address":"新潟県新潟市西区西小針台２丁目４番３号スターハイム１０１号室","tel":"025-378-2568","url":"https://www.appli-houkagoday.com","lat":37.88549619,"lng":138.98152078,"weekday":"11:00-17:30","saturday":"10:30-16:30","sunday":"","holiday":"","closed":"日曜日、祝日、お盆、年末年始","capacity":10,"id":"1550100943"},{"name":"放課後等デイサービス　サクセスランド","nameKana":"ほうかごとうでいさーびすさくせすらんど","corp":"NPO法人　千代田心技体養成所","serviceTypes":["放課後等デイサービス"],"ward":"西蒲原郡弥彦村","address":"新潟県西蒲原郡弥彦村弥彦3515-1ファミリアル弥彦","tel":"0256-77-5143","url":"https://instagram.com/successland39?igshid=135n13g9pr0pm","lat":37.69634386,"lng":138.82306467,"weekday":"11:30-17:30","saturday":"10:30-16:30","sunday":"","holiday":"","closed":"営業以外の土曜日、日曜日、祝日、GW、お盆、年末年始、年間スケジュール通り","capacity":10,"id":"1555200011"},{"name":"らいふあかり　もも","nameKana":"らいふあかりもも","corp":"株式会社ORION","serviceTypes":["放課後等デイサービス"],"ward":"新発田市","address":"新潟県新発田市富塚町3丁目1-27","tel":"0254-28-8730","url":"","lat":37.95123609,"lng":139.2973457,"weekday":"14:00-18:30","saturday":"","sunday":"","holiday":"09:00-18:00","closed":"年末年始（12/30-1/3）土・日","capacity":10,"id":"1550600181"},{"name":"ココンプラス西新発田","nameKana":"ここんぷらすにししばた","corp":"Mioメディカルマネージメント株式会社","serviceTypes":["放課後等デイサービス"],"ward":"新発田市","address":"新潟県新発田市富塚町１丁目17番２号","tel":"0254-20-8274","url":"https://cocon-plus.com/","lat":37.94224859,"lng":139.30707565,"weekday":"14:00-18:00","saturday":"10:00-17:00","sunday":"","holiday":"10:00-17:00","closed":"日曜、夏季、年末年始","capacity":10,"id":"1550600140"},{"name":"エール","nameKana":"えーる","corp":"学校法人新潟福祉医療学園","serviceTypes":["放課後等デイサービス"],"ward":"新潟市","address":"新潟県新潟市中央区花園２丁目２番７号日本こども福祉専門学校2号館　1階","tel":"025-383-6756","url":"https://nifis-yell.jp/","lat":37.92248072,"lng":139.04323672,"weekday":"14:30-17:30","saturday":"09:30-16:30","sunday":"","holiday":"","closed":"日曜、祝日及び8月13日から16日、12月29日から1月3日","capacity":10,"id":"1550101321"},{"name":"ちくたく大野","nameKana":"すちくたくおおの","corp":"Ｔｒｅｓ　ｘＡ株式会社","serviceTypes":["放課後等デイサービス"],"ward":"新潟市","address":"新潟県新潟市西区大野町２７０６番地１ヴィラスイートB棟","tel":"025-378-4502","url":"http://tresxa.jimdofree.com","lat":37.84941346,"lng":139.01654528,"weekday":"14:00-18:00","saturday":"09:00-17:00","sunday":"","holiday":"09:00-17:00","closed":"日曜日・8月13日〜15日・12月29日〜１月3日","capacity":10,"id":"1550101164"},{"name":"ちくたく白山","nameKana":"ちくたくはくさん","corp":"Ｔｒｅｓ　ｘＡ株式会社","serviceTypes":["放課後等デイサービス"],"ward":"新潟市","address":"新潟県新潟市中央区白山浦１丁目２３３番地３ファーストピアビル２階","tel":"025-211-8040","url":"","lat":37.92248072,"lng":139.04323672,"weekday":"14:00-18:00","saturday":"09:00-17:00","sunday":"","holiday":"09:00-17:00","closed":"日曜日・8月13日〜15日・12月29日〜1月3日","capacity":10,"id":"1550101370"},{"name":"SMiDデイサービス　なな色","nameKana":"えすえむあいでぃーでいさーびすなないろ","corp":"特定非営利活動法人Briidge.","serviceTypes":["放課後等デイサービス"],"ward":"新潟市","address":"新潟県新潟市中央区網川原1-15-11Lily-be穂高D","tel":"070-9361-8586","url":"http://www.smidnanairo.com","lat":37.89548024,"lng":139.0210007,"weekday":"08:30-17:30","saturday":"08:30-17:30","sunday":"00:00-00:00","holiday":"09:00-16:00","closed":"日曜","capacity":5,"id":"1550101842"},{"name":"放課後等デイサービスココン新発田","nameKana":"ほうかごとうでいさーびすここんしばた","corp":"合同会社ＫｓＤｅｃａｓ","serviceTypes":["放課後等デイサービス"],"ward":"新発田市","address":"新潟県新発田市新栄町１丁目１０−１６","tel":"0254-28-7571","url":"http://cocon-shibata.com/about/","lat":37.9562246,"lng":139.30056174,"weekday":"14:00-18:00","saturday":"10:00-17:00","sunday":"","holiday":"10:00-17:00","closed":"日曜日","capacity":10,"id":"1550600090"},{"name":"エンジェルRing","nameKana":"えんじぇるりんぐ","corp":"社会福祉法人笑顔の会","serviceTypes":["放課後等デイサービス"],"ward":"新潟市","address":"新潟県新潟市西区寺尾東３−１４−３７エンジェルRing","tel":"025-211-2068","url":"https://angel-jrk.com/","lat":37.87420547,"lng":138.97111439,"weekday":"15:00-18:00","saturday":"09:00-15:00","sunday":"","holiday":"","closed":"祝祭日、年末年始","capacity":10,"id":"1550100695"},{"name":"ｐｉａｐｕｐｕスポーツ","nameKana":"ぴあぷぷすぽーつ","corp":"株式会社　ＬＥＡＴ","serviceTypes":["放課後等デイサービス"],"ward":"新潟市","address":"新潟県新潟市中央区出来島２−１１−１８","tel":"025-250-6579","url":"","lat":37.89931614,"lng":139.02621133,"weekday":"13:30-17:15","saturday":"10:00-17:00","sunday":"","holiday":"10:00-17:00","closed":"祝日","capacity":10,"id":"1550100638"},{"name":"真友サークル中央療育センター","nameKana":"しんゆうさーくるちゅうおうりょういくせんたー","corp":"株式会社真友社","serviceTypes":["放課後等デイサービス"],"ward":"新潟市","address":"新潟県新潟市中央区礎町通三ノ町２１４０礎町事務所ビル","tel":"025-250-0635","url":"https://shinyucircle.shinyusya.jp/","lat":37.92248072,"lng":139.04323672,"weekday":"14:00-18:00","saturday":"10:00-18:00","sunday":"10:00-18:00","holiday":"10:00-18:00","closed":"なし","capacity":10,"id":"1550100240"},{"name":"真友サークル西療育センター","nameKana":"しんゆうさーくるにしりょういくせんたー","corp":"株式会社真友社","serviceTypes":["放課後等デイサービス"],"ward":"新潟市","address":"新潟県新潟市西区寺尾上４丁目２番１８号高橋ビル　1階","tel":"025-378-1035","url":"https://shinyucircle.shinyusya.jp/","lat":37.87838823,"lng":138.96990024,"weekday":"14:00-18:00","saturday":"10:00-17:00","sunday":"10:00-17:00","holiday":"10:00-17:00","closed":"なし","capacity":10,"id":"1550100646"},{"name":"放課後デイサービスすずらん川口","nameKana":"ほうかごでいさーびすすずらんかわぐち","corp":"サンリバーベストケア株式会社","serviceTypes":["放課後等デイサービス"],"ward":"新潟市","address":"新潟県新潟市秋葉区川口１６９番地１","tel":"0250-25-7584","url":"","lat":37.81766384,"lng":139.11761319,"weekday":"14:00-18:00","saturday":"09:00-17:00","sunday":"","holiday":"","closed":"日、祝日、年末年始、お盆","capacity":10,"id":"1550100851"},{"name":"放課後デイサービスすずらん川口弐号館","nameKana":"ほうかごでいさーびすすずらんかわぐちにごうかん","corp":"サンリバーベストケア株式会社","serviceTypes":["放課後等デイサービス"],"ward":"新潟市","address":"新潟県新潟市秋葉区川口１４３番地９","tel":"0250-25-7584","url":"","lat":37.81738887,"lng":139.11752433,"weekday":"14:00-18:00","saturday":"","sunday":"","holiday":"","closed":"お盆、年末年始、土、日","capacity":10,"id":"1550101107"},{"name":"i ROOM 亀田","nameKana":"あいるーむかめだ","corp":"株式会社　ＮＥＸＴ　ＣＡＲＥ　ＳＥＲＶＩＣＥ","serviceTypes":["放課後等デイサービス"],"ward":"新潟市","address":"新潟県新潟市江南区亀田緑町３丁目１番５８号","tel":"025-385-6722","url":"http://nextcareservice.com/","lat":37.87337613,"lng":139.1000595,"weekday":"09:30-18:30","saturday":"09:00-18:00","sunday":"","holiday":"09:00-18:00","closed":"日曜、１２月３０日から１月３日、８月１３日〜１５日、その他会社指定の日","capacity":10,"id":"1550100935"},{"name":"i ROOM 江南","nameKana":"あいるーむこうなん","corp":"株式会社　ＮＥＸＴ　ＣＡＲＥ　ＳＥＲＶＩＣＥ","serviceTypes":["放課後等デイサービス"],"ward":"新潟市","address":"新潟県新潟市東区江南３丁目６番地１３","tel":"025-290-7630","url":"https://nextcareservice.com/","lat":37.90282271,"lng":139.08259288,"weekday":"09:30-18:30","saturday":"09:00-18:00","sunday":"","holiday":"09:00-18:00","closed":"日曜、１２月３０日から１月３日、８月１３日〜１５日、その他会社指定の日","capacity":10,"id":"1550101297"},{"name":"i ROOM 坂井東","nameKana":"あいるーむさかいひがし","corp":"株式会社　ＮＥＸＴ　ＣＡＲＥ　ＳＥＲＶＩＣＥ","serviceTypes":["放課後等デイサービス"],"ward":"新潟市","address":"新潟県新潟市西区坂井東６丁目２２番４号","tel":"025-211-3123","url":"https://nextcareservice.com/","lat":37.86976418,"lng":138.96671804,"weekday":"09:30-18:30","saturday":"09:00-18:00","sunday":"","holiday":"09:00-18:00","closed":"日曜、１２月３０日から１月３日、８月１３日〜１５日、その他会社指定の日","capacity":10,"id":"1550101305"},{"name":"i ROOM上近江・i WORK上近江","nameKana":"あいるーむかみおうみあいわーくかみおうみ","corp":"株式会社　ＮＥＸＴ　ＣＡＲＥ　ＳＥＲＶＩＣＥ","serviceTypes":["放課後等デイサービス"],"ward":"新潟市","address":"新潟県新潟市中央区上近江1-5-13","tel":"025-282-5203","url":"http://nextcareservice.com/","lat":37.90047459,"lng":139.03285252,"weekday":"09:30-18:30","saturday":"09:00-18:00","sunday":"","holiday":"09:00-18:00","closed":"日曜、１２月３０日から１月３日、８月１３日〜１５日、その他会社指定の日","capacity":10,"id":"1550101792"},{"name":"i ROOM 荻川","nameKana":"あいるーむおぎかわ","corp":"株式会社　ＮＥＸＴ　ＣＡＲＥ　ＳＥＲＶＩＣＥ","serviceTypes":["放課後等デイサービス"],"ward":"新潟市","address":"新潟県新潟市秋葉区車場４丁目１１−５６−１","tel":"0250-47-8831","url":"http://nextcareservice.com/","lat":37.83387274,"lng":139.10744076,"weekday":"09:30-18:30","saturday":"09:00-18:00","sunday":"","holiday":"09:00-18:00","closed":"日曜、１２月３０日から１月３日、８月１３日〜１５日、その他会社指定の日","capacity":10,"id":"1550100620"},{"name":"こめっと","nameKana":"こめっと","corp":"社会福祉法人　中蒲原福祉会","serviceTypes":["放課後等デイサービス"],"ward":"新潟市","address":"新潟県新潟市江南区横越中央８丁目１番４号","tel":"025-278-8752","url":"","lat":37.85250512,"lng":139.14365386,"weekday":"14:00-17:30","saturday":"09:00-16:00","sunday":"","holiday":"","closed":"日土祝日、12/31〜1/3","capacity":10,"id":"1550100505"},{"name":"ララスマイルあおば","nameKana":"ららすまいるあおば","corp":"社会福祉法人　親和福祉会","serviceTypes":["放課後等デイサービス"],"ward":"新潟市","address":"新潟県新潟市秋葉区あおば通１丁目６番１１号","tel":"0250-47-8811","url":"https://shinwa-fukushi.com/","lat":37.83233109,"lng":139.10236622,"weekday":"14:00-17:30","saturday":"","sunday":"","holiday":"","closed":"土曜日・日曜日・祝日・8月13日〜15日・12月29日〜1月3日","capacity":20,"id":"1550101123"},{"name":"ララスマイル","nameKana":"ららすまいる","corp":"社会福祉法人　親和福祉会","serviceTypes":["放課後等デイサービス"],"ward":"新潟市","address":"新潟県新潟市秋葉区中野１丁目１７番１１号","tel":"0250-23-4001","url":"http://www.shinwa-fukushi.com/","lat":37.83588943,"lng":139.11460119,"weekday":"14:00-17:30","saturday":"09:00-17:00","sunday":"","holiday":"","closed":"日曜日・祝日・8月13日から15日・12月29日から1月3日","capacity":20,"id":"1550100158"},{"name":"ぷ　あ　ぷ","nameKana":"ぷあぷ","corp":"特定非営利活動法人ゆうーわ","serviceTypes":["放課後等デイサービス"],"ward":"新潟市","address":"新潟県新潟市南区戸頭215-2","tel":"025-211-8025","url":"","lat":37.74366963,"lng":139.0107175,"weekday":"14:00-18:00","saturday":"09:00-17:00","sunday":"","holiday":"","closed":"日曜日、国民の祝日、8月13日〜15日、12月29日〜1月3日","capacity":10,"id":"1550100463"},{"name":"放課後等デイサービス　ホーミー","nameKana":"ほうかごとうでいさーびすほーみー","corp":"株式会社smile vision","serviceTypes":["放課後等デイサービス"],"ward":"新潟市","address":"新潟県新潟市西区鳥原新田４６３番地７","tel":"025-374-7266","url":"https://www.happyhomie.jp/","lat":37.84948789,"lng":139.00539648,"weekday":"09:00-17:30","saturday":"09:00-17:00","sunday":"09:00-17:00","holiday":"09:00-17:00","closed":"日曜日","capacity":10,"id":"1550101362"},{"name":"放課後等デイサービス　どみそ","nameKana":"ほうかごとうでいさーびすどみそ","corp":"特定非営利活動法人音楽ネットワーク","serviceTypes":["放課後等デイサービス"],"ward":"新潟市","address":"新潟県新潟市中央区万代５−５−４放課後等デイサービス　どみそ","tel":"025-282-7308","url":"https://cobamann.wixsite.com/npoonngakunettowa-ku","lat":37.91978969,"lng":139.06146535,"weekday":"14:00-18:00","saturday":"","sunday":"","holiday":"09:00-17:00","closed":"土曜日・日曜日","capacity":10,"id":"1550100752"},{"name":"ミラプロフィット","nameKana":"みらぷろふぃっと","corp":"株式会社ヒューマンリソース","serviceTypes":["放課後等デイサービス"],"ward":"新潟市","address":"新潟県新潟市西区平島３丁目７番地５中山ビル２０１","tel":"025-211-4652","url":"https://miraprofit.hp.peraichi.com/","lat":37.89305485,"lng":139.00799595,"weekday":"14:30-18:30","saturday":"09:30-17:30","sunday":"","holiday":"09:30-17:30","closed":"木曜日、日曜日は定休日","capacity":10,"id":"1550101347"},{"name":"LigLigLink","nameKana":"りぐりぐりんく","corp":"株式会社ingrow","serviceTypes":["放課後等デイサービス"],"ward":"新潟市","address":"新潟県新潟市西区坂井砂山３丁目１１−１１スピカB","tel":"025-374-0555","url":"https://liglig.co.jp/","lat":37.87067199,"lng":138.95446099,"weekday":"14:30-17:30","saturday":"09:00-15:00","sunday":"","holiday":"","closed":"日曜、祝日","capacity":10,"id":"1550101115"},{"name":"放課後等デイサービス　にしっ子","nameKana":"ほうかごとうでいさーびすにしっこ","corp":"特定非営利活動法人学童保育にしっ子","serviceTypes":["放課後等デイサービス"],"ward":"新潟市","address":"新潟県新潟市西区新通1011番地","tel":"025-201-8535","url":"","lat":37.8740667,"lng":138.9716866,"weekday":"13:00-17:00","saturday":"09:30-17:00","sunday":"","holiday":"","closed":"12月29日〜1月3日までと国民の祝日","capacity":10,"id":"1550101040"},{"name":"サンキッズ青山","nameKana":"さんきっずあおやま","corp":"株式会社サンキッズ","serviceTypes":["放課後等デイサービス"],"ward":"新潟市","address":"新潟県新潟市西区青山２丁目１番１８号サンキッズ青山","tel":"025-378-4312","url":"http://sunkids.co.jp","lat":37.87406662,"lng":138.97168657,"weekday":"14:00-17:00","saturday":"09:00-16:00","sunday":"00:00-00:00","holiday":"00:00-00:00","closed":"日曜・祝日・お盆・年末年始","capacity":5,"id":"1550100984"},{"name":"こどもサークル小針上山","nameKana":"こどもさーくるこばりかみやま","corp":"株式会社ハートフルマインド","serviceTypes":["放課後等デイサービス"],"ward":"新潟市","address":"新潟県新潟市西区小針上山１０番２８号小針上山荒川ビル２階","tel":"025-201-7759","url":"https://www.kodomocircle.com/branch/kobarikamiyama/","lat":37.89212633,"lng":138.99182486,"weekday":"14:30-17:30","saturday":"10:00-16:00","sunday":"","holiday":"10:00-16:00","closed":"日曜日、年末年始（12月31日〜1月3日)","capacity":10,"id":"1550101511"},{"name":"あっとほーむ　小坂","nameKana":"あっとほーむこさか","corp":"株式会社Ciel","serviceTypes":["放課後等デイサービス"],"ward":"新潟市","address":"新潟県新潟市南区小坂４７番地１","tel":"025-373-3936","url":"","lat":37.78505906,"lng":139.01966488,"weekday":"14:00-18:00","saturday":"09:00-16:00","sunday":"","holiday":"09:00-16:00","closed":"日曜日、年末年始（12月31日〜1月3日）","capacity":10,"id":"1550101594"},{"name":"あっとほーむ　高井東","nameKana":"あっとほーむたかいひがし","corp":"株式会社Ciel","serviceTypes":["放課後等デイサービス"],"ward":"新潟市","address":"新潟県新潟市南区高井東１丁目１３番２１号シェルブライト１０１、２０３","tel":"025-211-3522","url":"","lat":37.79774083,"lng":139.01826752,"weekday":"14:00-18:00","saturday":"09:00-16:00","sunday":"","holiday":"09:00-16:00","closed":"日曜日、年末年始（12月31日〜1月3日）","capacity":10,"id":"1550101602"},{"name":"あっとほーむ見附","nameKana":"あっとほーむみつけ","corp":"株式会社Ciel","serviceTypes":["放課後等デイサービス"],"ward":"見附市","address":"新潟県見附市今町4丁目1222番地1","tel":"0258-66-2638","url":"","lat":37.54586803,"lng":138.8929154,"weekday":"14:00-18:00","saturday":"09:00-16:00","sunday":"","holiday":"09:00-16:00","closed":"日曜日、年末年始（12月30日〜1月3日）","capacity":10,"id":"1551100116"},{"name":"放課後等デイサービスもぐもぐ","nameKana":"ほうかごとうでいさーびすもぐもぐ","corp":"もみの木ハウス新潟","serviceTypes":["放課後等デイサービス"],"ward":"新潟市","address":"新潟県新潟市南区高井東2-2-30","tel":"025-201-9394","url":"https://mogumogu-niigata.jp/","lat":37.7979297,"lng":139.01822863,"weekday":"14:00-17:00","saturday":"09:30-17:00","sunday":"","holiday":"09:30-17:00","closed":"日曜・お盆（8月13日〜15日）・年末年始（12月30日〜1月3日）","capacity":10,"id":"1550101735"},{"name":"児童発達支援・放課後等デイサービス　Will　be","nameKana":"じどうはったつしえんほうかごとうでいさーびすうぃるびー","corp":"株式会社ＫＩＭ","serviceTypes":["放課後等デイサービス"],"ward":"新潟市","address":"新潟県新潟市西区寺尾上6-17-27","tel":"025-378-0816","url":"https://willbe.website/houkagoday/","lat":37.87250257,"lng":138.96294038,"weekday":"09:00-18:00","saturday":"","sunday":"","holiday":"","closed":"","capacity":10,"id":"1550101875"},{"name":"ハロー・キッズ","nameKana":"はろーきっず","corp":"社会福祉法人　新潟もぐら会","serviceTypes":["放課後等デイサービス"],"ward":"新潟市","address":"新潟県新潟市東区海老ケ瀬９９４県立東新潟特別支援学校内","tel":"025-274-3265","url":"https://h-kids.jimdo.com/","lat":37.93345126,"lng":139.12569605,"weekday":"14:00-18:00","saturday":"","sunday":"","holiday":"","closed":"土曜日・日曜日・祝祭日・年末年始","capacity":10,"id":"1550100141"},{"name":"よつば園坂井","nameKana":"よつばえんさかい","corp":"アビリティ有限会社","serviceTypes":["放課後等デイサービス"],"ward":"新潟市","address":"新潟県新潟市西区坂井７６２番地７","tel":"025-268-5751","url":"","lat":37.86547819,"lng":138.95488928,"weekday":"15:00-18:00","saturday":"09:00-16:00","sunday":"","holiday":"","closed":"日曜　祝日　第一、第三土曜","capacity":10,"id":"1550100166"},{"name":"小規模多機能型居宅介護事業所　彩り　まき　","nameKana":"しょうきぼたきのうがたきょたくかいごじぎょうしょいろどりまき","corp":"社会福祉法人まき福祉会","serviceTypes":["放課後等デイサービス"],"ward":"新潟市","address":"新潟県新潟市西蒲区巻甲4450番地1","tel":"0256-78-8831","url":"","lat":37.75400345,"lng":138.89467764,"weekday":"09:00-16:10","saturday":"09:00-16:10","sunday":"09:00-16:10","holiday":"09:00-16:10","closed":"なし","capacity":null,"id":"1550101008"},{"name":"放課後等デイサービスたいよう","nameKana":"ほうかごとうでいさーびすたいよう","corp":"合同会社たいよう","serviceTypes":["放課後等デイサービス"],"ward":"長岡市","address":"新潟県長岡市西宮内2丁目131旭マンション101号室","tel":"0258-76-0687","url":"https://www.home--taiyo.com/","lat":37.42981063,"lng":138.83831538,"weekday":"09:00-18:00","saturday":"09:00-17:00","sunday":"","holiday":"09:00-17:00","closed":"日曜日、年末年始（12/29〜1/3）、お盆","capacity":10,"id":"1550200255"},{"name":"発達支援 ユニコーン","nameKana":"はったつしえんゆにこーん","corp":"合同会社リレイズ","serviceTypes":["放課後等デイサービス"],"ward":"長岡市","address":"新潟県長岡市千手2丁目10番21号2階","tel":"0258-86-7981","url":"http://llc-reraize.com        https://www.chuetsucounselingroom.com","lat":37.4420954,"lng":138.8446139,"weekday":"09:00-18:00","saturday":"09:00-18:00","sunday":"09:00-18:00","holiday":"09:00-18:00","closed":"12/31〜1/3，事業所が定める日","capacity":10,"id":"1550200271"},{"name":"キッズサポートすまいる","nameKana":"きっずさぽーとすまいる","corp":"株式会社Ｋ＆ａ　ｃｏｌｚａ","serviceTypes":["放課後等デイサービス"],"ward":"長岡市","address":"新潟県長岡市与板町与板乙2349番地6キッズサポートすまいる","tel":"0258-89-6186","url":"http://www.big-advance.site/s/131/1732","lat":37.54176019,"lng":138.8118827,"weekday":"13:30-17:30","saturday":"13:30-17:30","sunday":"00:00-00:00","holiday":"00:00-00:00","closed":"日曜祭日","capacity":10,"id":"1550200198"},{"name":"放課後等デイサービスピュアぴーす","nameKana":"ほうかごとうでいさーびすぴゅあぴーす","corp":"NPO法人ピュアはーと","serviceTypes":["放課後等デイサービス"],"ward":"長岡市","address":"新潟県長岡市青葉台5丁目22番地4","tel":"0258-86-7195","url":"http://www.nct9.ne.jp/pure-heart/","lat":37.43793334,"lng":138.75199297,"weekday":"14:30-18:00","saturday":"","sunday":"","holiday":"","closed":"土・日祝日　８月１３日から１６日　１２月２９日から１月3日","capacity":10,"id":"1550200206"},{"name":"放課後等デイサービスピュアはーと","nameKana":"ほうかごとうでいさーびすぴゅあはーと","corp":"NPO法人ピュアはーと","serviceTypes":["放課後等デイサービス"],"ward":"長岡市","address":"新潟県長岡市青葉台４丁目９番地７","tel":"0258-46-5251","url":"http://www.nct9.ne.jp/pure-heart/","lat":37.44269949,"lng":138.75240664,"weekday":"09:00-18:00","saturday":"","sunday":"","holiday":"","closed":"土・日・祝","capacity":10,"id":"1550200107"},{"name":"放課後等デイサービス事業所虹のオアシス","nameKana":"ほうかごとうでいさーびすじぎょうしょにじのおあしす","corp":"社会福祉法人　中越福祉会","serviceTypes":["放課後等デイサービス"],"ward":"長岡市","address":"新潟県長岡市三和３−１２３−１三和・佐藤貸事務所","tel":"0258-35-3887","url":"http://www.minowansoato.jp","lat":37.4341685,"lng":138.84028712,"weekday":"14:30-18:00","saturday":"09:00-17:00","sunday":"00:00-00:00","holiday":"09:00-17:00","closed":"毎週日曜日","capacity":10,"id":"1550200073"},{"name":"裏館倶楽部","nameKana":"うらだてくらぶ","corp":"社会福祉法人あさひ共生福祉会","serviceTypes":["放課後等デイサービス"],"ward":"三条市","address":"新潟県三条市西裏館3丁目6番54号","tel":"0256-47-4207","url":"http://asahikyousei.jp/","lat":37.6367456,"lng":138.9617023,"weekday":"13:30-17:30","saturday":"","sunday":"","holiday":"09:00-15:00","closed":"土曜日、日曜日、年末年始（12/31〜1/3）","capacity":10,"id":"1550400129"},{"name":"放課後等デイサービス　三条わくわくフレンズ","nameKana":"ほうかごとうでいさーびすさんじょうわくわくふれんず","corp":"三条タクシー株式会社","serviceTypes":["放課後等デイサービス"],"ward":"三条市","address":"新潟県三条市興野2-6-18三条タクシー本社　2F","tel":"090-1502-1663","url":"http://www.sanjotaxi.co.jp/service/service002/","lat":37.63182149,"lng":138.97346505,"weekday":"14:00-18:00","saturday":"09:00-17:00","sunday":"","holiday":"","closed":"土曜・日曜・祝日","capacity":10,"id":"1550400103"},{"name":"まるまる広場本成寺","nameKana":"まるまるひろばほんじょうじ","corp":"日の丸観光タクシー株式会社","serviceTypes":["放課後等デイサービス"],"ward":"三条市","address":"新潟県三条市西本成寺一丁目33番20号","tel":"0256350066","url":"","lat":37.61798623,"lng":138.94024753,"weekday":"15:00-18:00","saturday":"09:00-17:00","sunday":"","holiday":"","closed":"日曜日、祝日、年末年始（12月29日〜1月3日）","capacity":10,"id":"1550400137"},{"name":"放課後等デイサービス　つばさんわくわくフレンズ","nameKana":"ほうかごとうでいさーびすつばさんわくわくふれんず","corp":"株式会社東栄自動車","serviceTypes":["放課後等デイサービス"],"ward":"三条市","address":"新潟県三条市須頃2丁目132","tel":"0256-47-1318","url":"https://wakuwaku.toeiauto.com/","lat":37.64500475,"lng":138.93895468,"weekday":"14:00-18:00","saturday":"","sunday":"","holiday":"","closed":"土・日曜日、祝日","capacity":10,"id":"1550400145"},{"name":"キッズ倶楽部","nameKana":"きっずくらぶ","corp":"株式会社　あさひコモンズ","serviceTypes":["放課後等デイサービス"],"ward":"三条市","address":"新潟県三条市新光町12-52キッズ倶楽部","tel":"0256-47-3035","url":"https://asahicommons.co.jp","lat":37.63981744,"lng":138.96660161,"weekday":"14:00-17:00","saturday":"09:00-12:00","sunday":"00:00-00:00","holiday":"09:00-15:00","closed":"日、年末年始(12月30日〜1月3日）","capacity":10,"id":"1550400061"},{"name":"放課後くらぶつばさ","nameKana":"ほうかごくらぶつばさ","corp":"特定非営利活動法人地域のマナビバミナミトピア","serviceTypes":["放課後等デイサービス"],"ward":"三条市","address":"新潟県三条市南新保7番23号　","tel":"0256-55-4370","url":"https://houkagotsubasa.com","lat":37.62338616,"lng":138.95993639,"weekday":"13:30-18:30","saturday":"09:00-16:30","sunday":"","holiday":"","closed":"第3土曜日、日曜日、祝日、年末年始、お盆","capacity":10,"id":"1550400053"},{"name":"元気館障害者デイサービスセンター","nameKana":"げんきかんしょうがいしゃでいさーびすせんたー","corp":"社会福祉法人　柏崎刈羽ミニコロニー","serviceTypes":["放課後等デイサービス"],"ward":"柏崎市","address":"新潟県柏崎市栄町18番26号新潟県柏崎市栄町１８番２６号","tel":"0257-20-4260","url":"https://minicolony.or.jp/","lat":37.37586257,"lng":138.55506114,"weekday":"09:00-17:00","saturday":"","sunday":"","holiday":"","closed":"12月29日から翌年1月3日まで","capacity":5,"id":"1550500092"},{"name":"さざなみ学園","nameKana":"さざなみがくえん","corp":"社会福祉法人　柏崎刈羽ミニコロニー","serviceTypes":["放課後等デイサービス"],"ward":"柏崎市","address":"新潟県柏崎市松波4丁目12番81号さざなみ学園・新潟県柏崎市松波4丁目12番81号","tel":"0257-22-5785","url":"http://minicolony.or.jp/","lat":37.39568292,"lng":138.58308741,"weekday":"09:00-17:00","saturday":"","sunday":"","holiday":"","closed":"土曜日、日曜日、祝日","capacity":10,"id":"1550500076"},{"name":"くるーる３","nameKana":"くるーるさん","corp":"社会福祉法人　ロングラン","serviceTypes":["放課後等デイサービス"],"ward":"柏崎市","address":"新潟県柏崎市大久保一丁目9-24","tel":"0257215090","url":"https://www.longrun.or.jp/","lat":37.36322507,"lng":138.54664891,"weekday":"15:00-18:00","saturday":"09:00-17:00","sunday":"","holiday":"","closed":"日曜日、祝祭日、年末年始（12月29日から1月3日）","capacity":10,"id":"1550500126"},{"name":"くるーる","nameKana":"くるーる","corp":"社会福祉法人　ロングラン","serviceTypes":["放課後等デイサービス"],"ward":"柏崎市","address":"新潟県柏崎市四谷１丁目１４番３７号","tel":"0257-21-5090","url":"http://www.longrun.or.jp/","lat":37.37096637,"lng":138.56913969,"weekday":"15:00-18:00","saturday":"09:00-15:00","sunday":"","holiday":"","closed":"日曜、祝祭日、年末年始","capacity":10,"id":"1550500043"},{"name":"放課後等デイサービス　にこふる","nameKana":"ほうかごとうでいさーびすにこふる","corp":"合同会社　Nico.top","serviceTypes":["放課後等デイサービス"],"ward":"新発田市","address":"新潟県新発田市大栄町7丁目1番7号","tel":"0254-28-9307","url":"https://www.nicotop.net/","lat":37.94607141,"lng":139.32708703,"weekday":"08:30-18:30","saturday":"09:00-18:00","sunday":"","holiday":"","closed":"日曜、祝日、お盆、年末年始","capacity":10,"id":"1550600124"},{"name":"放課後等デイサービス　にこふる　ポップ","nameKana":"ほうかごとうでいさーびすにこふるぽっぷ","corp":"合同会社　Nico.top","serviceTypes":["放課後等デイサービス"],"ward":"新発田市","address":"新潟県新発田市東新町4丁目5番5号","tel":"0254-28-9150","url":"https://www.nicotop.net/","lat":37.95064975,"lng":139.34933399,"weekday":"14:00-17:00","saturday":"10:00-16:00","sunday":"","holiday":"","closed":"日曜日・祝日・年末年始・お盆","capacity":10,"id":"1550600173"},{"name":"てんらん","nameKana":"てんらん","corp":"ビノン株式会社","serviceTypes":["放課後等デイサービス"],"ward":"新潟市","address":"新潟県新潟市東区中野山７−９−１５","tel":"025-282-5617","url":"","lat":37.90052081,"lng":139.10724392,"weekday":"09:00-17:00","saturday":"09:00-17:00","sunday":"","holiday":"","closed":"土日、祝祭日　お盆休み　12月３１日から1月3日","capacity":10,"id":"1550101818"},{"name":"放課後等デイサービス　らくら","nameKana":"ほうかごとうでいさーびすらくら","corp":"ジョワイズ合同会社","serviceTypes":["放課後等デイサービス"],"ward":"新発田市","address":"新潟県新発田市城北町２丁目８番16号2丁目８番１６号","tel":"0254-28-9808","url":"https://www.rakura-hokago.com","lat":37.96083606,"lng":139.32224791,"weekday":"10:00-18:00","saturday":"","sunday":"","holiday":"","closed":"土日曜日　祝日","capacity":10,"id":"1550600157"},{"name":"放課後デイサービス　てくてく","nameKana":"ほうかごでいさーびすてくてく","corp":"合同会社Honest","serviceTypes":["放課後等デイサービス"],"ward":"新発田市","address":"新潟県新発田市大手町4丁目4-11","tel":"0254-28-8512","url":"https://m0a0uug1skt2.blog.fc2.com/","lat":37.95276488,"lng":139.32591469,"weekday":"14:00-17:00","saturday":"09:00-16:00","sunday":"","holiday":"","closed":"日曜、祝日、お盆（8/13〜15）、年末年始（12/30〜1/3）","capacity":10,"id":"1550600223"},{"name":"ほのぼの家族","nameKana":"ほのぼのかぞく","corp":"社会福祉法人新発田市社会福祉協議会","serviceTypes":["放課後等デイサービス"],"ward":"新発田市","address":"新潟県新発田市住吉町１丁目７番１７号","tel":"0254-20-8800","url":"","lat":37.95245312,"lng":139.30975542,"weekday":"15:00-18:00","saturday":"","sunday":"","holiday":"","closed":"","capacity":10,"id":"1550600041"},{"name":"すまいるキッズいじみの","nameKana":"すまいるきっずいじみの","corp":"社会福祉法人　のぞみの家福祉会","serviceTypes":["放課後等デイサービス"],"ward":"新発田市","address":"新潟県新発田市五十公野4685-7","tel":"0254287133","url":"https://www.nozominoie.or.jp/","lat":37.93348555,"lng":139.35326487,"weekday":"08:30-18:00","saturday":"08:30-18:00","sunday":"00:00-00:00","holiday":"00:00-00:00","closed":"土、日曜日、祝日、12月29日〜1月3日","capacity":10,"id":"1550600249"},{"name":"新発田地域生活総合支援センターさんさん館ｉ","nameKana":"しばたしちいきせいかつそうごうしえんせんたーさんさんかんあい","corp":"社会福祉法人　のぞみの家福祉会","serviceTypes":["放課後等デイサービス"],"ward":"新発田市","address":"新潟県新発田市島潟１４５４新発田地域生活総合支援センターさんさん館ｉ","tel":"0254-22-9900","url":"http://www.nozominoie.or.jp/","lat":37.96020656,"lng":139.34389526,"weekday":"08:30-17:15","saturday":"08:30-17:15","sunday":"00:00-00:00","holiday":"00:00-00:00","closed":"土曜、日曜、祝日、12/31-1/3","capacity":5,"id":"1550600074"},{"name":"かどるあっぷ","nameKana":"かどるあっぷ","corp":"特定非営利活動法人新発田市手をつなぐ育成会","serviceTypes":["放課後等デイサービス"],"ward":"新発田市","address":"新潟県新発田市五十公野５１６０−１２","tel":"0254-28-7820","url":"http://ikushiba.sunnyday.jp/cuddleup.html","lat":37.92562801,"lng":139.35115174,"weekday":"14:00-18:30","saturday":"00:00-00:00","sunday":"00:00-00:00","holiday":"00:00-00:00","closed":"土曜日、日曜日、祝祭日、年末年始（１２月２９日〜翌年１月３日）","capacity":10,"id":"1550600108"},{"name":"共生型サービス事業所ひよしの家","nameKana":"きょうせいがたさーびすじぎょうしょひよしのいえ","corp":"社会福祉法人　おぢや福祉会","serviceTypes":["放課後等デイサービス"],"ward":"小千谷市","address":"新潟県小千谷市日吉1丁目6番22号","tel":"0258-83-0766","url":"","lat":37.30483683,"lng":138.79814899,"weekday":"07:00-20:00","saturday":"07:00-20:00","sunday":"07:00-20:00","holiday":"07:00-20:00","closed":"無し","capacity":2,"id":"1550800021"},{"name":"デイサービスセンターサンラックおぢや","nameKana":"でいさーびすせんたーさんらっくおぢや","corp":"社会福祉法人　小千谷市社会福祉協議会","serviceTypes":["放課後等デイサービス"],"ward":"小千谷市","address":"新潟県小千谷市桜町5140番地","tel":"0258-83-1224","url":"","lat":37.31341889,"lng":138.78170645,"weekday":"07:30-18:30","saturday":"","sunday":"07:30-17:30","holiday":"07:30-17:30","closed":"１２月３１日〜１月3日、土","capacity":40,"id":"1550800039"},{"name":"デイサービスセンターみなみ","nameKana":"でいさーびすせんたーみなみ","corp":"社会福祉法人　小千谷市社会福祉協議会","serviceTypes":["放課後等デイサービス"],"ward":"小千谷市","address":"新潟県小千谷市真人町丁73番地3","tel":"0258-86-3256","url":"http://oj-shakyo.jp","lat":37.25194583,"lng":138.80770876,"weekday":"09:00-16:00","saturday":"09:00-16:00","sunday":"","holiday":"09:00-16:00","closed":"日・12月31日〜1月3日","capacity":37,"id":"1550800047"},{"name":"おぢや童夢","nameKana":"おぢやどうむ","corp":"おぢや童夢合同会社","serviceTypes":["放課後等デイサービス"],"ward":"小千谷市","address":"新潟県小千谷市桜町６７７番地６","tel":"0258-77-3647","url":"http://hp.kaipoke.biz/afy/107302/base_0030.html","lat":37.31851824,"lng":138.7791677,"weekday":"08:00-18:00","saturday":"","sunday":"","holiday":"","closed":"土日曜日、祝日、8月13日〜15日、12月29日〜翌年1月3日","capacity":10,"id":"1550800013"},{"name":"放課後等デイサービスわくわくクラブ","nameKana":"ほうかごとうでいさーびすわくわくくらぶ","corp":"特定非営利活動法人わくわくクラブ","serviceTypes":["放課後等デイサービス"],"ward":"加茂市","address":"新潟県加茂市新栄町12-17","tel":"0256-53-7873","url":"http://wkwk-kamo.jp/","lat":37.66152472,"lng":139.03851516,"weekday":"14:30-17:30","saturday":"","sunday":"","holiday":"","closed":"土・日、祝日、お盆、年末年始（12月29日〜1月3日）","capacity":10,"id":"1550900011"},{"name":"放課後等デイサービス　ヒュッケ","nameKana":"ほうかごとうでいさーびすひゅっけ","corp":"特定非営利活動法人　十いろ","serviceTypes":["放課後等デイサービス"],"ward":"十日町","address":"新潟県十日町市西寺町17-6","tel":"025-755-5427","url":"https://npo-toiro.com","lat":37.13272222,"lng":138.75787342,"weekday":"15:00-18:00","saturday":"","sunday":"","holiday":"","closed":"土・日・国民の祝日","capacity":10,"id":"1551000068"},{"name":"放課後等デイサービス事業所げじょう","nameKana":"ほうかごとうでいさーびすじぎょうしょげじょう","corp":"社会福祉法人　十日町福祉会","serviceTypes":["放課後等デイサービス"],"ward":"十日町","address":"新潟県十日町市下条４丁目183番地２","tel":"025-755-5271","url":"http://fuku-tokamachi.or.jp","lat":37.1275814,"lng":138.755707,"weekday":"14:00-18:00","saturday":"","sunday":"","holiday":"","closed":"土曜日、日曜日、祝日、年末年始（12月31日から1月3日まで）","capacity":10,"id":"1551000050"},{"name":"なごみの家","nameKana":"なごみのいえ","corp":"社会福祉法人　十日町福祉会","serviceTypes":["放課後等デイサービス"],"ward":"十日町","address":"新潟県十日町市高山１３６０番地２","tel":"025-752-5212","url":"http://fuku-tokamachi.or.jp","lat":37.12885896,"lng":138.74477752,"weekday":"14:00-18:00","saturday":"08:30-16:30","sunday":"","holiday":"","closed":"年末年始、祝日、日曜日、12月31日〜1月3日","capacity":10,"id":"1551000043"},{"name":"放課後等デイサービス事業所りんくるー","nameKana":"ほうかごとうでいさーびすじぎょうしょりんくるー","corp":"合同会社りんくるー","serviceTypes":["放課後等デイサービス"],"ward":"見附市","address":"新潟県見附市今町1-5-26","tel":"0258-84-7997","url":"https://lincrew.com/","lat":37.54780915,"lng":138.8839108,"weekday":"13:30-17:30","saturday":"09:30-16:30","sunday":"","holiday":"","closed":"日、祝","capacity":10,"id":"1551100082"},{"name":"フリージア本所教室","nameKana":"ふりーじあほんじょきょうしつ","corp":"株式会社　フリージアみつけ","serviceTypes":["放課後等デイサービス"],"ward":"見附市","address":"新潟県見附市本所1丁目15番49号","tel":"0258-63-0303","url":"","lat":37.53675025,"lng":138.90895283,"weekday":"14:00-17:30","saturday":"09:00-16:00","sunday":"","holiday":"","closed":"日、祝日、お盆8月13日〜15日、年末年始12月29日〜1月3日","capacity":10,"id":"1551100033"},{"name":"放課後等デイサービス　見附わくわくフレンズ","nameKana":"ほうかごとうでいさーびすみつけわくわくふれんず","corp":"株式会社トラス・テック","serviceTypes":["放課後等デイサービス"],"ward":"見附市","address":"新潟県見附市本所1丁目19番6号株式会社トラス・テック本社ビル","tel":"090-9101-1377","url":"https://www.wakuwaku-trustec.com/","lat":37.53910549,"lng":138.90804175,"weekday":"14:00-18:00","saturday":"","sunday":"","holiday":"","closed":"土曜日、日曜日、祝日、8/11〜8/14 及び 12/30〜1/3","capacity":10,"id":"1551100090"},{"name":"フレデリーしんまち","nameKana":"ふれでりーしんまち","corp":"合同会社すいみー","serviceTypes":["放課後等デイサービス"],"ward":"見附市","address":"新潟県見附市新町1丁目1‐1","tel":"0258946390","url":"","lat":37.52722684,"lng":138.92272672,"weekday":"13:30-17:30","saturday":"","sunday":"","holiday":"","closed":"土曜日、日曜日、祝日","capacity":10,"id":"1551100124"},{"name":"はるgrow","nameKana":"はるぐろー","corp":"一般社団法人Natural","serviceTypes":["放課後等デイサービス"],"ward":"村上市","address":"新潟県村上市小川33","tel":"0254-62-7429","url":"https://shien-natural.net/","lat":38.24529662,"lng":139.50698502,"weekday":"08:00-18:00","saturday":"","sunday":"","holiday":"","closed":"土曜日・日曜日・祝祭日・年末年始（12月30日〜1月3日）、運営法人の指定する日","capacity":10,"id":"1551200106"},{"name":"はるleap","nameKana":"はるりーぷ","corp":"一般社団法人Natural","serviceTypes":["放課後等デイサービス"],"ward":"村上市","address":"新潟県村上市飯野3丁目9番30号","tel":"0254-62-7667","url":"https://shien-natural.net/","lat":38.22014828,"lng":139.47056863,"weekday":"08:00-18:00","saturday":"","sunday":"","holiday":"","closed":"土曜日・日曜日・祝祭日・年末年始（12月30日〜1月3日）、運営法人の指定する日","capacity":10,"id":"1551200130"},{"name":"放課後等デイサービス 青い鳥","nameKana":"ほうかごとうでいさーびすあおいとり","corp":"株式会社リリック","serviceTypes":["放課後等デイサービス"],"ward":"村上市","address":"新潟県村上市小町1番12号","tel":"0254-53-3020","url":"https://aoitori-tonda.com","lat":38.22592563,"lng":139.4794283,"weekday":"13:30-17:00","saturday":"10:00-17:00","sunday":"","holiday":"","closed":"日曜、祝祭日、8月１３日〜１５日、12月２９日〜1月３日","capacity":10,"id":"1551200056"},{"name":"放課後等デイサービス　カナリヤ","nameKana":"ほうかごとうでいさーびすかなりや","corp":"株式会社リリック","serviceTypes":["放課後等デイサービス"],"ward":"村上市","address":"新潟県村上市藤沢２１−５","tel":"0254-62-7990","url":"","lat":38.11931588,"lng":139.44995879,"weekday":"13:30-17:00","saturday":"","sunday":"","holiday":"","closed":"土曜、日曜、祝日、8/13〜15、12/29〜1/3","capacity":10,"id":"1551200072"},{"name":"放課後等デイサービスつぐみ","nameKana":"ほうかごとうでいさーびすつぐみ","corp":"株式会社リリック","serviceTypes":["放課後等デイサービス"],"ward":"村上市","address":"新潟県村上市小町１−９","tel":"0254-75-6170","url":"https://aoitori-tonda.com/","lat":38.22568676,"lng":139.47905058,"weekday":"13:30-17:00","saturday":"","sunday":"","holiday":"","closed":"土曜、日曜、祝祭日、８月１３日〜１５日、１２月２９日〜１月３日","capacity":10,"id":"1551200114"},{"name":"つばめ療育館大曲分館","nameKana":"つばめりょういくかんおおまがりぶんかん","corp":"株式会社Noseつばめ療育館","serviceTypes":["放課後等デイサービス"],"ward":"燕市","address":"新潟県燕市大曲2448番地1","tel":"0256-47-4113","url":"http://www.ryoiku-kan.com","lat":37.64577329,"lng":138.9168796,"weekday":"14:00-17:00","saturday":"","sunday":"","holiday":"","closed":"土・日曜日、国民の祝日、8月13日から15日、12月30日から1月3日","capacity":10,"id":"1551300070"},