[{"name":"グーバルキッズメソッド１３５","nameKana":"ぐろーばるきっずめそっどいちさんご","corp":"ハッピーライフケア株式会社","serviceTypes":["児童発達支援"],"ward":"長野市","address":"長野県長野市金井田２−１","tel":"026-285-9651","url":"","lat":36.58202231,"lng":138.15591003,"weekday":"","saturday":"","sunday":"","holiday":"","closed":"","capacity":null,"id":"2050101084"},{"name":"こどもプラス塩田教室","nameKana":"こどもぷらすしおだきょうしつ","corp":"就労支援型放課後デイサービス株式会社","serviceTypes":["児童発達支援","放課後等デイサービス"],"ward":"上田市","address":"長野県上田市古安曽1057-1","tel":"0268-75-6601","url":"http://sjs-shioda.com/","lat":36.34643604,"lng":138.22143282,"weekday":"10:00-14:00","saturday":"09:30-15:30","sunday":"","holiday":"09:30-15:30","closed":"日曜日、お盆、年末年始","capacity":10,"id":"2050300207"},{"name":"こどもプラス上田教室","nameKana":"こどもぷらすうえだきょうしつ","corp":"就労支援型放課後デイサービス株式会社","serviceTypes":["児童発達支援","放課後等デイサービス"],"ward":"上田市","address":"長野県上田市国分1890","tel":"0268-55-7106","url":"https://ueda-kodomo.com/","lat":36.38155503,"lng":138.2671937,"weekday":"09:30-17:00","saturday":"09:30-18:00","sunday":"","holiday":"09:30-18:00","closed":"土日祝日、お盆（8月13日から16日）、年末年始（12月30日〜1月3日）","capacity":10,"id":"2050300330"},{"name":"らいおんハートからだの児童デイサービス佐久南","nameKana":"らいおんはーとからだのじどうでいさーびすさくみなみ","corp":"一般社団法人医療介護ケア協会","serviceTypes":["児童発達支援","放課後等デイサービス"],"ward":"佐久市","address":"長野県佐久市前山321-3","tel":"0267-77-7144","url":"https://lion-heart.co/kids/contact/","lat":36.21503488,"lng":138.45250832,"weekday":"09:30-13:30","saturday":"","sunday":"","holiday":"09:30-13:30","closed":"土日","capacity":null,"id":"2051700223"},{"name":"らいおんハートからだの児童デイサービス中込","nameKana":"らいおんはーとからだのじどうでいさーびすなかごみ","corp":"一般社団法人医療介護ケア協会","serviceTypes":["児童発達支援","放課後等デイサービス"],"ward":"佐久市","address":"長野県佐久市中込２９８２−１上原ビル2号","tel":"0267-78-5215","url":"","lat":36.24793743,"lng":138.47806645,"weekday":"09:30-17:30","saturday":"","sunday":"","holiday":"09:30-17:30","closed":"土曜日、日曜日、年末年始","capacity":5,"id":"2051700280"},{"name":"らいおんハート遊びリテーション児童デイ佐久穂","nameKana":"らいおんはーとあそびりてーしょんじどうでいさくほ","corp":"一般社団法人医療介護ケア協会","serviceTypes":["児童発達支援","放課後等デイサービス"],"ward":"南佐久郡佐久穂町","address":"長野県南佐久郡佐久穂町高野町467-1","tel":"090-9158-4199","url":"","lat":36.1647915,"lng":138.48491202,"weekday":"14:00-17:30","saturday":"09:30-13:30","sunday":"","holiday":"09:30-15:30","closed":"","capacity":10,"id":"2052000086"},{"name":"らいおんハート遊びリテーション児童デイ佐久南","nameKana":"らいおんはーとあそびりてーしょんじどうでいさくみなみ","corp":"一般社団法人医療介護ケア協会","serviceTypes":["児童発達支援","放課後等デイサービス"],"ward":"佐久市","address":"長野県佐久市前山321-3","tel":"0267-77-7144","url":"","lat":36.21503488,"lng":138.45250832,"weekday":"09:30-13:30","saturday":"","sunday":"","holiday":"09:30-13:30","closed":"土日、12月30日~1月4日","capacity":10,"id":"2051700173"},{"name":"unico軽井沢","nameKana":"ゆにこかるいざわ","corp":"株式会社note","serviceTypes":["児童発達支援","放課後等デイサービス"],"ward":"北佐久郡軽井沢町","address":"長野県北佐久郡軽井沢町追分89-2","tel":"0267-46-9456","url":"","lat":36.33314522,"lng":138.53178939,"weekday":"10:00-13:30","saturday":"10:00-16:00","sunday":"","holiday":"10:00-16:00","closed":"日曜日","capacity":10,"id":"2052100134"},{"name":"児童発達支援 TODAY is New Life 東和田","nameKana":"じどうはったつしえんとぅでいいずにゅーらいふひがしわだ","corp":"オネストリィ株式会社","serviceTypes":["児童発達支援"],"ward":"長野市","address":"長野県長野市東和田943-1平林街道店舗2F","tel":"026-219-6045","url":"","lat":36.65408563,"lng":138.22193108,"weekday":"09:00-16:00","saturday":"09:00-16:00","sunday":"","holiday":"09:00-16:00","closed":"日曜日、年末年始（12月30日〜1月3日）","capacity":10,"id":"2050100821"},{"name":"らいおんハート遊びリテーション児童デイ上田","nameKana":"らいおんはーとあそびりてーしょんじどうでいうえだ","corp":"株式会社ＳＴＡＹ","serviceTypes":["児童発達支援","放課後等デイサービス"],"ward":"上田市","address":"長野県上田市諏訪形１０９９−１７","tel":"0268-71-6552","url":"","lat":36.3937035,"lng":138.24133385,"weekday":"","saturday":"","sunday":"","holiday":"","closed":"毎週日曜日","capacity":null,"id":"2050300256"},{"name":"ほっちのロッヂ","nameKana":"ほっちのろっぢ","corp":"医療法人社団オレンジ","serviceTypes":["児童発達支援","放課後等デイサービス"],"ward":"北佐久郡軽井沢町","address":"長野県北佐久郡軽井沢町発地１２７４−１１３","tel":"0267-31-5519","url":"https://hotch-l.com/","lat":36.31946839,"lng":138.60148036,"weekday":"09:00-17:00","saturday":"09:00-17:00","sunday":"","holiday":"09:00-17:00","closed":"","capacity":5,"id":"2052100118"},{"name":"さんきっずやしま","nameKana":"さんきっずやしま","corp":"社会福祉法人大勧進養育院","serviceTypes":["児童発達支援","放課後等デイサービス"],"ward":"長野市","address":"長野県長野市屋島2373","tel":"026-217-1880","url":"","lat":36.64409157,"lng":138.24936585,"weekday":"09:30-14:30","saturday":"","sunday":"","holiday":"","closed":"土日祝、お盆、年末年始","capacity":10,"id":"2050100839"},{"name":"ごきげんスペースうえだ","nameKana":"ごきげんすぺーすうえだ","corp":"特定非営利活動法人こすもけあ福祉会","serviceTypes":["児童発達支援","放課後等デイサービス"],"ward":"上田市","address":"長野県上田市小牧１１６２−１８","tel":"0268-75-5376","url":"https://cosmo-care.or.jp","lat":36.38232969,"lng":138.25750561,"weekday":"","saturday":"","sunday":"","holiday":"","closed":"","capacity":null,"id":"2050300280"},{"name":"グランディール　上松教室","nameKana":"ぐらんでぃーるうえまつきょうしつ","corp":"株式会社SYMPA","serviceTypes":["児童発達支援","放課後等デイサービス"],"ward":"長野市","address":"長野県長野市上松四丁目３０番３８","tel":"026-266-0713","url":"https://www.grandir.co.jp/","lat":36.67630625,"lng":138.20088945,"weekday":"09:00-13:00","saturday":"10:00-16:00","sunday":"","holiday":"10:00-16:00","closed":"12月29日〜1月3日、5月3日〜5月5日、8月13日〜8月16日及び日曜日","capacity":10,"id":"2050101027"},{"name":"ココモネ","nameKana":"ここもね","corp":"合同会社EAST MOUNTAIN STREAM","serviceTypes":["児童発達支援","放課後等デイサービス"],"ward":"上高井郡小布施町","address":"長野県上高井郡小布施町北岡182","tel":"026-214-3466","url":"https://www.itsumone.com/","lat":36.70847095,"lng":138.31120713,"weekday":"09:00-15:00","saturday":"09:00-15:00","sunday":"","holiday":"","closed":"日曜日、祝日、お盆、年末年始","capacity":10,"id":"2053200016"},{"name":"児童発達支援センターみらいく","nameKana":"じどうはったつしえんせんたーみらいく","corp":"一般社団法人信州子育てみらいネット","serviceTypes":["児童発達支援"],"ward":"中野市","address":"長野県中野市吉田963-5","tel":"026-262-1572","url":"https://jihatsu.chiikihoiku.net/","lat":36.75423955,"lng":138.36631936,"weekday":"09:00-17:30","saturday":"09:00-16:00","sunday":"","holiday":"","closed":"日曜日・祝日・夏季休暇・年末年始休暇","capacity":20,"id":"2051100135"},{"name":"おはなし屋療育園","nameKana":"おはなしやりょういくえん","corp":"株式会社ファミーライズ","serviceTypes":["児童発達支援"],"ward":"長野市","address":"長野県長野市徳間１丁目１４番２号","tel":"026-259-5280","url":"https://www.fami-rise.com/","lat":36.67837577,"lng":138.22081472,"weekday":"10:00-16:00","saturday":"","sunday":"","holiday":"","closed":"国民の祝日、８月１３日から８月１６、１２月２９日から１月３日まで","capacity":12,"id":"2050101076"},{"name":"児童発達支援事業所ふぁいん広丘教室","nameKana":"じどうはったつしえんじぎょうしょふぁいんひろおかきょうしつ","corp":"株式会社PORT","serviceTypes":["児童発達支援"],"ward":"塩尻市","address":"長野県塩尻市広丘原新田202-43はるハウスB","tel":"0263-88-4025","url":"https://fine-port.com/","lat":36.14661508,"lng":137.94627284,"weekday":"09:00-16:00","saturday":"09:00-16:00","sunday":"","holiday":"","closed":"日曜・祝日","capacity":10,"id":"2051500169"},{"name":"児童発達支援事業所ふぁいん大門教室","nameKana":"じどうはったつしえんじぎょうしょふぁいんだいもんきょうしつ","corp":"株式会社PORT","serviceTypes":["児童発達支援"],"ward":"塩尻市","address":"長野県塩尻市大門539-4","tel":"0263-50-7112","url":"https://fine-port.com/","lat":36.11298036,"lng":137.94604654,"weekday":"09:00-16:00","saturday":"","sunday":"","holiday":"","closed":"土曜、日曜、祝日","capacity":10,"id":"2051500177"},{"name":"toko-toko青木島教室","nameKana":"とことこあおきじまきょうしつ","corp":"株式会社７０３","serviceTypes":["児童発達支援","放課後等デイサービス"],"ward":"長野市","address":"長野県長野市青木島町青木島乙７１２−６なし","tel":"026-400-8381","url":"https://toko-toko-703.com/","lat":36.61895548,"lng":138.18591637,"weekday":"15:00-19:00","saturday":"10:00-16:00","sunday":"","holiday":"10:00-16:00","closed":"日、月","capacity":10,"id":"2050101100"},{"name":"独立行政法人国立病院機構東長野病院","nameKana":"どくりつぎょうせいほうじんこくりつびょういんきこうひがしながのびょういん","corp":"独立行政法人国立病院機構東長野病院","serviceTypes":["児童発達支援","放課後等デイサービス"],"ward":"長野市","address":"長野県長野市上野２−４７７なし","tel":"026-296-1111","url":"http://enagano-hosp.jp/","lat":36.68699425,"lng":138.23847929,"weekday":"09:00-15:00","saturday":"","sunday":"","holiday":"","closed":"土日祝","capacity":5,"id":"2010100846"},{"name":"にじいろキッズらいふ若里東","nameKana":"にじいろきっずらいふわかさとひがし","corp":"社会福祉法人長野市社会事業協会","serviceTypes":["児童発達支援","放課後等デイサービス"],"ward":"長野市","address":"長野県長野市若里6丁目4番13号","tel":"026-217-1001","url":"","lat":36.62656075,"lng":138.19412638,"weekday":"09:30-15:30","saturday":"","sunday":"","holiday":"","closed":"土日、国民の祝日に関する法律に規定する休日、年末年始","capacity":10,"id":"2050100789"},{"name":"児童発達支援センターにじいろキッズらいふ","nameKana":"じどうはったつしえんせんたーにじいろきっずらいふ","corp":"社会福祉法人長野市社会事業協会","serviceTypes":["児童発達支援","放課後等デイサービス","居宅訪問型児童発達支援"],"ward":"長野市","address":"長野県長野市若里6丁目6番14号","tel":"026-219-3780","url":"https://nagano-shajikyo.or.jp/n-k-life/","lat":36.62688291,"lng":138.19339311,"weekday":"09:30-15:30","saturday":"09:30-15:30","sunday":"","holiday":"09:30-14:30","closed":"日曜日、国民の祝日に関する法律に規定する休日、年末年始。","capacity":30,"id":"2050100011"},{"name":"長野市篠ノ井愛の樹園","nameKana":"ながのししののいあいのきえん","corp":"社会福祉法人長野市社会事業協会","serviceTypes":["児童発達支援","放課後等デイサービス"],"ward":"長野市","address":"長野県長野市篠ノ井石川1523番地２","tel":"026-293-3177","url":"https://nagano-shajikyo.or.jp/sinonoi-ainoki/","lat":36.56823924,"lng":138.11950375,"weekday":"08:00-18:00","saturday":"08:30-17:15","sunday":"","holiday":"","closed":"日曜日、国民の祝日、1/2・3、12/29〜31","capacity":10,"id":"2050100078"},{"name":"長野市障害者福祉施設　ハーモニー桃の郷　ぴあぽーと","nameKana":"ながのししょうがいしゃふくししせつはーもにーもものさとぴあぽーと","corp":"社会福祉法人長野市社会事業協会","serviceTypes":["児童発達支援","放課後等デイサービス"],"ward":"長野市","address":"長野県長野市川中島町今井1387-5","tel":"026-285-3402","url":"","lat":36.60002036,"lng":138.15250302,"weekday":"09:00-16:00","saturday":"","sunday":"","holiday":"","closed":"土曜日・日曜日　国民の祝日に関する法律に規定する休日　年末年始","capacity":5,"id":"2050100094"},{"name":"にじいろキッズらいふ篠ノ井北","nameKana":"にじいろきっずらいふしののいきた","corp":"社会福祉法人長野市社会事業協会","serviceTypes":["児童発達支援","放課後等デイサービス"],"ward":"長野市","address":"長野県長野市篠ノ井布施高田1027-1ユニティービル2階","tel":"026-214-3775","url":"https://nagano-shajikyo.or.jp/n-k-life-shinonoikita/","lat":36.6485858,"lng":138.1947731,"weekday":"08:30-17:00","saturday":"08:30-17:00","sunday":"","holiday":"08:30-18:00","closed":"土曜日、日曜日、国民の祝日に関する法律に規定する休日、年末年始","capacity":10,"id":"2050100532"},{"name":"ウィズ発達支援センター","nameKana":"うぃずはったつしえんせんたー","corp":"社会福祉法人ともいき会","serviceTypes":["児童発達支援"],"ward":"長野市","address":"長野県長野市篠ノ井布施高田１０３４番地３","tel":"026-293-5567","url":"https://www.with-nagano.com/","lat":36.58033021,"lng":138.14125947,"weekday":"09:00-15:00","saturday":"","sunday":"","holiday":"","closed":"土日祝日及び年間計画による","capacity":10,"id":"2050100045"},{"name":"こども発達支援センターＢｅｅ","nameKana":"こどもはったつしえんせんたーびー","corp":"社会福祉法人森と木","serviceTypes":["児童発達支援"],"ward":"長野市","address":"長野県長野市平林1-32-5","tel":"026-259-6677","url":"","lat":36.65149979,"lng":138.21457084,"weekday":"09:00-16:00","saturday":"09:00-16:00","sunday":"","holiday":"","closed":"日曜、祝日","capacity":25,"id":"2050100052"},{"name":"あすなろクラブ","nameKana":"あすなろくらぶ","corp":"社会福祉法人稲田会","serviceTypes":["児童発達支援","放課後等デイサービス"],"ward":"長野市","address":"長野県長野市徳間1144-5　ワークセンターＹＵＩ２階","tel":"026-255-7770","url":"","lat":36.68270045,"lng":138.23847945,"weekday":"08:30-18:00","saturday":"","sunday":"","holiday":"","closed":"土日祝祭日、お盆、年末年始","capacity":15,"id":"2050100102"},{"name":"インフィニティ","nameKana":"いんふぃにてぃ","corp":"エイ・エス・カンパニー株式会社","serviceTypes":["児童発達支援","放課後等デイサービス"],"ward":"長野市","address":"長野県長野市青木島1丁目12-1","tel":"026-283-3787","url":"http://asc-pc.com/Infinity/","lat":36.62013575,"lng":138.18079174,"weekday":"09:00-16:00","saturday":"10:00-16:00","sunday":"","holiday":"10:00-16:00","closed":"日曜日、夏季休業8/13〜8/16、年末年始休業12/29〜1/3","capacity":10,"id":"2050100508"},{"name":"インフィニティスクール","nameKana":"いんふぃにてぃすくーる","corp":"エイ・エス・カンパニー株式会社","serviceTypes":["児童発達支援","放課後等デイサービス"],"ward":"長野市","address":"長野県長野市長野市","tel":"026-213-6150","url":"http://asc-pc.com/Infinity/","lat":36.6485858,"lng":138.1947731,"weekday":"09:00-16:00","saturday":"10:00-16:00","sunday":"","holiday":"10:00-16:00","closed":"日曜日　夏季休業8/13〜8/16　年末年始休業12/29〜1/3","capacity":10,"id":"2050100557"},{"name":"インフィニティ学習塾","nameKana":"いんふぃにてぃがくしゅうじゅく","corp":"エイ・エス・カンパニー株式会社","serviceTypes":["児童発達支援"],"ward":"長野市","address":"長野県長野市長野市","tel":"0262136150","url":"http://asc-pc.com/Infinity/","lat":36.6485858,"lng":138.1947731,"weekday":"09:00-16:00","saturday":"","sunday":"","holiday":"","closed":"日曜日　夏季休業8/13〜8/16　年末年始休業12/29〜1/3","capacity":10,"id":"2050100623"},{"name":"スポーツ＆アカデミー　キッズまゆ　篠ノ井教室","nameKana":"すぽーつあんどあかでみーきっずまゆしののいてん","corp":"株式会社ライフケア","serviceTypes":["児童発達支援","放課後等デイサービス"],"ward":"長野市","address":"長野県長野市篠ノ井布施高田710アーバンタワー茜101","tel":"026-213-6951","url":"","lat":36.57785275,"lng":138.14296501,"weekday":"14:00-17:30","saturday":"","sunday":"","holiday":"10:00-15:30","closed":"","capacity":10,"id":"2050100847"},{"name":"スポーツ＆アカデミーキッズまゆ七瀬教室","nameKana":"すぽーつあんどあかでみーきっずまゆななせきょうしつ","corp":"株式会社ライフケア","serviceTypes":["児童発達支援","放課後等デイサービス"],"ward":"長野市","address":"長野県長野市鶴賀七瀬南部517ラピッズセブンビル１F","tel":"0262147851","url":"https://kids-mayu.com/","lat":36.64248128,"lng":138.19764787,"weekday":"10:00-14:30","saturday":"10:00-15:30","sunday":"","holiday":"10:00-15:30","closed":"土・日","capacity":10,"id":"2050100896"},{"name":"スポーツ＆アカデミー　キッズまゆ　青木島教室","nameKana":"すぽーつあんどあかでみーきっずまゆあおきじまきょうしつ","corp":"株式会社ライフケア","serviceTypes":["児童発達支援"],"ward":"長野市","address":"長野県長野市青木島1丁目2-12ICビル1F","tel":"0262859813","url":"http://kids-mayu.com/","lat":36.61737495,"lng":138.18082512,"weekday":"10:00-14:30","saturday":"","sunday":"","holiday":"","closed":"土・日・祝日","capacity":10,"id":"2050100573"},{"name":"イツモネ","nameKana":"いつもね","corp":"合同会社 EAST MOUNTAIN STREAM","serviceTypes":["児童発達支援","放課後等デイサービス"],"ward":"長野市","address":"長野県長野市三輪2丁目5-22101","tel":"026-217-5174","url":"https://www.itsumone.com/","lat":36.66028141,"lng":138.2074106,"weekday":"10:00-17:00","saturday":"10:00-15:00","sunday":"","holiday":"","closed":"日曜日、祝日、お盆、年末年始","capacity":10,"id":"2050100664"},{"name":"こすもけあくらぶ","nameKana":"こすもけあくらぶ","corp":"特定非営利活動法人こすもけあ福祉会","serviceTypes":["児童発達支援","放課後等デイサービス"],"ward":"長野市","address":"長野県長野市川中島町今里87番地６","tel":"026-214-7533","url":"","lat":36.60338681,"lng":138.15606601,"weekday":"15:30-17:30","saturday":"09:30-15:30","sunday":"","holiday":"09:30-15:30","closed":"","capacity":5,"id":"2050100870"},{"name":"サンライズ長野川中島","nameKana":"さんらいずながのかわなかじま","corp":"特定非営利活動法人こすもけあ福祉会","serviceTypes":["児童発達支援","放課後等デイサービス"],"ward":"長野市","address":"長野県長野市川中島町今里135-2","tel":"026-405-9948","url":"","lat":36.60372006,"lng":138.15448847,"weekday":"15:30-17:00","saturday":"09:30-15:30","sunday":"","holiday":"09:30-15:30","closed":"","capacity":5,"id":"2050100987"},{"name":"ひだまりハウス並柳","nameKana":"ひだまりはうすなみやなぎ","corp":"オールキャスト株式会社","serviceTypes":["児童発達支援","放課後等デイサービス"],"ward":"松本市","address":"長野県松本市並柳1丁目5‐18","tel":"0263313622","url":"","lat":36.21265813,"lng":137.97921707,"weekday":"","saturday":"","sunday":"","holiday":"","closed":"","capacity":10,"id":"2050200654"},{"name":"ココチムスタディ","nameKana":"ここちむすたでぃ","corp":"株式会社柏木","serviceTypes":["児童発達支援","放課後等デイサービス"],"ward":"松本市","address":"長野県松本市小屋南1‐43‐7","tel":"0263573206","url":"","lat":36.17535911,"lng":137.95344044,"weekday":"","saturday":"","sunday":"","holiday":"","closed":"","capacity":null,"id":"2050200688"},{"name":"学び舎with新村教室","nameKana":"まなびやうぃずにいむらきょうしつ","corp":"合同会社　RIGHT　MAN　GROUP","serviceTypes":["児童発達支援","放課後等デイサービス"],"ward":"松本市","address":"長野県松本市新村265−16","tel":"0263877889","url":"https://www.cram.co.jp/","lat":36.21850504,"lng":137.921803,"weekday":"10:00-13:00","saturday":"09:00-16:00","sunday":"","holiday":"09:00-16:00","closed":"土曜・日曜及び祝日","capacity":10,"id":"2050200605"},{"name":"学び舎with","nameKana":"まなびやうぃず","corp":"合同会社　RIGHT　MAN　GROUP","serviceTypes":["児童発達支援","放課後等デイサービス"],"ward":"松本市","address":"長野県松本市梓川倭923−4","tel":"0263877889","url":"https://www.cram.co.jp/","lat":36.23033572,"lng":137.89302404,"weekday":"10:00-13:00","saturday":"09:00-16:00","sunday":"","holiday":"09:00-16:00","closed":"土曜・日曜及び祝日","capacity":10,"id":"2050200571"},{"name":"学び舎withネクスト","nameKana":"まなびやうぃずねくすと","corp":"合同会社　RIGHT　MAN　GROUP","serviceTypes":["児童発達支援","放課後等デイサービス"],"ward":"松本市","address":"長野県松本市県1丁目6−3松林ビル3F","tel":"0263-88-8820","url":"https://www.cram.co.jp/","lat":36.23395527,"lng":137.97996327,"weekday":"09:00-18:00","saturday":"09:00-16:00","sunday":"","holiday":"09:00-16:00","closed":"日曜日・月曜日","capacity":10,"id":"2050200761"},{"name":"学び舎 with 穂高教室","nameKana":"まなびやうぃずほたかきょうしつ","corp":"合同会社ＲＩＧＨＴ　ＭＡＮ　ＧＲＯＵＰ","serviceTypes":["児童発達支援","放課後等デイサービス"],"ward":"安曇野市","address":"長野県安曇野市穂高844-1","tel":"0120-684-325","url":"https://www.cram.co.jp/","lat":36.32464801,"lng":137.89811457,"weekday":"10:00-13:00","saturday":"09:00-16:00","sunday":"","holiday":"09:00-16:00","closed":"土曜・日曜及び祝日","capacity":10,"id":"2054000225"},{"name":"学び舎 with 豊科教室","nameKana":"まなびやうぃずとよしなきょうしつ","corp":"合同会社ＲＩＧＨＴ　ＭＡＮ　ＧＲＯＵＰ","serviceTypes":["児童発達支援","放課後等デイサービス"],"ward":"安曇野市","address":"長野県安曇野市豊科4891番地16　プラザマルミズ101","tel":"0263-88-6844","url":"https://www.cram.co.jp/","lat":36.29954824,"lng":137.9030984,"weekday":"10:00-13:00","saturday":"09:00-16:00","sunday":"","holiday":"09:00-16:00","closed":"土曜・日曜及び祝日","capacity":10,"id":"2054000290"},{"name":"十色","nameKana":"てんしょく","corp":"株式会社　STEADY","serviceTypes":["児童発達支援"],"ward":"松本市","address":"長野県松本市波田1594-3","tel":"0263742437","url":"","lat":36.20857136,"lng":137.88434493,"weekday":"10:00-13:00","saturday":"09:00-16:00","sunday":"","holiday":"09:00-16:00","closed":"日曜日","capacity":10,"id":"2050200621"},{"name":"レアレアの樹","nameKana":"れあれあのき","corp":"一般社団法人クーリア・サポート","serviceTypes":["児童発達支援","放課後等デイサービス"],"ward":"松本市","address":"長野県松本市島立4572番地","tel":"0263-74-6274","url":"","lat":36.2133812,"lng":137.93519924,"weekday":"09:30-13:00","saturday":"09:30-13:00","sunday":"","holiday":"09:30-13:00","closed":"第２・４土曜日、国民の祝日","capacity":10,"id":"2050200712"},{"name":"なないろの宙","nameKana":"なないろのそら","corp":"株式会社幸幸","serviceTypes":["児童発達支援","放課後等デイサービス"],"ward":"松本市","address":"長野県松本市高宮中７−３２","tel":"0263876027","url":"","lat":36.21452918,"lng":137.95634429,"weekday":"10:00-13:00","saturday":"09:30-16:00","sunday":"","holiday":"09:30-16:00","closed":"日曜日・年末年始","capacity":10,"id":"2050200613"},{"name":"雲のポッケ","nameKana":"くものぽっけ","corp":"合同会社雲のポッケ","serviceTypes":["児童発達支援","放課後等デイサービス"],"ward":"松本市","address":"長野県松本市今井2616番地1","tel":"0263-88-0028","url":"","lat":36.16395405,"lng":137.91264133,"weekday":"09:00-15:00","saturday":"","sunday":"09:00-15:00","holiday":"09:00-15:00","closed":"","capacity":5,"id":"2050200746"},{"name":"にじいろデイズ蟻ケ崎","nameKana":"にじいろでいずありがさき","corp":"株式会社にじれあ","serviceTypes":["児童発達支援","放課後等デイサービス"],"ward":"松本市","address":"長野県松本市蟻ケ崎４−３−４０","tel":"0263870708","url":"","lat":36.24735823,"lng":137.96448121,"weekday":"","saturday":"","sunday":"","holiday":"","closed":"","capacity":null,"id":"2050200639"},{"name":"サニー","nameKana":"さにー","corp":"株式会社Sunny","serviceTypes":["児童発達支援","放課後等デイサービス"],"ward":"松本市","address":"長野県松本市波田1576‐6","tel":"0263-88-5721","url":"","lat":36.20778245,"lng":137.8816758,"weekday":"10:00-13:00","saturday":"09:00-16:00","sunday":"","holiday":"09:00-16:00","closed":"土曜日、日曜日","capacity":30,"id":"2050200753"},{"name":"遊びリテーションtsunagu","nameKana":"あそびりてーしょんつなぐ","corp":"株式会社Capital　Heart","serviceTypes":["児童発達支援","放課後等デイサービス"],"ward":"松本市","address":"長野県松本市北深志３丁目１１−３","tel":"090-7092-5438","url":"","lat":36.24792816,"lng":137.97480221,"weekday":"09:00-15:00","saturday":"09:00-15:00","sunday":"","holiday":"09:00-17:00","closed":"土（祝日の振替で開所することもあります）・日・祝日","capacity":10,"id":"2050200738"},{"name":"独立行政法人国立病院機構まつもと医療センター　","nameKana":"どくりつぎょうせいほうじんこくりつびょういんきこうまつもといりょうせんたー","corp":"独立行政法人国立病院機構まつもと医療センター","serviceTypes":["児童発達支援"],"ward":"松本市","address":"長野県松本市村井町南2-20-30","tel":"0263-58-4567","url":"http://mmccenta.jp","lat":36.17600653,"lng":137.96425609,"weekday":"","saturday":"","sunday":"","holiday":"","closed":"土日、祝日、お盆、年末年始","capacity":5,"id":"2050200134"},{"name":"療育センターあづみの","nameKana":"りょういくせんたーあづみの","corp":"特定非営利活動法人未来の風","serviceTypes":["児童発達支援","放課後等デイサービス"],"ward":"安曇野市","address":"長野県安曇野市三郷温９６７−１","tel":"0263-31-3358","url":"https://miraino-kaze.com","lat":36.2507724,"lng":137.89418983,"weekday":"09:00-15:00","saturday":"","sunday":"","holiday":"","closed":"土日、祝日、お盆、年末年始","capacity":10,"id":"2054000316"},{"name":"ぽのｋｉｄ’ｓ梓川教室","nameKana":"ぽのきっずあずさがわきょうしつ","corp":"株式会社ＰＯＮＯ","serviceTypes":["児童発達支援","放課後等デイサービス"],"ward":"松本市","address":"長野県松本市梓川倭２２８１−２","tel":"0263-30-8491","url":"http://ponokids1010.wp.xdomain.jp","lat":36.24017915,"lng":137.89624845,"weekday":"10:30-13:00","saturday":"10:00-15:00","sunday":"","holiday":"","closed":"第２.４土曜日・日曜日・祝日・お盆休み・年末年始","capacity":10,"id":"2050200514"},{"name":"彩の木","nameKana":"いろのき","corp":"風和緩合同会社","serviceTypes":["児童発達支援","放課後等デイサービス"],"ward":"松本市","address":"長野県松本市梓川倭２５０番地７","tel":"0263-78-2782","url":"","lat":36.23554321,"lng":137.88378272,"weekday":"09:30-13:00","saturday":"","sunday":"","holiday":"","closed":"土曜日・日曜日","capacity":10,"id":"2050200548"},{"name":"松本市社会福祉協議会　しいのみ学園","nameKana":"まつもとししゃかいふくしきょうぎかいしいのみがくえん","corp":"社会福祉法人松本市社会福祉協議会","serviceTypes":["児童発達支援"],"ward":"松本市","address":"長野県松本市双葉４番16号","tel":"0263-25-3010","url":"http://www.syakyo-matsumoto.or.jp","lat":36.20790279,"lng":137.9673517,"weekday":"09:00-15:00","saturday":"","sunday":"","holiday":"","closed":"土曜日、日曜日、祝日、その他学園の定めた日","capacity":10,"id":"2050200027"},{"name":"障がい児通所支援事業さわやか","nameKana":"しょうがいじつうしょしえんじぎょうさわやか","corp":"特定非営利活動法人ウエルライフ梓峰","serviceTypes":["児童発達支援","放課後等デイサービス"],"ward":"松本市","address":"長野県松本市島内３３２番地","tel":"0263-48-0320","url":"","lat":36.23464422,"lng":137.91891673,"weekday":"08:30-14:30","saturday":"","sunday":"","holiday":"","closed":"土曜日、日曜日、国民の休日、12月29日から1月3日","capacity":10,"id":"2050200506"},{"name":"ケセラキッズ","nameKana":"けせらきっず","corp":"特定非営利活動法人ケ・セラ","serviceTypes":["児童発達支援","放課後等デイサービス"],"ward":"松本市","address":"長野県松本市出川町１１番６号","tel":"0263-88-5616","url":"http://npo-que-sera.org/","lat":36.20893891,"lng":137.97027079,"weekday":"09:15-17:15","saturday":"","sunday":"","holiday":"","closed":"土日祝日およびお盆（不定休）、12月29日〜1月3日","capacity":10,"id":"2050200647"},{"name":"療育センターらいふ","nameKana":"りょういくせんたーらいふ","corp":"特定非営利活動法人未来の風","serviceTypes":["児童発達支援","放課後等デイサービス"],"ward":"松本市","address":"長野県松本市出川2-24-14","tel":"0263-25-8690","url":"http://mirainokaze.com/","lat":36.21541044,"lng":137.97539227,"weekday":"09:00-15:00","saturday":"","sunday":"","holiday":"","closed":"土日、祝日、お盆、年末年始","capacity":20,"id":"2050200035"},{"name":"療育センターみらい","nameKana":"りょういくせんたーみらい","corp":"特定非営利活動法人未来の風","serviceTypes":["児童発達支援","放課後等デイサービス"],"ward":"松本市","address":"長野県松本市旭3-7-16","tel":"0263-88-7233","url":"http://mirainokaze.com/","lat":36.25563309,"lng":137.98181506,"weekday":"09:00-15:00","saturday":"","sunday":"","holiday":"","closed":"土日、祝日、お盆、年末年始","capacity":10,"id":"2050200043"},{"name":"こぱんはうすさくら　松本白板教室","nameKana":"こぱんはうすさくらまつもとしらいたきょうしつ","corp":"株式会社インフォメーションバンク","serviceTypes":["児童発達支援","放課後等デイサービス"],"ward":"松本市","address":"長野県松本市白板2丁目3-30大永第４ビル１F","tel":"0263-88-6224","url":"https://copain-sakura.com/","lat":36.23823416,"lng":137.9563491,"weekday":"10:00-13:00","saturday":"10:00-16:00","sunday":"00:00-00:00","holiday":"10:00-16:00","closed":"年末年始 12月31日~1月3日","capacity":10,"id":"2050200365"},{"name":"学習サポートｓｃｒｕｍＰＬＵＳ上田中之条校","nameKana":"がくしゅうさぽーとすくらむぷらすうえだなかのじょうこう","corp":"株式会社Ｓｏｍｍ−Ｓｏｍｍ","serviceTypes":["児童発達支援"],"ward":"上田市","address":"長野県上田市中之条１０１利幸第二ビル２０１","tel":"0268716528","url":"","lat":36.39300073,"lng":138.23162358,"weekday":"13:00-19:00","saturday":"12:00-17:00","sunday":"","holiday":"","closed":"土曜日及び国民の休日　,お盆、年末年始","capacity":10,"id":"2050300272"},{"name":"Ｈａｒｍｏｎｙ　Ｇｉｆｔ","nameKana":"はーもにーぎふと","corp":"Ｈａｒｍｏｎｙ　Ｇｉｆｔ株式会社","serviceTypes":["児童発達支援","放課後等デイサービス"],"ward":"上田市","address":"長野県上田市富士山3434番地3","tel":"0268-55-8327","url":"","lat":36.3419452,"lng":138.23241253,"weekday":"09:30-13:00","saturday":"","sunday":"","holiday":"09:30-13:00","closed":"土日","capacity":10,"id":"2050300314"},{"name":"らいおんハート遊びリテーション児童デイ上田カラフル","nameKana":"らいおんはーとあそびりてーしょんじどうでいうえだからふる","corp":"株式会社BlueSky","serviceTypes":["児童発達支援","放課後等デイサービス"],"ward":"上田市","address":"長野県上田市諏訪形1099番地17","tel":"0268-71-5804","url":"","lat":36.3937035,"lng":138.24133385,"weekday":"08:30-17:30","saturday":"08:30-18:30","sunday":"","holiday":"08:30-17:30","closed":"毎週日曜日、ゴールデンウイーク、年末年始","capacity":10,"id":"2050300348"},{"name":"上田市つむぎの家","nameKana":"うえだしつむぎのいえ","corp":"社会福祉法人上田しいのみ会","serviceTypes":["児童発達支援","放課後等デイサービス"],"ward":"上田市","address":"長野県上田市小泉1028番地上田市つむぎの家","tel":"0268-26-1130","url":"http://www.shiinomikai.com","lat":36.38905596,"lng":138.18633586,"weekday":"09:00-17:00","saturday":"09:00-15:00","sunday":"","holiday":"","closed":"日曜日、祝日、12月29日〜1月3日","capacity":5,"id":"2050300090"},{"name":"蓮の音こども園","nameKana":"はすのねこどもえん","corp":"社会福祉法人上田明照会","serviceTypes":["児童発達支援"],"ward":"上田市","address":"長野県上田市中央５丁目９−２９","tel":"0268-25-3334","url":"https://ueda-meishoukai.or.jp","lat":36.40376375,"lng":138.25664295,"weekday":"08:30-16:00","saturday":"08:30-16:00","sunday":"","holiday":"","closed":"日曜日、国民の祝日、8/13〜16、12/29〜1/3","capacity":30,"id":"2050300017"},{"name":"上田いずみ園","nameKana":"うえだいずみえん","corp":"社会福祉法人カルディア会","serviceTypes":["児童発達支援","居宅訪問型児童発達支援"],"ward":"上田市","address":"長野県上田市蒼久保558","tel":"0268-35-0339","url":"https://www.karudia.jp/ueda-izumi","lat":36.38934912,"lng":138.2903579,"weekday":"08:30-17:00","saturday":"09:00-15:00","sunday":"","holiday":"","closed":"日曜、祝日","capacity":30,"id":"2050300025"},{"name":"こどもプラス長野青木島教室","nameKana":"こどもぷらすながのあおきじまきょうしつ","corp":"株式会社ヒューマンインデックス","serviceTypes":["児童発達支援","放課後等デイサービス"],"ward":"長野市","address":"長野県長野市青木島町大塚１００９−１ダイニチビル１F","tel":"026-285-0820","url":"","lat":36.61038464,"lng":138.19344361,"weekday":"09:00-15:00","saturday":"10:00-16:00","sunday":"","holiday":"10:00-15:00","closed":"土曜、日曜、お盆（8/13〜8/16）、年末年始（12/29〜1/3）","capacity":10,"id":"2050100474"},{"name":"こどもプラス丹波島教室","nameKana":"こどもぷらすたんばじまきょうしつ","corp":"株式会社ヒューマンインデックス","serviceTypes":["児童発達支援","放課後等デイサービス"],"ward":"長野市","address":"長野県長野市丹波島１−５９０","tel":"026-217-8901","url":"","lat":36.61845524,"lng":138.17376167,"weekday":"09:00-16:00","saturday":"09:00-16:00","sunday":"","holiday":"09:00-16:00","closed":"土曜、日曜、お盆(8/13〜8/16)年末年始（12/29〜1/3）","capacity":10,"id":"2050100904"},{"name":"芽吹き岡谷店","nameKana":"めぶきおかやてん","corp":"株式会社オフィスハナオカ","serviceTypes":["児童発達支援"],"ward":"岡谷市","address":"長野県岡谷市長地権現町２丁目１番68号","tel":"0266-75-0226","url":"https://h-mebuki.jp/","lat":36.06622002,"lng":138.07090698,"weekday":"","saturday":"","sunday":"","holiday":"","closed":"","capacity":null,"id":"2050400098"},{"name":"学習サポートｓｃｒｕｍＰＬＵＳ飯田鼎校","nameKana":"がくしゅうさぽーとすくらむぷらすいいだかなえこう","corp":"株式会社Ｏｃｅａｎ　Ｏｎｅ","serviceTypes":["児童発達支援","放課後等デイサービス"],"ward":"飯田市","address":"長野県飯田市鼎下山856-5下山ビル２階Ｆ号室","tel":"0265-49-4195","url":"","lat":35.5054458,"lng":137.83309001,"weekday":"15:00-20:00","saturday":"13:00-18:00","sunday":"","holiday":"","closed":"日曜・祝日・年末年始（12/29〜1/3）","capacity":null,"id":"2050500384"},{"name":"飯田市こども発達センターひまわり","nameKana":"いいだしこどもはったつせんたーひまわり","corp":"飯田市","serviceTypes":["児童発達支援","居宅訪問型児童発達支援"],"ward":"飯田市","address":"長野県飯田市松尾新井５９３３−２","tel":"0265-23-6097","url":"","lat":35.50103561,"lng":137.85056614,"weekday":"09:00-15:00","saturday":"09:00-12:30","sunday":"","holiday":"","closed":"日曜日、祝日、土曜日（行事のある土曜日を除く）、12/29〜1/3","capacity":36,"id":"2050500012"},{"name":"みらいこども飯田上郷黒田教室","nameKana":"みらいこどもいいだかみさとくろだきょうしつ","corp":"株式会社みらい福祉会","serviceTypes":["児童発達支援","放課後等デイサービス"],"ward":"飯田市","address":"長野県飯田市上郷黒田2109-1","tel":"0265-49-8911","url":"","lat":35.53009861,"lng":137.84009383,"weekday":"11:00-14:00","saturday":"09:30-12:00","sunday":"","holiday":"09:30-12:00","closed":"盆正月に利用者と相談の上、定休日をとる場合がある","capacity":10,"id":"2050500236"},{"name":"みらいこども伊那中央教室","nameKana":"みらいこどもいなちゅうおうきょうしつ","corp":"株式会社みらい福祉会","serviceTypes":["児童発達支援","放課後等デイサービス"],"ward":"伊那市","address":"長野県伊那市中央5146-1","tel":"0265-48-0336","url":"","lat":35.84374243,"lng":137.9701555,"weekday":"11:00-14:00","saturday":"09:30-11:00","sunday":"","holiday":"09:30-11:00","closed":"日及び盆正月","capacity":10,"id":"2050900212"},{"name":"みらいこども松本寿北教室","nameKana":"みらいこどもまつもとことぶききたきょうしつ","corp":"株式会社みらい福祉会","serviceTypes":["児童発達支援","放課後等デイサービス"],"ward":"松本市","address":"長野県松本市寿北3丁目1-22","tel":"0263-88-2619","url":"","lat":36.20135646,"lng":137.97009343,"weekday":"11:00-14:00","saturday":"09:30-11:00","sunday":"","holiday":"09:30-11:00","closed":"盆正月に利用者と相談の上、定休日をとる場合がある","capacity":10,"id":"2050200449"},{"name":"みらいこども松本平田教室","nameKana":"みらいこどもまつもとひらたきょうしつ","corp":"株式会社みらい福祉会","serviceTypes":["児童発達支援","放課後等デイサービス"],"ward":"松本市","address":"長野県松本市平田西1-1-11","tel":"0263-31-6339","url":"","lat":36.19577075,"lng":137.96266657,"weekday":"11:00-14:00","saturday":"09:30-11:00","sunday":"","holiday":"09:30-11:00","closed":"日曜日祝日","capacity":10,"id":"2050200779"},{"name":"すわっこホーム","nameKana":"すわっこほーむ","corp":"合同会社すわっこホーム","serviceTypes":["児童発達支援"],"ward":"諏訪市","address":"長野県諏訪市豊田長野県諏訪市豊田310−3","tel":"0266557314","url":"https://www.suwakko-home.com","lat":36.02908121,"lng":138.10678793,"weekday":"09:00-18:00","saturday":"09:00-17:00","sunday":"","holiday":"","closed":"日曜・国民の祝日・８月１４日〜１６日、１２月２９日〜１月３日","capacity":10,"id":"2050600176"},{"name":"ふらっぷ諏訪","nameKana":"ふらっぷすわ","corp":"株式会社L Peace","serviceTypes":["児童発達支援"],"ward":"諏訪市","address":"長野県諏訪市沖田町１丁目131番地１AIビル2階","tel":"0266-78-3601","url":"https://lily-inc.jp/works/#jidou","lat":36.00929011,"lng":138.13330036,"weekday":"13:00-17:30","saturday":"","sunday":"","holiday":"09:30-16:00","closed":"土・日・お盆期間・年末年始","capacity":10,"id":"2050600192"},{"name":"スマイルひろば匠　長野若宮店","nameKana":"すまいるひろばたくみながのわかみやてん","corp":"タクミエイト株式会社","serviceTypes":["児童発達支援"],"ward":"長野市","address":"長野県長野市若宮2丁目6-3","tel":"026-477-2355","url":"https://www.takumi-smile.com/","lat":36.6459399,"lng":138.22568888,"weekday":"08:45-16:00","saturday":"","sunday":"","holiday":"","closed":"土曜、日曜、祝日、お盆、年末年始","capacity":10,"id":"2050100961"},{"name":"特定非営利活動法人　ＳＴＡＲＳ","nameKana":"すたーず","corp":"特定非営利活動法人STARS","serviceTypes":["児童発達支援","放課後等デイサービス"],"ward":"須坂市","address":"長野県須坂市大字須坂常盤町752-ｲ","tel":"0262143756","url":"https://stars.or.jp/","lat":36.65109711,"lng":138.30719118,"weekday":"15:00-18:00","saturday":"10:00-15:00","sunday":"","holiday":"","closed":"","capacity":10,"id":"2050700125"},{"name":"みんなの家タブノキ","nameKana":"みんなのいえたぶのき","corp":"株式会社タブノキ","serviceTypes":["児童発達支援","放課後等デイサービス"],"ward":"小諸市","address":"長野県小諸市市９７番地","tel":"0267-31-5605","url":"","lat":36.28634347,"lng":138.43746664,"weekday":"","saturday":"","sunday":"","holiday":"","closed":"","capacity":null,"id":"2050800149"},{"name":"小諸市ひまわり園","nameKana":"こもろしひまわりえん","corp":"社会福祉法人小諸学舎","serviceTypes":["児童発達支援","放課後等デイサービス"],"ward":"小諸市","address":"長野県小諸市大字諸682番地4−","tel":"0267-23-3687","url":"http://www.komorogakusha.jp","lat":36.34454988,"lng":138.41335292,"weekday":"09:00-15:00","saturday":"00:00-00:00","sunday":"00:00-00:00","holiday":"00:00-00:00","closed":"土日曜日、１２月２９日から翌年１月３日までと、国民の祝日","capacity":10,"id":"2050800115"},{"name":"学習サポートｓｃｒｕｍＰＬＵＳ伊那校第１教室","nameKana":"がくしゅうさぽーとすくらむぷらすいなこうだいいちきょうしつ","corp":"株式会社ＹＡＥ","serviceTypes":["児童発達支援","放課後等デイサービス"],"ward":"伊那市","address":"長野県伊那市西町5111-16田村ビル１F東","tel":"0265-96-7381","url":"","lat":35.83325737,"lng":137.95171309,"weekday":"13:00-19:00","saturday":"13:00-19:00","sunday":"","holiday":"","closed":"日曜日、祝日、年末年始、お盆期間","capacity":10,"id":"2050900253"},{"name":"小鳩園","nameKana":"こばとえん","corp":"伊那市","serviceTypes":["児童発達支援"],"ward":"伊那市","address":"長野県伊那市山寺1499番地７","tel":"0265-72-2576","url":"","lat":35.84715577,"lng":137.96598634,"weekday":"09:00-15:30","saturday":"","sunday":"","holiday":"","closed":"土曜日曜祝日、年末年始12/29〜1/3","capacity":30,"id":"2050900014"},{"name":"医療法人すずらん多機能型事業所わくわく","nameKana":"いりょうほうじんすずらんたきのうがたじぎょうしょわくわく","corp":"医療法人すずらん","serviceTypes":["児童発達支援","放課後等デイサービス"],"ward":"上伊那郡宮田村","address":"長野県上伊那郡宮田村3508番地8","tel":"0265-98-6656","url":"","lat":35.76258236,"lng":137.93825486,"weekday":"09:00-15:00","saturday":"","sunday":"","holiday":"","closed":"土日・祝祭日・お盆・年末年始","capacity":10,"id":"2052400179"},{"name":"駒ヶ根市児童発達支援施設　つくし園","nameKana":"こまがねしじどうはったつしえんしせつつくしえん","corp":"駒ヶ根市","serviceTypes":["児童発達支援","放課後等デイサービス"],"ward":"駒ヶ根市","address":"長野県駒ヶ根市上穂栄町２３番３号","tel":"0265-82-4012","url":"https://www.city.komagane.lg.jp","lat":35.73739008,"lng":137.92978508,"weekday":"09:00-17:00","saturday":"","sunday":"","holiday":"","closed":"土曜日　日曜日　祝日　年末年始(12月29日から翌年1月3日）他事業所が決めた日","capacity":20,"id":"2051000012"},{"name":"伊南訪問看護ステーション","nameKana":"いなんほうもんかんごすてーしょん","corp":"社会福祉法人伊南福祉会","serviceTypes":["児童発達支援","放課後等デイサービス"],"ward":"駒ヶ根市","address":"長野県駒ヶ根市赤穂3213番地1","tel":"0265816620","url":"https://inanfukushi.or.jp","lat":35.73602566,"lng":137.91937546,"weekday":"09:00-15:00","saturday":"","sunday":"","holiday":"","closed":"土・日曜日、祝日、12月29日〜1月3日","capacity":5,"id":"2051000160"},{"name":"しろくま","nameKana":"しろくま","corp":"有限会社武井建築所","serviceTypes":["児童発達支援","放課後等デイサービス"],"ward":"駒ヶ根市","address":"長野県駒ヶ根市赤穂4585-3","tel":"09030615102","url":"","lat":35.72862454,"lng":137.92926867,"weekday":"09:00-18:00","saturday":"","sunday":"","holiday":"","closed":"祝祭日　8月13日〜16日、12月28日〜1月5日および事業所の定める休業日","capacity":10,"id":"2051000145"},{"name":"ひふみ中野たかおか教室","nameKana":"ひふみなかのたかおかきょうしつ","corp":"株式会社ひふみ","serviceTypes":["児童発達支援"],"ward":"中野市","address":"長野県中野市草間1161-5","tel":"0269-38-0258","url":"http://takaoka.k-hfm.com/","lat":36.73451833,"lng":138.32381602,"weekday":"09:00-14:00","saturday":"09:00-14:00","sunday":"","holiday":"09:00-14:00","closed":"日曜日・１２月２９日〜１月３日・８月１３日〜８月１６日","capacity":10,"id":"2051100127"},{"name":"ひふみ千曲あわさ教室","nameKana":"ひふみちくまあわさきょうしつ","corp":"株式会社ひふみ","serviceTypes":["児童発達支援"],"ward":"千曲市","address":"長野県千曲市粟佐１２９５−１","tel":"026-214-2596","url":"https://awasa.k-hfm.com/","lat":36.53505397,"lng":138.11983587,"weekday":"10:00-13:00","saturday":"10:00-13:00","sunday":"","holiday":"10:00-13:00","closed":"日曜日・12月２９日〜１月３日・８月１３日〜８月１６日","capacity":10,"id":"2051800205"},{"name":"ひふみ信州中野教室","nameKana":"ひふみしんしゅうなかのきょうしつ","corp":"株式会社ひふみ","serviceTypes":["児童発達支援","放課後等デイサービス"],"ward":"中野市","address":"長野県中野市岩船419番地1","tel":"0269-38-1265","url":"http://kp-nagano-nakano.com/","lat":36.74389343,"lng":138.36340327,"weekday":"14:00-17:00","saturday":"09:00-14:00","sunday":"","holiday":"09:00-14:00","closed":"日曜日・12月29日〜１月３日・８月13日〜８月16日","capacity":10,"id":"2051100077"},{"name":"脳を育てる運動療育センター　こどもプラス千曲桜堂教室","nameKana":"のうをそだてるうんどうりょういくせんたーこどもぷらすちくまさくらどうきょうしつ","corp":"株式会社ひふみ","serviceTypes":["児童発達支援"],"ward":"千曲市","address":"長野県千曲市桜堂335-1","tel":"026-214-3880","url":"https://sakurado.k-hfm.com/","lat":36.52738273,"lng":138.12265227,"weekday":"10:00-13:00","saturday":"10:00-13:00","sunday":"","holiday":"10:00-13:00","closed":"日曜日、年末年始（１２月２９日〜１月３日）、お盆（8月１３日から８月１６日）","capacity":10,"id":"2051800171"},{"name":"かすたねっと","nameKana":"かすたねっと","corp":"高水福祉会","serviceTypes":["児童発達支援","放課後等デイサービス"],"ward":"中野市","address":"長野県中野市笠原765-1","tel":"080-1079-2487","url":"","lat":36.78866328,"lng":138.35588385,"weekday":"09:00-16:00","saturday":"","sunday":"","holiday":"","closed":"土日祝日他事業所カレンダーによる（盆、年始年始等）","capacity":8,"id":"2051100028"},{"name":"ひふみ北長野教室","nameKana":"ひふみきたながのきょうしつ","corp":"株式会社ひふみ","serviceTypes":["児童発達支援","放課後等デイサービス"],"ward":"長野市","address":"長野県長野市中越2丁目34-34","tel":"026-217-2094","url":"https://kita.k-hfm.com/","lat":36.66546416,"lng":138.2226839,"weekday":"09:00-17:00","saturday":"10:00-17:00","sunday":"","holiday":"10:00-17:00","closed":"日曜日、８/13〜8/16、12/29〜1/3","capacity":10,"id":"2050100805"},{"name":"ひふみ中越教室","nameKana":"ひふみなかごえきょうしつ","corp":"株式会社ひふみ","serviceTypes":["児童発達支援","放課後等デイサービス"],"ward":"長野市","address":"長野県長野市中越１丁目６番17号","tel":"026-217-1203","url":"https://nakagoe.k-hfm.com/","lat":36.65914309,"lng":138.22290881,"weekday":"09:00-14:00","saturday":"09:00-14:00","sunday":"","holiday":"09:00-14:00","closed":"毎週日曜日、8/13〜8/16、12/29〜1/3","capacity":10,"id":"2050100862"},{"name":"ひふみ長野吉田教室","nameKana":"ひふみながのよしだきょうしつ","corp":"株式会社ひふみ","serviceTypes":["児童発達支援","放課後等デイサービス"],"ward":"長野市","address":"長野県長野市吉田１丁目１６−１８","tel":"026-219-5501","url":"https://yoshida.k-hfm.com/","lat":36.66968542,"lng":138.2121101,"weekday":"10:00-12:00","saturday":"10:00-16:00","sunday":"","holiday":"10:00-16:00","closed":"日曜日、お盆休み（8月13日〜８月16日）、正月","capacity":10,"id":"2050100425"},{"name":"ひふみ長野若槻教室","nameKana":"ひふみながのわかつききょうしつ","corp":"株式会社ひふみ","serviceTypes":["児童発達支援","放課後等デイサービス"],"ward":"長野市","address":"長野県長野市稲田2丁目11-7","tel":"026-219-6303","url":"http://kp-nagano-wakatsuki.com","lat":36.67534852,"lng":138.22268672,"weekday":"09:00-17:00","saturday":"09:00-17:00","sunday":"","holiday":"09:00-17:00","closed":"日曜日・お盆・年末年始","capacity":10,"id":"2050100516"},{"name":"NPO法人キッズウィルたからばこ","nameKana":"えぬぴーおーほうじんきっずうぃるたからばこ","corp":"キッズウィル","serviceTypes":["児童発達支援","放課後等デイサービス"],"ward":"大町","address":"長野県大町市大町1123番地11たからばこ","tel":"0261-85-0203","url":"https://www.kidswill.net/","lat":36.50579741,"lng":137.86210732,"weekday":"09:00-14:00","saturday":"","sunday":"","holiday":"","closed":"土・日・祝日・12月28日〜1月3日","capacity":10,"id":"2051200109"},{"name":"ＮＰＯ法人キッズウィル　遊学舎","nameKana":"えぬぴーおーほうじんきっずうぃるゆうがくしゃ","corp":"キッズウィル","serviceTypes":["児童発達支援","放課後等デイサービス"],"ward":"大町","address":"長野県大町市大町2544番地４遊学舎","tel":"0261-85-4055","url":"https://www.kidswill.net/","lat":36.50552517,"lng":137.86021023,"weekday":"09:00-14:00","saturday":"","sunday":"","holiday":"","closed":"土・日・祝日・12月29日〜1月3日","capacity":20,"id":"2051200091"},{"name":"ＮＰＯ法人キッズウィル児童支援センター","nameKana":"えぬぴーおーほうじんきっずうぃるじどうしえんせんたー","corp":"キッズウィル","serviceTypes":["児童発達支援","放課後等デイサービス"],"ward":"大町","address":"長野県大町市大町1275番地３児童支援センター","tel":"0261-85-2440","url":"https://www.kidswill.net/","lat":36.5116716,"lng":137.86058509,"weekday":"09:00-14:00","saturday":"","sunday":"","holiday":"","closed":"土・日・祝日・12月29日〜1月3日","capacity":20,"id":"2051200018"},{"name":"この街きっず学園","nameKana":"このまちきっずがくえん","corp":"社会福祉法人この街福祉会","serviceTypes":["児童発達支援"],"ward":"諏訪市","address":"長野県諏訪市大字四賀388-7","tel":"0266-58-2343","url":"https://www.konomachi.or.jp/","lat":36.023938,"lng":138.12834193,"weekday":"09:30-14:30","saturday":"09:30-11:45","sunday":"","holiday":"","closed":"日曜・祝日","capacity":30,"id":"2050600010"},{"name":"児童発達支援事業所あすなろ園","nameKana":"じどうはったつしえんじぎょうしょあすなろえん","corp":"塩尻市社会福祉協議会","serviceTypes":["児童発達支援"],"ward":"塩尻市","address":"長野県塩尻市広丘野村1788番地86","tel":"0263-87-4013","url":"http://www.shiojirishakyo.or.jp","lat":36.14491007,"lng":137.96173814,"weekday":"09:00-15:30","saturday":"","sunday":"","holiday":"","closed":"土曜日、日曜日、国民の休日、12月29日〜1月3日まで","capacity":10,"id":"2051500011"},{"name":"WAKUWAKUすたじお","nameKana":"わくわくすたじお","corp":"一般社団法人ＷＡＫＵＷＡＫＵＰＲＯＪＥＣＴＪＡＰＡＮ","serviceTypes":["児童発達支援"],"ward":"諏訪市","address":"長野県諏訪市湖岸通り五丁目19番15号1号","tel":"0266-75-1226","url":"http://www.waku-project.com/index.html","lat":36.04244064,"lng":138.11347021,"weekday":"08:30-16:30","saturday":"08:30-16:30","sunday":"08:30-16:30","holiday":"08:30-16:30","closed":"日(第3日曜日は除く）、第３月曜日が祝日の場合（第３火曜日休み）","capacity":10,"id":"2051500110"},{"name":"多機能型通所支援事業所リーノ２","nameKana":"たきのうがたつうしょしえんじぎょうしょりーのつー","corp":"株式会社オープンハート","serviceTypes":["児童発達支援","放課後等デイサービス"],"ward":"塩尻市","address":"長野県塩尻市広丘吉田50-7１階東","tel":"0263-75-4171","url":"https://www.lino.co.jp/","lat":36.17162366,"lng":137.96170647,"weekday":"09:30-12:30","saturday":"","sunday":"","holiday":"","closed":"土曜び、日曜日、祝日","capacity":10,"id":"2051500136"},{"name":"多機能型通所支援事業所　リーノ","nameKana":"たきのうがたつうしょしえんじぎょうしょりーの","corp":"株式会社オープンハート","serviceTypes":["児童発達支援"],"ward":"塩尻市","address":"長野県塩尻市広丘吉田50-7","tel":"0263-75-4171","url":"https://www.lino.co.jp/","lat":36.17162921,"lng":137.9612454,"weekday":"09:20-12:20","saturday":"","sunday":"","holiday":"","closed":"土曜び、日曜日、祝日","capacity":10,"id":"2051500128"},{"name":"わくわくキッズルーム佐久平","nameKana":"わくわくきっずるーむさくだいら","corp":"株式会社cec.H","serviceTypes":["児童発達支援","放課後等デイサービス"],"ward":"佐久市","address":"長野県佐久市中込３４６４番地１Fビル2階","tel":"0267-78-5761","url":"https://www.wakuwakusaku.com/","lat":36.25162595,"lng":138.47619982,"weekday":"09:30-13:30","saturday":"09:30-13:30","sunday":"","holiday":"09:30-13:30","closed":"日曜","capacity":10,"id":"2051700272"},{"name":"わくわくキッズルーム佐久平　市役所前","nameKana":"わくわくきっずるーむさくだいらしやくしょまえ","corp":"株式会社cec.H","serviceTypes":["児童発達支援","放課後等デイサービス"],"ward":"佐久市","address":"長野県佐久市中込3465番地2佐藤ビル1階","tel":"0267-88-6037","url":"https://www.wakuwakusaku.com/","lat":36.2514593,"lng":138.47614983,"weekday":"09:30-14:00","saturday":"09:30-14:00","sunday":"","holiday":"09:30-14:00","closed":"日曜日","capacity":10,"id":"2051700314"},{"name":"さくだいらキッズらぼ岩村田教室","nameKana":"さくだいらきっずらぼいわむらたきょうしつ","corp":"合同会社さくらぼ","serviceTypes":["児童発達支援"],"ward":"佐久市","address":"長野県佐久市岩村田５０３７−１０YORIビル１A号室","tel":"0267-78-5825","url":"https://s-k-l.com","lat":36.27475698,"lng":138.47393822,"weekday":"10:00-14:00","saturday":"","sunday":"","holiday":"","closed":"","capacity":10,"id":"2051700298"},{"name":"デイサービス桜花","nameKana":"でいさーびすおうか","corp":"エフビー介護サービス株式会社","serviceTypes":["児童発達支援","放課後等デイサービス"],"ward":"小諸市","address":"長野県小諸市八満68番地１","tel":"0267-26-0807","url":"","lat":36.32152317,"lng":138.45495852,"weekday":"08:30-17:30","saturday":"08:30-17:30","sunday":"","holiday":"08:30-17:30","closed":"日曜日、12/31〜1/3","capacity":18,"id":"2050800131"},{"name":"佐久市療育支援センター","nameKana":"さくしりょういくしえんせんたー","corp":"佐久市","serviceTypes":["児童発達支援"],"ward":"佐久市","address":"長野県佐久市御馬寄1359番地４","tel":"0267-58-1011","url":"","lat":36.27486668,"lng":138.4172103,"weekday":"09:15-13:15","saturday":"","sunday":"","holiday":"","closed":"土日・祝日","capacity":20,"id":"2051700025"},{"name":"ひまわり","nameKana":"ひまわり","corp":"社会福祉法人佐久コスモス福祉会","serviceTypes":["児童発達支援","放課後等デイサービス"],"ward":"佐久市","address":"長野県佐久市大沢1280番地１","tel":"0267-64-5033","url":"http://www.saku-cosmos.or.jp","lat":36.20553034,"lng":138.46213833,"weekday":"09:00-16:00","saturday":"","sunday":"","holiday":"","closed":"土、日曜、法人の定める夏季休暇及び年末年始休暇","capacity":5,"id":"2051700033"},{"name":"たんとキッズあおき","nameKana":"たんときっずあおき","corp":"特定非営利活動法人たんと","serviceTypes":["児童発達支援"],"ward":"小県郡青木村","address":"長野県小県郡青木村大字田沢3075-1","tel":"0268-75-6789","url":"https://www.npotanto.org","lat":36.3707455,"lng":138.11695953,"weekday":"09:00-17:00","saturday":"","sunday":"","holiday":"","closed":"土日（祝祭日については、協議の上開所も検討していく）","capacity":10,"id":"2052200017"},{"name":"児童発達支援・放課後等デイサービスみらいいろほーぷ","nameKana":"じどうはったつしえんほうかごとうでいさーびすみらいいろほーぷ","corp":"合同会社 LaShicu","serviceTypes":["児童発達支援"],"ward":"千曲市","address":"長野県千曲市打沢15-1","tel":"026-214-2910","url":"","lat":36.52434985,"lng":138.12534365,"weekday":"10:00-15:00","saturday":"","sunday":"","holiday":"10:00-15:00","closed":"土曜日、日曜日","capacity":null,"id":"2051800221"},{"name":"ひなた埴生教室","nameKana":"ひなたはにゅうきょうしつ","corp":"Hinata株式会社","serviceTypes":["児童発達支援","放課後等デイサービス"],"ward":"千曲市","address":"長野県千曲市寂蒔954-8ひなた埴生教室","tel":"026-214-7546","url":"https://k-hinata.co.jp/hanyu/","lat":36.51737868,"lng":138.13137085,"weekday":"10:00-18:00","saturday":"09:00-17:00","sunday":"00:00-00:00","holiday":"09:00-17:00","closed":"お盆(8/13〜8/16)、年末年始(12/29〜1/3）","capacity":10,"id":"2051800239"},{"name":"児童発達支援・放課後等デイサービスここりっと","nameKana":"じどうはったつしえんほうかごとうでいさーびすここりっと","corp":"Brighters株式会社","serviceTypes":["児童発達支援","放課後等デイサービス"],"ward":"千曲市","address":"長野県千曲市粟佐1245番地1","tel":"026-214-5663","url":"https://brighters.xbiz.jp/","lat":36.5383286,"lng":138.11955805,"weekday":"09:30-17:30","saturday":"","sunday":"","holiday":"","closed":"土、日、祝日、8月13日〜16日、12月30日〜1月3日","capacity":10,"id":"2051800247"},{"name":"稲荷山医療福祉センター","nameKana":"いなりやまいりょうふくしせんたー","corp":"社会福祉法人信濃整肢療護園","serviceTypes":["児童発達支援","放課後等デイサービス"],"ward":"千曲市","address":"長野県千曲市大字野高場1835-9","tel":"026-272-1435","url":"http://www.timelyhit.ne.jp/inasenta/","lat":36.538431,"lng":138.10863978,"weekday":"09:00-16:30","saturday":"","sunday":"","holiday":"","closed":"土日祝及び12月30日〜1月3日","capacity":30,"id":"2051800031"},{"name":"けいあいフレンズ（重心）","nameKana":"けいあいふれんずじゅうしん","corp":"社会福祉法人八葉会","serviceTypes":["児童発達支援","放課後等デイサービス"],"ward":"千曲市","address":"長野県千曲市稲荷山3842-1","tel":"026-214-1311","url":"http://www.hachiyoukai.or.jp/friends.html","lat":36.52769003,"lng":138.09513782,"weekday":"08:30-13:30","saturday":"08:30-13:30","sunday":"","holiday":"08:30-13:30","closed":"日曜日","capacity":7,"id":"2051800254"},{"name":"けいあいフレンズ","nameKana":"けいあいふれんず","corp":"社会福祉法人八葉会","serviceTypes":["児童発達支援","放課後等デイサービス"],"ward":"千曲市","address":"長野県千曲市稲荷山3842-1","tel":"026-214-1311","url":"http://www.hachiyoukai.or.jp/friends.html","lat":36.52752894,"lng":138.0954878,"weekday":"08:30-13:30","saturday":"08:30-13:30","sunday":"","holiday":"08:30-13:30","closed":"日曜日","capacity":10,"id":"2051800155"},{"name":"マイソミ","nameKana":"まいそみ","corp":"社会福祉法人みまき福祉会","serviceTypes":["児童発達支援"],"ward":"東御市","address":"長野県東御市布下６番地１","tel":"0268-61-6001","url":"","lat":36.33548045,"lng":138.36153458,"weekday":"","saturday":"","sunday":"","holiday":"","closed":"","capacity":null,"id":"2051900070"},{"name":"岩井屋こども館","nameKana":"いわいやこどもかん","corp":"特定非営利活動法人普通の暮らし研究所","serviceTypes":["児童発達支援","放課後等デイサービス"],"ward":"東御市","address":"長野県東御市御牧原1402-1","tel":"0268-75-7596","url":"http://www.iwaiya.org","lat":36.31019474,"lng":138.36618284,"weekday":"10:00-14:30","saturday":"","sunday":"","holiday":"09:00-17:00","closed":"土日祝日、GW、お盆、年末年始","capacity":10,"id":"2051900013"},{"name":"ゆうスマイル","nameKana":"ゆうすまいる","corp":"ゆう合同会社","serviceTypes":["児童発達支援","放課後等デイサービス"],"ward":"安曇野市","address":"長野県安曇野市豊科南穂高574-2","tel":"0263-87-3708","url":"","lat":36.33302264,"lng":137.91155524,"weekday":"09:00-17:00","saturday":"09:00-17:00","sunday":"","holiday":"09:00-17:00","closed":"日曜日・年末年始","capacity":5,"id":"2054000308"},{"name":"くれよん","nameKana":"くれよん","corp":"合同会社彩","serviceTypes":["児童発達支援","放課後等デイサービス"],"ward":"安曇野市","address":"長野県安曇野市明科光818番地2","tel":"0263-74-8854","url":"","lat":36.32500726,"lng":137.92924536,"weekday":"14:00-17:30","saturday":"09:30-16:30","sunday":"","holiday":"09:30-16:30","closed":"","capacity":10,"id":"2054000332"},{"name":"サンクス　ゆめぽけっと","nameKana":"さんくすゆめぽけっと","corp":"サンクスクリエーション合同会社","serviceTypes":["児童発達支援","放課後等デイサービス"],"ward":"安曇野市","address":"長野県安曇野市穂高有明９９９０−１","tel":"0263-88-2345","url":"","lat":36.34615266,"lng":137.86163108,"weekday":"09:00-18:00","saturday":"","sunday":"","holiday":"","closed":"土曜日、日曜日　祝祭日　お盆休み　年末年始","capacity":10,"id":"2054000217"},{"name":"多機能型事業所やまびこ学園","nameKana":"たきのうがたじぎょうしょやまびこがくえん","corp":"社会福祉法人安曇野福祉協会","serviceTypes":["児童発達支援","放課後等デイサービス"],"ward":"安曇野市","address":"長野県安曇野市豊科5126番地１福祉ぬくもりセンター1階","tel":"0263-72-5678","url":"https://azuminofukushi.jp/","lat":36.29801204,"lng":137.89473523,"weekday":"09:00-13:00","saturday":"","sunday":"","holiday":"","closed":"土・日・祝祭日、12月29日から1月3日まで","capacity":6,"id":"2054000019"},{"name":"療育センター　そらいろ","nameKana":"そらいろ","corp":"特定非営利活動法人ＫＵＭＯＩ","serviceTypes":["児童発達支援","放課後等デイサービス"],"ward":"北安曇郡小谷村","address":"長野県北安曇郡小谷村千国乙4020","tel":"0261-82-2316","url":"","lat":36.7790669,"lng":137.908405,"weekday":"09:00-15:00","saturday":"","sunday":"","holiday":"","closed":"","capacity":10,"id":"2052900095"},{"name":"あおぞら　えーる","nameKana":"あおぞらえーる","corp":"有限会社中部エンジニア","serviceTypes":["児童発達支援"],"ward":"安曇野市","address":"長野県安曇野市三郷温６０８４−１","tel":"0263-77-1238","url":"","lat":36.26626502,"lng":137.88181772,"weekday":"08:30-14:30","saturday":"","sunday":"","holiday":"","closed":"土日祝日・12／29〜1／4・8／12〜8／16","capacity":10,"id":"2054000233"},{"name":"あおぞらnobi","nameKana":"あおぞらのび","corp":"有限会社中部エンジニア","serviceTypes":["児童発達支援","放課後等デイサービス"],"ward":"安曇野市","address":"長野県安曇野市三郷温6084-1","tel":"0263-77-7320","url":"","lat":36.26626502,"lng":137.88181772,"weekday":"09:00-13:30","saturday":"09:00-17:30","sunday":"","holiday":"","closed":"日曜日・祝日・１２月２９日から１月３日・８月１１日から８月１５日","capacity":10,"id":"2054000159"},{"name":"あゆみ園","nameKana":"あゆみえん","corp":"小海町佐久穂町川上村南牧村南相木村北相木村","serviceTypes":["児童発達支援"],"ward":"南佐久郡小海町","address":"長野県南佐久郡小海町大字豊里805番地やすらぎ園内","tel":"0267-92-4381","url":"","lat":36.08366395,"lng":138.48025039,"weekday":"09:00-16:00","saturday":"","sunday":"","holiday":"","closed":"土曜日曜祝祭日","capacity":10,"id":"2052000011"},{"name":"児童発達支援センター","nameKana":"じどうはったつしえんせんたー","corp":"特定非営利活動法人四季","serviceTypes":["児童発達支援"],"ward":"北佐久郡軽井沢町","address":"長野県北佐久郡軽井沢町大字追分1422番地","tel":"0267416133","url":"https://www.nanairo-karuizawa.com/","lat":36.34279995,"lng":138.55317024,"weekday":"09:00-15:00","saturday":"","sunday":"","holiday":"","closed":"土・日曜日・祝日","capacity":20,"id":"2052100084"},{"name":"親子支援センター　ハンナ","nameKana":"おやこしえんせんたーはんな","corp":"株式会社アカデミー","serviceTypes":["児童発達支援","放課後等デイサービス"],"ward":"北佐久郡御代田町","address":"長野県北佐久郡御代田町大字塩野3180番地558","tel":"0267-32-1294","url":"","lat":36.33528916,"lng":138.50858333,"weekday":"09:00-18:00","saturday":"","sunday":"","holiday":"","closed":"土・日・祝日","capacity":7,"id":"2052100100"},{"name":"重症心身障害児（者）通園事業　もあ","nameKana":"じゅうしょうしんしんしょうがいじしゃつうえんじぎょうもあ","corp":"社会福祉法人信濃医療福祉センター","serviceTypes":["児童発達支援","放課後等デイサービス"],"ward":"諏訪郡下諏訪町","address":"長野県諏訪郡下諏訪町社字花田６５２５−１","tel":"0266-27-8414","url":"http://www.shinano-iryo.jp/","lat":36.0694864,"lng":138.0801364,"weekday":"09:30-16:00","saturday":"","sunday":"","holiday":"","closed":"土・日・祝日、8/14〜8/16、12/29〜1/3","capacity":null,"id":"2052300031"},{"name":"バートんち","nameKana":"ばーとんち","corp":"株式会社バートポケット","serviceTypes":["児童発達支援","放課後等デイサービス"],"ward":"諏訪郡富士見町","address":"長野県諏訪郡富士見町落合4193番地","tel":"080-9698-5792","url":"https://www.bartpocket.com/","lat":35.91181889,"lng":138.24004601,"weekday":"10:30-17:30","saturday":"08:30-15:30","sunday":"","holiday":"","closed":"木土以外と会社公休日","capacity":5,"id":"2052300155"},{"name":"多機能型事業所ＳｏＲａ","nameKana":"たきのうがたじぎょうしょそら","corp":"合同会社ＯＨＡＮＡ","serviceTypes":["児童発達支援","放課後等デイサービス"],"ward":"上伊那郡辰野町","address":"長野県上伊那郡辰野町伊那富3305-57","tel":"0266-55-3112","url":"https://hhattatushien.wixsite.com/ohana","lat":35.97470759,"lng":137.98182815,"weekday":"09:00-17:00","saturday":"09:00-17:00","sunday":"","holiday":"09:00-17:00","closed":"日曜日は休業日　　","capacity":10,"id":"2052400260"},{"name":"箕輪町こども発達支援事業所若草園","nameKana":"みのわまちこどもはったつしえんじぎょうしょわかくさえん","corp":"箕輪町","serviceTypes":["児童発達支援"],"ward":"上伊那郡箕輪町","address":"長野県上伊那郡箕輪町三日町1456番地若草園","tel":"0265-79-7070","url":"","lat":35.89639476,"lng":137.99777966,"weekday":"09:00-16:00","saturday":"","sunday":"","holiday":"","closed":"国民の祝日に関する法律に規定する休日及び12月29日〜1月3日を除く","capacity":10,"id":"2052400146"},{"name":"ふれあいキッズみのわ教室","nameKana":"ふれあいきっずみのわきょうしつ","corp":"社会福祉法人ふれあい","serviceTypes":["児童発達支援","放課後等デイサービス"],"ward":"上伊那郡箕輪町","address":"長野県上伊那郡箕輪町大字中箕輪8944-1","tel":"0265-96-0185","url":"https://copelplus.copel.co.jp/","lat":35.90854056,"lng":137.99415188,"weekday":"09:00-17:00","saturday":"09:00-17:00","sunday":"09:00-17:00","holiday":"09:00-17:00","closed":"","capacity":10,"id":"2052400187"},{"name":"南箕輪村療育施設　たけのこ園","nameKana":"みなみみのわむらりょういくしせつたけのこえん","corp":"南箕輪村","serviceTypes":["児童発達支援"],"ward":"上伊那郡南箕輪村","address":"長野県上伊那郡南箕輪村南箕輪村1815-4","tel":"0265-98-6627","url":"","lat":35.88597021,"lng":137.96247154,"weekday":"","saturday":"","sunday":"","holiday":"","closed":"","capacity":20,"id":"2052400039"},{"name":"こどもプラス伊那第２","nameKana":"こどもぷらすいなだいに","corp":"スノーリンク株式会社","serviceTypes":["児童発達支援","放課後等デイサービス"],"ward":"伊那市","address":"長野県伊那市上の原8435-4","tel":"070-3194-206","url":"http://kp-ina2.com","lat":35.84409554,"lng":137.98909553,"weekday":"14:00-17:00","saturday":"10:00-17:00","sunday":"","holiday":"10:00-17:00","closed":"日曜日・8/13〜8/16・12/29〜1/3","capacity":10,"id":"2050900162"},{"name":"児童デイサービスてんま","nameKana":"じどうでいさーびすてんま","corp":"一般社団法人やすおか命の牧場","serviceTypes":["児童発達支援","放課後等デイサービス"],"ward":"下伊那郡泰阜村","address":"長野県下伊那郡泰阜村３２９６番地４","tel":"0260-26-2588","url":"","lat":35.37806686,"lng":137.84179836,"weekday":"11:00-17:00","saturday":"09:00-17:00","sunday":"","holiday":"08:00-17:00","closed":"日曜日・水曜日","capacity":null,"id":"2052500127"},{"name":"障害児通所支援事業所パドルダッククラブ","nameKana":"しょうがいじつうしょしえんじぎょうしょぱどるだっくくらぶ","corp":"社会福祉法人信濃こぶし会","serviceTypes":["児童発達支援","放課後等デイサービス","居宅訪問型児童発達支援"],"ward":"下伊那郡喬木村","address":"長野県下伊那郡喬木村小川933番地３","tel":"0265-33-5288","url":"https://kobushikai.or.jp","lat":35.5136847,"lng":137.8736994,"weekday":"09:00-15:00","saturday":"09:00-15:00","sunday":"","holiday":"09:00-15:00","closed":"土曜・日曜・祝日及び盆休み及び年末年始休み","capacity":10,"id":"2052500028"},{"name":"木曽こどもセンター","nameKana":"きそこどもせんたー","corp":"社会福祉法人木曽社会福祉事業協会","serviceTypes":["児童発達支援"],"ward":"木曽郡木曽町","address":"長野県木曽郡木曽町新開2136　","tel":"0264-22-3224","url":"http://kisoshaji.net","lat":35.85893998,"lng":137.71805751,"weekday":"09:30-14:15","saturday":"","sunday":"","holiday":"","closed":"土日祝日","capacity":10,"id":"2052600018"},{"name":"やんちゃkids東筑山形","nameKana":"やんちゃきっずとうちくやまがた","corp":"株式会社ブッソール","serviceTypes":["児童発達支援","放課後等デイサービス"],"ward":"東筑摩郡山形村","address":"長野県東筑摩郡山形村5059番地1","tel":"0263-88-8912","url":"http://www.yanchakids.com","lat":36.17632877,"lng":137.87556933,"weekday":"09:00-17:00","saturday":"09:00-17:00","sunday":"","holiday":"09:00-17:00","closed":"日曜日","capacity":10,"id":"2052700081"},{"name":"障害児通所支援事業所すばる","nameKana":"しょうがいじつうしょしえんじぎょうしょすばる","corp":"社会福祉法人山形村社会福祉協議会","serviceTypes":["児童発達支援","放課後等デイサービス"],"ward":"東筑摩郡山形村","address":"長野県東筑摩郡山形村4528-3","tel":"0263-87-8754","url":"http://poponet-yamagata.or.jp","lat":36.17297117,"lng":137.88189926,"weekday":"09:00-12:00","saturday":"","sunday":"","holiday":"","closed":"土日、祝祭日、年末年始（12月29日〜1月3日）","capacity":10,"id":"2052700073"},{"name":"児童発達支援・放課後等デイサービスるーむ","nameKana":"じどうはったつしえんほうかごとうでいさーびするーむ","corp":"株式会社ＫＲ","serviceTypes":["児童発達支援","放課後等デイサービス"],"ward":"北安曇郡松川村","address":"長野県北安曇郡松川村5347番地1","tel":"0261-85-2707","url":"","lat":36.39525152,"lng":137.86338891,"weekday":"","saturday":"","sunday":"","holiday":"","closed":"","capacity":null,"id":"2052900111"},{"name":"シュタイナー療育センター光こども園","nameKana":"しゅたいなーりょういくせんたーひかりこどもえん","corp":"一般社団法人シュタイナー療育センター","serviceTypes":["児童発達支援","放課後等デイサービス"],"ward":"北安曇郡松川村","address":"長野県北安曇郡松川村685-１","tel":"0261-85-0014","url":"http://steiner-ryouiku.net/","lat":36.41304858,"lng":137.84919254,"weekday":"08:30-13:30","saturday":"","sunday":"","holiday":"","closed":"土曜、日曜、祝日、国民の祝日、年末年始、職員研修の期間、年間行事に定められた時間","capacity":12,"id":"2052900012"},{"name":"児童支援デイサービス　つくし","nameKana":"じどうしえんでいさーびすつくし","corp":"特定非営利活動法人みんなの居場所未来スペース","serviceTypes":["児童発達支援","放課後等デイサービス"],"ward":"埴科郡坂城町","address":"長野県埴科郡坂城町坂城6624番地5長野県埴科郡坂城町大字南条４７１８−１","tel":"0268-82-7460","url":"http://r.goope.jp/mirai-space","lat":36.46115074,"lng":138.18594161,"weekday":"09:30-13:30","saturday":"09:30-13:30","sunday":"","holiday":"","closed":"事業所カレンダーによる","capacity":10,"id":"2053100026"},{"name":"就労準備多機能型児童通所支援事業所はんど","nameKana":"しゅうろうじゅんびたきのうがたじどうつうしょしえんじぎょうしょはんど","corp":"合同会社Ｓｅｃｏｎｄ","serviceTypes":["児童発達支援","放課後等デイサービス"],"ward":"飯山市","address":"長野県飯山市大字飯山5292-1","tel":"0269-67-0550","url":"https://www.second-llc.jp/","lat":36.87398313,"lng":138.37428739,"weekday":"09:00-14:00","saturday":"","sunday":"","holiday":"09:00-14:00","closed":"土曜、日曜、お盆、年末年始","capacity":10,"id":"2051300040"},{"name":"こどもサポート教室「きらり」千曲校","nameKana":"こどもさぽーときょうしつきらりちくまこう","corp":"株式会社クラ・ゼミ","serviceTypes":["児童発達支援","放課後等デイサービス"],"ward":"千曲市","address":"長野県千曲市大字桜堂523-38横嶋ビル2F","tel":"026-214-2870","url":"https://kirari-kodomo.com/around/around-282/","lat":36.53155179,"lng":138.1257936,"weekday":"10:00-19:00","saturday":"10:00-19:00","sunday":"","holiday":"10:00-19:00","closed":"月曜日","capacity":10,"id":"2051800197"},{"name":"こどもサポート教室「きらり」塩尻校","nameKana":"こどもさぽーときょうしつきらりしおじりこう","corp":"株式会社クラ・ゼミ","serviceTypes":["児童発達支援"],"ward":"塩尻市","address":"長野県塩尻市大門５７−９２０００ＰＯＳＴ葡萄の里１０２","tel":"0263316446","url":"https://kirari-kodomo.com/","lat":36.11465789,"lng":137.94597983,"weekday":"10:00-19:00","saturday":"10:00-19:00","sunday":"","holiday":"10:00-19:00","closed":"日曜日、GW、お盆休業、年末年始","capacity":10,"id":"2051500144"},{"name":"こどもサポート教室「きらり」長野駅前校","nameKana":"こどもさぽーときょうしつきらりながのえきまえこう","corp":"株式会社クラ・ゼミ","serviceTypes":["児童発達支援","放課後等デイサービス"],"ward":"長野市","address":"長野県長野市大字南長野南石堂町1323-9グランウエストビル1階","tel":"026-219-6171","url":"https://kirari-kodomo.com/","lat":36.64318914,"lng":138.18588243,"weekday":"10:00-19:00","saturday":"10:00-19:00","sunday":"","holiday":"10:00-19:00","closed":"日曜日","capacity":10,"id":"2050100698"},{"name":"こどもサポート教室「きらり」北長野校","nameKana":"こどもさぽーときょうしつきらりきたながのこう","corp":"株式会社クラ・ゼミ","serviceTypes":["児童発達支援","放課後等デイサービス"],"ward":"長野市","address":"長野県長野市吉田3丁目9-19信濃吉田駅前A-2ビル","tel":"026-217-1670","url":"http://kirari-kodomo.com/","lat":36.66780537,"lng":138.22131184,"weekday":"10:00-19:00","saturday":"10:00-19:00","sunday":"","holiday":"10:00-19:00","closed":"日曜日、月曜日","capacity":10,"id":"2050100748"},{"name":"こどもサポート教室「きらり」南松本校","nameKana":"こどもさぽーときょうしつきらりみなみまつもとこう","corp":"株式会社クラ・ゼミ","serviceTypes":["児童発達支援","放課後等デイサービス"],"ward":"松本市","address":"長野県松本市野溝西1-10-22江原テナント2F","tel":"0263-88-3022","url":"https://kirari-kodomo.com/","lat":36.20194726,"lng":137.9504925,"weekday":"10:00-19:00","saturday":"10:00-19:00","sunday":"","holiday":"10:00-19:00","closed":"日ほかお盆・年末年始・ゴールデンウィーク等会社の定める休業日","capacity":10,"id":"2050200480"},{"name":"コペルプラス　松本教室","nameKana":"こぺるぷらすまつもときょうしつ","corp":"株式会社クラ・ゼミ","serviceTypes":["児童発達支援","放課後等デイサービス"],"ward":"松本市","address":"長野県松本市並柳2-3-2cafe＆stay CASTANA１階","tel":"0263-50-6286","url":"","lat":36.21545502,"lng":137.98057237,"weekday":"10:00-18:00","saturday":"10:00-18:00","sunday":"","holiday":"10:00-18:00","closed":"日曜日、月曜日、8/13〜8/15、12/30〜1/3","capacity":10,"id":"2050200720"},{"name":"こどもサポート教室「きらり」松本校","nameKana":"こどもさぽーときょうしつきらりまつもとこう","corp":"株式会社クラ・ゼミ","serviceTypes":["児童発達支援","放課後等デイサービス"],"ward":"松本市","address":"長野県松本市白板1丁目7-31アーバンコートビレッジB","tel":"0263-50-5929","url":"http://kirari-kodomo.com/roominfo/%E9%95%B7%E9%87%8E-%E6%9D%BE%E6%9C%AC%E6%A0%A1","lat":36.23695672,"lng":137.96001262,"weekday":"10:00-19:00","saturday":"10:00-19:00","sunday":"","holiday":"10:00-19:00","closed":"日曜日　※その他年間計画表に基づく","capacity":10,"id":"2050200332"},{"name":"多機能型事業所わくわく","nameKana":"たきのうがたじぎょうしょわくわく","corp":"社会福祉法人樅の木福祉会","serviceTypes":["児童発達支援","放課後等デイサービス"],"ward":"小県郡長和町","address":"長野県小県郡長和町長久保455番地","tel":"0268-75-2831","url":"https://www.mominoki-kobe.net/","lat":36.2579422,"lng":138.26774581,"weekday":"09:30-14:00","saturday":"","sunday":"","holiday":"14:30-17:30","closed":"土曜日、日曜日、お盆休暇、年末年始休暇","capacity":10,"id":"2052200025"},{"name":"こどもプラス下之郷教室","nameKana":"こどもぷらすしものごうきょうしつ","corp":"就労支援型放課後デイサービス株式会社","serviceTypes":["放課後等デイサービス"],"ward":"上田市","address":"長野県上田市下之郷148−３","tel":"0268-75-4047","url":"","lat":36.36128425,"lng":138.21898227,"weekday":"13:00-18:00","saturday":"09:30-15:30","sunday":"","holiday":"09:30-15:30","closed":"日曜日","capacity":10,"id":"2050300363"},{"name":"らいおんハート放課後デイサービス佐久南","nameKana":"らいおんはーとほうかごでいさーびすさくみなみ","corp":"一般社団法人医療介護ケア協会","serviceTypes":["放課後等デイサービス"],"ward":"佐久市","address":"長野県佐久市前山321-3","tel":"0267-77-7144","url":"","lat":36.21503488,"lng":138.45250832,"weekday":"09:30-17:30","saturday":"","sunday":"","holiday":"09:30-15:30","closed":"","capacity":10,"id":"2051700207"},{"name":"はぴねすジョブ・スタディ若里","nameKana":"はぴねすじょぶすたでぃわかさと","corp":"オネストリィ株式会社","serviceTypes":["放課後等デイサービス"],"ward":"長野市","address":"長野県長野市若里４丁目１２−２４　２F","tel":"026-217-2818","url":"https://onandon-happiness.com/welfare/job-wakasato","lat":36.62945721,"lng":138.18335515,"weekday":"15:00-18:00","saturday":"10:00-15:00","sunday":"10:00-15:00","holiday":"10:00-15:00","closed":"年末年始（12月30日〜1月3日）","capacity":10,"id":"2050101050"},{"name":"放課後等デイサービスはぴねすジョブ若槻","nameKana":"ほかごとうでいさーびすはぴねすじょぶわかつき","corp":"オネストリィ株式会社","serviceTypes":["放課後等デイサービス"],"ward":"長野市","address":"長野県長野市若槻東条541-2フカサワビル2F","tel":"080-3756-7732","url":"http://happiness-nagano.com/wakatuki","lat":36.68122816,"lng":138.2214535,"weekday":"15:00-18:00","saturday":"10:00-16:00","sunday":"10:00-16:00","holiday":"10:00-16:00","closed":"年末年始","capacity":10,"id":"2050100763"},{"name":"放課後等デイサービスはぴねすスタディ若槻","nameKana":"ほうかごとうでいさーびすはぴねすすたでぃわかつき","corp":"オネストリィ株式会社","serviceTypes":["放課後等デイサービス"],"ward":"長野市","address":"長野県長野市若槻東条541-2フカサワビル2F-1","tel":"026-217-2763","url":"","lat":36.68122816,"lng":138.2214535,"weekday":"15:00-18:00","saturday":"10:00-16:00","sunday":"10:00-16:00","holiday":"10:00-16:00","closed":"年末年始","capacity":10,"id":"2050100813"},{"name":"はぴねす・TODAY is New Life若里","nameKana":"はぴねすとぅでいいずにゅーらいふわかさと","corp":"オネストリィ株式会社","serviceTypes":["放課後等デイサービス"],"ward":"長野市","address":"長野県長野市若里４丁目１２−２４　１F","tel":"026-266-0447","url":"http://happiness-nagano.com/","lat":36.62945721,"lng":138.18335515,"weekday":"15:00-18:00","saturday":"10:00-16:00","sunday":"10:00-16:00","holiday":"10:00-16:00","closed":"年末年始","capacity":10,"id":"2050100581"},{"name":"放課後等デイサービスはぴねす東和田","nameKana":"ほうかごとうでいさーびすはぴねすひがしわだ","corp":"オネストリィ株式会社","serviceTypes":["放課後等デイサービス"],"ward":"長野市","address":"長野県長野市東和田943-1平林街道店舗1F","tel":"026-217-5995","url":"http://happiness-nagano.com/","lat":36.65410785,"lng":138.22193386,"weekday":"15:00-18:00","saturday":"10:00-16:00","sunday":"10:00-16:00","holiday":"10:00-16:00","closed":"年末年始","capacity":10,"id":"2050100599"},{"name":"放課後等デイサービスGO！","nameKana":"ほうかごとうでいさーびすごー","corp":"労働者協同組合ワーカーズコープ・センター事業団","serviceTypes":["放課後等デイサービス"],"ward":"上田市","address":"長野県上田市常磐城5丁目3-35","tel":"0268-75-5150","url":"","lat":36.40967972,"lng":138.24042167,"weekday":"14:00-18:30","saturday":"","sunday":"","holiday":"","closed":"土・日・祝日・お盆（8/13〜16）・年始年末（12/29〜1/3）","capacity":10,"id":"2050300215"},{"name":"放課後等デイサービスＪＵＭＰ！","nameKana":"ほうかごとうでいさーびすじゃんぷ","corp":"労働者協同組合ワーカーズコープ・センター事業団","serviceTypes":["放課後等デイサービス"],"ward":"上田市","address":"長野県上田市常磐城５−３−３６荒井ビル２階","tel":"0268-75-5017","url":"","lat":36.40937697,"lng":138.24030781,"weekday":"14:00-18:30","saturday":"","sunday":"","holiday":"","closed":"土・日・祝日・夏季休業(８/13〜16)・冬季休業(12/29〜１/３)","capacity":10,"id":"2050300249"},{"name":"放課後等デイサービス　ポパイ","nameKana":"ほうかごとうでいさーびすぽぱい","corp":"有限会社宮沢寒天食品工業","serviceTypes":["放課後等デイサービス"],"ward":"諏訪郡富士見町","address":"長野県諏訪郡富士見町落合１１０６３番地８","tel":"050-3700-8618","url":"","lat":35.91785421,"lng":138.24464814,"weekday":"14:00-17:30","saturday":"","sunday":"","holiday":"","closed":"土日曜日、祝祭日、お盆休み、年末年始","capacity":10,"id":"2052300122"},{"name":"小中高一貫型自立支援はるいろ若里教室","nameKana":"しょうちゅうこういっかんがたじりつしえんはるいろわかさときょうしつ","corp":"株式会社Y＆M","serviceTypes":["放課後等デイサービス"],"ward":"長野市","address":"長野県長野市若里4丁目5-41","tel":"0262193572","url":"https://haluiro.com/","lat":36.63146547,"lng":138.1866159,"weekday":"13:00-20:00","saturday":"10:00-18:00","sunday":"","holiday":"10:00-18:00","closed":"日、GW（4月29日〜5月5日）、8月11日〜8月16日、12月29日〜1月4日","capacity":10,"id":"2050100920"},{"name":"小中高一貫型自立支援はるいろ三輪教室","nameKana":"しょうちゅうこういっかんがたじりつしえんはるいろみわきょうしつ","corp":"株式会社Y＆M","serviceTypes":["放課後等デイサービス"],"ward":"長野市","address":"長野県長野市三輪9丁目32-18","tel":"026-217-4691","url":"https://haluiro.com/","lat":36.66829103,"lng":138.20434159,"weekday":"","saturday":"","sunday":"","holiday":"","closed":"","capacity":null,"id":"2050101035"},{"name":"放課後等デイサービス「ラクスペ」ながの","nameKana":"ほうかごとうでいさーびすらくすぺながの","corp":"株式会社ｕｎｉｃｏ","serviceTypes":["放課後等デイサービス"],"ward":"長野市","address":"長野県長野市石渡131-5小林ビル１F","tel":"0262192760","url":"https://rakusupe-nagano.studio.site/","lat":36.65935197,"lng":138.24044329,"weekday":"14:30-17:30","saturday":"10:00-16:00","sunday":"","holiday":"10:00-16:00","closed":"12/30〜1/4、8/13〜8/16","capacity":10,"id":"2050101001"},{"name":"佐久穂町障害者福祉施設　　陽だまりの家","nameKana":"さくほまちしょうがいしゃふくししせつたきのうがたじぎょうしょひだまりのいえ","corp":"社会福祉法人ジェイエー長野会","serviceTypes":["放課後等デイサービス"],"ward":"南佐久郡佐久穂町","address":"長野県南佐久郡佐久穂町南佐久郡佐久穂町","tel":"0267-77-7287","url":"http://www.ja-naganokai.or.jp","lat":36.1603198,"lng":138.4835178,"weekday":"08:00-18:00","saturday":"08:00-18:00","sunday":"","holiday":"","closed":"土・日曜、祝日、夏季（8月13日〜16日）、年末年始（12月29日〜1月3日）","capacity":10,"id":"2052000060"},{"name":"きゃらめる・びぃと","nameKana":"きゃらめるびぃと","corp":"有限会社ケアサービス・りんどう","serviceTypes":["放課後等デイサービス"],"ward":"千曲市","address":"長野県千曲市戸倉2141-1","tel":"026-275-2824","url":"https://www.carerindo.com/","lat":36.48563019,"lng":138.15034812,"weekday":"14:00-17:30","saturday":"","sunday":"","holiday":"10:00-15:30","closed":"土日、お盆休み、年末年始","capacity":10,"id":"2051800213"},{"name":"ながでんハートネットメゾふぉるて中野ポルカ","nameKana":"ながでんはーとねっとめぞふぉるてなかのぽるか","corp":"株式会社ながでんウェルネス","serviceTypes":["放課後等デイサービス"],"ward":"中野市","address":"長野県中野市西1-1-1","tel":"0269-38-6045","url":"https://nagaden-wellness.co.jp/","lat":36.74453504,"lng":138.36483921,"weekday":"15:00-18:30","saturday":"","sunday":"","holiday":"10:00-15:00","closed":"土日","capacity":10,"id":"2051100119"},{"name":"ながでんハートネットメゾふぉるて中野","nameKana":"ながでんはーとねっとめぞふぉるてなかの","corp":"株式会社ながでんウェルネス","serviceTypes":["放課後等デイサービス"],"ward":"中野市","address":"長野県中野市西1-1-1","tel":"0269-38-1488","url":"https://nagaden-wellness.co.jp/","lat":36.74453504,"lng":138.36483921,"weekday":"15:00-18:30","saturday":"11:00-16:00","sunday":"","holiday":"11:00-16:00","closed":"火曜日・日曜日","capacity":10,"id":"2051100085"},{"name":"歩楽里","nameKana":"ふらり","corp":"長野県社会福祉事業団","serviceTypes":["放課後等デイサービス"],"ward":"長野市","address":"長野県長野市豊野町豊野1635-1","tel":"026-257-5955","url":"https://nagano-swc.com/furari/","lat":36.71461636,"lng":138.27467727,"weekday":"13:00-18:00","saturday":"10:00-16:00","sunday":"","holiday":"","closed":"日曜日　８月１３日から８月１６日　１２月２９日から１月３日","capacity":10,"id":"2050100367"},{"name":"児童支援センター「ひゅうまん」","nameKana":"じどうしえんせんたーひゅうまん","corp":"特定非営利活動法人ヒューマンネットながの","serviceTypes":["放課後等デイサービス"],"ward":"長野市","address":"長野県長野市鶴賀南千歳町982","tel":"026-223-0900","url":"","lat":36.64751087,"lng":138.18985699,"weekday":"","saturday":"","sunday":"","holiday":"","closed":"","capacity":null,"id":"2050100631"},{"name":"長野市障害者福祉施設　栗田園","nameKana":"ながのししょうがいしゃふくししせつくりたえん","corp":"社会福祉法人長野市社会事業協会","serviceTypes":["放課後等デイサービス"],"ward":"長野市","address":"長野県長野市栗田103番地2","tel":"026-227-7211","url":"http://nagano-shajikyo.or.jp/nsjk/kurita/","lat":36.63402398,"lng":138.1968009,"weekday":"14:15-17:15","saturday":"09:30-15:30","sunday":"","holiday":"09:30-15:30","closed":"　日曜日　","capacity":10,"id":"2050100300"},{"name":"はなみずき","nameKana":"はなみずき","corp":"社会福祉法人長野市社会事業協会","serviceTypes":["放課後等デイサービス"],"ward":"長野市","address":"長野県長野市大字富竹1570番地3いつわ苑3階","tel":"026-296-1560","url":"http://nagano-shajikyo.or.jp/nsjk/hanamizuki/","lat":36.66914524,"lng":138.25715936,"weekday":"14:30-17:30","saturday":"10:00-15:00","sunday":"","holiday":"10:00-15:00","closed":"日曜、年末年始","capacity":10,"id":"2050100359"},{"name":"にじいろキッズらいふ篠ノ井","nameKana":"にじいろきっずらいふしののい","corp":"社会福祉法人長野市社会事業協会","serviceTypes":["放課後等デイサービス"],"ward":"長野市","address":"長野県長野市篠ノ井御幣川306番地1シノノイマルマンビル１F","tel":"026-214-3770","url":"https://nagano-shajikyo.or.jp/n-k-life-shinonoi/","lat":36.57659992,"lng":138.13834632,"weekday":"13:45-18:00","saturday":"08:30-17:00","sunday":"","holiday":"08:30-16:30","closed":"日曜日、年末年始","capacity":10,"id":"2050100466"},{"name":"ウィズ発達支援センター","nameKana":"うぃずはったつしえんせんたー","corp":"社会福祉法人ともいき会","serviceTypes":["放課後等デイサービス"],"ward":"長野市","address":"長野県長野市篠ノ井布施高田１０３４番地３","tel":"026-299-3090","url":"https://www.with-nagano.com/","lat":36.58033021,"lng":138.14125947,"weekday":"15:00-18:00","saturday":"09:00-15:00","sunday":"","holiday":"","closed":"日曜及び法人の定めた日","capacity":10,"id":"2050100045"},{"name":"ウィズキャリアサポートセンター","nameKana":"うぃずきゃりあさぽーとせんたー","corp":"社会福祉法人ともいき会","serviceTypes":["放課後等デイサービス"],"ward":"長野市","address":"長野県長野市中御所３−２−１　２F","tel":"026-217-3550","url":"https://www.with-nagano.com/","lat":36.63959506,"lng":138.18384101,"weekday":"14:00-18:00","saturday":"10:00-16:00","sunday":"","holiday":"","closed":"日曜及び法人の定めた日","capacity":10,"id":"2050100540"},{"name":"こどもの自立生活館　茜舎","nameKana":"こどものじりつせいかつかんあかねしゃ","corp":"社会福祉法人森と木","serviceTypes":["放課後等デイサービス"],"ward":"長野市","address":"長野県長野市平林1-34-5","tel":"026-263-8722","url":"http://www.moritoki.jp","lat":36.65241628,"lng":138.21366262,"weekday":"14:30-18:30","saturday":"09:30-15:30","sunday":"","holiday":"","closed":"日、祝日、8/13〜8/16、12/29〜1/3","capacity":10,"id":"2050100110"},{"name":"茜舎くらぶ","nameKana":"あかねしゃくらぶ","corp":"社会福祉法人森と木","serviceTypes":["放課後等デイサービス"],"ward":"長野市","address":"長野県長野市平林1-30-1","tel":"026-259-9970","url":"http://www.moritoki.jp","lat":36.65130812,"lng":138.21291548,"weekday":"14:30-18:30","saturday":"09:30-15:30","sunday":"","holiday":"","closed":"日、祝日、8/13〜8/16、12/29〜1/3","capacity":10,"id":"2050100326"},{"name":"もりときピコ","nameKana":"もりときぴこ","corp":"社会福祉法人森と木","serviceTypes":["放課後等デイサービス"],"ward":"長野市","address":"長野県長野市権堂町2201番地権堂イーストプラザＮＤ２階202号室","tel":"026-217-8091","url":"http://www.moritoki.jp","lat":36.65375162,"lng":138.19241505,"weekday":"14:30-18:30","saturday":"09:30-15:30","sunday":"","holiday":"","closed":"日、祝日、8/13〜8/16、12/29〜1/3","capacity":10,"id":"2050100334"},{"name":"インフィニティジョブズ","nameKana":"いんふぃにてぃじょぶず","corp":"エイ・エス・カンパニー株式会社","serviceTypes":["放課後等デイサービス"],"ward":"長野市","address":"長野県長野市川中島町原771-4","tel":"026-283-3787","url":"","lat":36.581461,"lng":138.14973591,"weekday":"15:00-18:00","saturday":"","sunday":"","holiday":"","closed":"土日祝日　","capacity":10,"id":"2050100946"},{"name":"インフィニティ学習塾","nameKana":"いんふぃにてぃがくしゅうじゅく","corp":"エイ・エス・カンパニー株式会社","serviceTypes":["放課後等デイサービス"],"ward":"長野市","address":"長野県長野市青木島1丁目12番地1　池田建設ビル2階","tel":"026-213-6150","url":"","lat":36.62013575,"lng":138.18079174,"weekday":"15:00-18:00","saturday":"10:00-16:00","sunday":"","holiday":"","closed":"日曜日","capacity":10,"id":"2050100623"},{"name":"スポーツ＆アカデミー　キッズまゆ　青木島教室","nameKana":"すぽーつあんどあかでみーきっずまゆあおきじまきょうしつ","corp":"株式会社ライフケア","serviceTypes":["放課後等デイサービス"],"ward":"長野市","address":"長野県長野市青木島1丁目2-12　ICビル1F","tel":"026-269-8740","url":"http://kids-mayu.com/","lat":36.61737495,"lng":138.18082513,"weekday":"14:30-17:30","saturday":"10:00-15:30","sunday":"","holiday":"10:00-15:30","closed":"日曜日","capacity":10,"id":"2050100573"},{"name":"アネモネ","nameKana":"あねもね","corp":"合同会社 EAST MOUNTAIN STREAM","serviceTypes":["放課後等デイサービス"],"ward":"長野市","address":"長野県長野市三輪2-5-22102","tel":"026-217-5174","url":"https://www.itsumone.com/","lat":36.65937048,"lng":138.20840215,"weekday":"14:00-18:00","saturday":"10:00-15:00","sunday":"","holiday":"","closed":"日曜日、祝日、お盆、年末年始","capacity":10,"id":"2050100979"},{"name":"すまいる","nameKana":"すまいる","corp":"社会福祉法人ながのコロニー","serviceTypes":["放課後等デイサービス"],"ward":"長野市","address":"長野県長野市篠ノ井布施五明464-1","tel":"026-293-8766","url":"http://www.nagano-colony.or.jp/","lat":36.57976882,"lng":138.13140241,"weekday":"14:30-18:00","saturday":"","sunday":"","holiday":"08:30-17:00","closed":"土日、お盆、年末年始、GＷ","capacity":10,"id":"2050100490"},{"name":"アルカソニア","nameKana":"あるかそにあ","corp":"合同会社アルカソニア","serviceTypes":["放課後等デイサービス"],"ward":"長野市","address":"長野県長野市松岡2丁目2-41","tel":"026-405-9599","url":"https://www.arcusonia.com/","lat":36.62504219,"lng":138.21337695,"weekday":"14:30-18:00","saturday":"11:00-17:00","sunday":"","holiday":"","closed":"日曜、祝日、月に2回ほどの土曜日","capacity":10,"id":"2050100656"},{"name":"どれみはうす","nameKana":"どれみはうす","corp":"株式会社育ちlab","serviceTypes":["放課後等デイサービス"],"ward":"松本市","address":"長野県松本市笹賀5652番地56管理会館2階","tel":"0263878402","url":"https://www.sodachilab.com/","lat":36.20263817,"lng":137.93481905,"weekday":"14:00-17:30","saturday":"09:00-16:00","sunday":"","holiday":"","closed":"","capacity":10,"id":"2050200670"},{"name":"十色","nameKana":"てんしょく","corp":"株式会社　STEADY","serviceTypes":["放課後等デイサービス"],"ward":"松本市","address":"長野県松本市波田1594-3","tel":"0263-74-2437","url":"","lat":36.20857136,"lng":137.88434493,"weekday":"10:00-17:00","saturday":"09:00-16:00","sunday":"","holiday":"09:00-16:00","closed":"日曜日","capacity":10,"id":"2050200621"},{"name":"COJIRI　安曇野","nameKana":"こじりあずみの","corp":"株式会社Re rise","serviceTypes":["放課後等デイサービス"],"ward":"安曇野市","address":"長野県安曇野市豊科高家5127-7","tel":"0263-31-5905","url":"https://cojiri-azumino.hp.peraichi.com/","lat":36.25533917,"lng":137.91711053,"weekday":"","saturday":"","sunday":"","holiday":"","closed":"","capacity":null,"id":"2054000282"},{"name":"COJIRI安曇野２号店","nameKana":"こじりあずみのにごうてん","corp":"株式会社Re rise","serviceTypes":["放課後等デイサービス"],"ward":"安曇野市","address":"長野県安曇野市豊科486-8","tel":"0263-31-5193","url":"https://cojiriazumino.amebaownd.com/","lat":36.27063471,"lng":137.90773833,"weekday":"","saturday":"","sunday":"","holiday":"","closed":"","capacity":null,"id":"2054000324"},{"name":"らいず","nameKana":"らいず","corp":"株式会社アクション・サポート","serviceTypes":["放課後等デイサービス"],"ward":"北安曇郡松川村","address":"長野県北安曇郡松川村6569","tel":"0261-85-2152","url":"","lat":36.40693306,"lng":137.85773928,"weekday":"12:00-17:30","saturday":"09:15-16:30","sunday":"","holiday":"","closed":"年間カレンダーによる","capacity":10,"id":"2052900103"},{"name":"独立行政法人国立病院機構　まつもと医療センター","nameKana":"どくりつぎょうせいほうじんこくりつびょういんきこうまつもといりょうせんたー","corp":"独立行政法人国立病院機構まつもと医療センター","serviceTypes":["放課後等デイサービス"],"ward":"松本市","address":"長野県松本市村井町南2-20-30","tel":"0263-58-4567","url":"http://mmccenta.jp","lat":36.17600653,"lng":137.96425609,"weekday":"","saturday":"","sunday":"","holiday":"","closed":"土日、祝日、お盆、年末年始","capacity":5,"id":"2050200134"},{"name":"アプリコ穂高教室","nameKana":"あぷりこほたかきょうしつ","corp":"株式会社アプリコ","serviceTypes":["放課後等デイサービス"],"ward":"安曇野市","address":"長野県安曇野市穂高１４６４番地１安曇野ビルＢ","tel":"0263-31-3907","url":"https://aprico-m.jp","lat":36.32957496,"lng":137.89172344,"weekday":"14:00-18:00","saturday":"09:00-16:00","sunday":"","holiday":"09:00-16:00","closed":"祭日及び年末年始　日曜日","capacity":10,"id":"2054000258"},{"name":"アプリコ諏訪","nameKana":"あぷりこすわ","corp":"株式会社アプリコ","serviceTypes":["放課後等デイサービス"],"ward":"諏訪市","address":"長野県諏訪市南町１丁目１番","tel":"070-9295-5511","url":"https://aprico-m.jp","lat":36.0016161,"lng":138.12959545,"weekday":"14:00-18:00","saturday":"09:00-16:00","sunday":"","holiday":"09:00-16:00","closed":"日曜日","capacity":10,"id":"2050600218"},{"name":"多機能型事業所華いる","nameKana":"たきのうがたじぎょうしょかいる","corp":"合同会社チェリッシュ","serviceTypes":["放課後等デイサービス"],"ward":"松本市","address":"長野県松本市大手４丁目９−４−１階","tel":"0263-87-8237","url":"","lat":36.2357852,"lng":137.97148912,"weekday":"","saturday":"","sunday":"","holiday":"","closed":"土日 年末年始","capacity":10,"id":"2050200589"},{"name":"えだまめ","nameKana":"えだまめ","corp":"社会福祉法人アルプス福祉会","serviceTypes":["放課後等デイサービス"],"ward":"松本市","address":"長野県松本市寿台９−１−３","tel":"0263882818","url":"","lat":36.17555421,"lng":137.98242959,"weekday":"14:30-17:30","saturday":"","sunday":"","holiday":"","closed":"土日祝日、お盆・年末年始","capacity":5,"id":"2050200696"},{"name":"社会福祉法人　松本市社会福祉協議会　しいのみ学園","nameKana":"しゃかいふくしほうじんまつもとししゃかいふくしきょうぎかいしいのみがくえん","corp":"社会福祉法人松本市社会福祉協議会","serviceTypes":["放課後等デイサービス"],"ward":"松本市","address":"長野県松本市双葉４番16号","tel":"0263-25-3010","url":"http://www.syakyo-matsumoto.or.jp","lat":36.20790279,"lng":137.9673517,"weekday":"15:00-17:15","saturday":"","sunday":"","holiday":"","closed":"","capacity":7,"id":"2050200027"},{"name":"放課後等デイサービス「スマイルアップひかり」","nameKana":"ほうかごとうでいさーびすすまいるあっぷひかり","corp":"特定非営利活動法人シェイクハンズひかり","serviceTypes":["放課後等デイサービス"],"ward":"松本市","address":"長野県松本市波田１０３７１−２","tel":"0263-92-6902","url":"","lat":36.20935762,"lng":137.89028335,"weekday":"15:00-18:00","saturday":"","sunday":"","holiday":"","closed":"","capacity":10,"id":"2050200522"},{"name":"まつようクラブby結いの街","nameKana":"まつようくらぶばいゆいのまち","corp":"特定非営利活動法人　結いの街","serviceTypes":["放課後等デイサービス"],"ward":"松本市","address":"長野県松本市今井1535","tel":"0263-25-0588","url":"http://yuinomati.org/","lat":36.15077494,"lng":137.90415348,"weekday":"15:00-17:00","saturday":"","sunday":"","holiday":"","closed":"12/30〜1/3、8/14〜8/16","capacity":10,"id":"2050200050"},{"name":"アプリコ沢村教室","nameKana":"あぷりこさわむらきょうしつ","corp":"株式会社アプリコ","serviceTypes":["放課後等デイサービス"],"ward":"松本市","address":"長野県松本市沢村３−４−４５","tel":"0263-31-3915","url":"https://aprico-m.jp","lat":36.25281047,"lng":137.96819173,"weekday":"14:00-18:00","saturday":"09:00-16:00","sunday":"","holiday":"09:00-16:00","closed":"祭日及び年末年始　日曜日","capacity":10,"id":"2050200530"},{"name":"アプリコ双葉教室","nameKana":"あぷりこふたばきょうしつ","corp":"株式会社アプリコ","serviceTypes":["放課後等デイサービス"],"ward":"松本市","address":"長野県松本市双葉7号23番ダンダンプラザ西３F","tel":"0263-50-4152","url":"https://aprico-m.jp/","lat":36.21037742,"lng":137.96606005,"weekday":"14:00-18:00","saturday":"09:00-16:00","sunday":"","holiday":"09:00-16:00","closed":"祭日及び年末年始　日曜日","capacity":10,"id":"2050200357"},{"name":"アプリコ島立教室","nameKana":"あぷりこしまだちきょうしつ","corp":"株式会社アプリコ","serviceTypes":["放課後等デイサービス"],"ward":"松本市","address":"長野県松本市島立647番地1","tel":"0263-88-3925","url":"https://aprico-m.jp","lat":36.23678688,"lng":137.94953325,"weekday":"14:00-18:00","saturday":"09:00-16:00","sunday":"","holiday":"09:00-16:00","closed":"祭日及び年末年始　日曜日","capacity":10,"id":"2050200373"},{"name":"そだちえ","nameKana":"そだちえ","corp":"合同会社アーチ","serviceTypes":["放課後等デイサービス","居宅訪問型児童発達支援"],"ward":"松本市","address":"長野県松本市南原二丁目2番5-1号","tel":"0263-87-0445","url":"","lat":36.21172351,"lng":137.94514554,"weekday":"13:00-18:00","saturday":"09:00-15:00","sunday":"","holiday":"","closed":"第２・４土曜日、日曜日、祝日、お盆、年末年始、学校長期休暇中の全ての土曜日","capacity":10,"id":"2050200399"},{"name":"学習サポートｓｃｒｕｍＰＬＵＳ上田中之条校","nameKana":"がくしゅうさぽーとすくらむぷらすうえだなかのじょうこう","corp":"株式会社Ｓｏｍｍ−Ｓｏｍｍ","serviceTypes":["放課後等デイサービス"],"ward":"上田市","address":"長野県上田市中之条１０１利幸第二ビル２０１","tel":"09071321376","url":"","lat":36.39300073,"lng":138.23162358,"weekday":"13:00-19:00","saturday":"12:00-17:00","sunday":"","holiday":"","closed":"祝日．日曜日．お盆．年末年始","capacity":10,"id":"2050300272"},{"name":"放課後等デイサービスあゆみ","nameKana":"ほうかごとうでいさーびすあゆみ","corp":"株式会社ハケタ","serviceTypes":["放課後等デイサービス"],"ward":"上田市","address":"長野県上田市上丸子968","tel":"0268-75-7863","url":"https://ayumi-houday.com","lat":36.32329028,"lng":138.27106488,"weekday":"","saturday":"","sunday":"","holiday":"","closed":"","capacity":null,"id":"2050300306"},{"name":"MIRAI","nameKana":"みらい","corp":"株式会社野村屋","serviceTypes":["放課後等デイサービス"],"ward":"上田市","address":"長野県上田市上田原800番地5","tel":"080-3783-2457","url":"","lat":36.39122866,"lng":138.22310215,"weekday":"","saturday":"","sunday":"","holiday":"","closed":"土日祝日・年末年始等","capacity":10,"id":"2050300322"},{"name":"こどもデイ　ＲａＳｉＫｕ","nameKana":"こどもでいらしく","corp":"株式会社ＴＤ","serviceTypes":["放課後等デイサービス"],"ward":"上田市","address":"長野県上田市中之条３２３−６ＮＦビル102","tel":"0268-71-6141","url":"https://kd-rasiku.hp.peraichi.com/","lat":36.39536998,"lng":138.23037906,"weekday":"13:00-17:30","saturday":"","sunday":"","holiday":"10:00-16:00","closed":"土曜日、日曜日、年末年始","capacity":10,"id":"2050300355"},{"name":"放課後等デイサービス事業所ミライエ","nameKana":"ほうかごとうでいさーびすじぎょうしょみらいえ","corp":"社会福祉法人かりがね福祉会","serviceTypes":["放課後等デイサービス"],"ward":"上田市","address":"長野県上田市真田町長７１６６−８　","tel":"0268-71-7810","url":"https://karigane.or.jp/","lat":36.44177063,"lng":138.30349297,"weekday":"15:00-18:00","saturday":"09:30-16:00","sunday":"00:00-00:00","holiday":"00:00-00:00","closed":"第２・４・５土曜日、日曜日","capacity":10,"id":"2050300181"},{"name":"アオ","nameKana":"あお","corp":"社会福祉法人カルディア会","serviceTypes":["放課後等デイサービス"],"ward":"上田市","address":"長野県上田市蒼久保500番地３","tel":"0268-75-5378","url":"https://www.karudia.jp/ao","lat":36.38781042,"lng":138.29011911,"weekday":"15:00-18:30","saturday":"08:30-17:00","sunday":"","holiday":"","closed":"日曜日、祝日","capacity":10,"id":"2050300165"},{"name":"特定非営利活動法人　あとらす","nameKana":"あとらす","corp":"特定非営利活動法人あとらす","serviceTypes":["放課後等デイサービス"],"ward":"上田市","address":"長野県上田市中央３−６−１","tel":"0268-71-5153","url":"https://npo-atlas.com","lat":36.40403872,"lng":138.25379036,"weekday":"13:00-18:00","saturday":"12:00-17:00","sunday":"","holiday":"12:00-17:00","closed":"日曜日・年末年始","capacity":10,"id":"2050300041"},{"name":"あとらす ちくま","nameKana":"あとらすちくま","corp":"特定非営利活動法人あとらす","serviceTypes":["放課後等デイサービス"],"ward":"千曲市","address":"長野県千曲市杭瀬下2-37","tel":"026-285-9008","url":"http://npo-atlas.com","lat":36.53016539,"lng":138.11294212,"weekday":"13:00-18:00","saturday":"12:00-17:00","sunday":"","holiday":"12:00-17:00","closed":"日曜・年末年始","capacity":10,"id":"2051800056"},{"name":"ぴっころ","nameKana":"ぴっころ","corp":"特定非営利活動法人あとらす","serviceTypes":["放課後等デイサービス"],"ward":"千曲市","address":"長野県千曲市大字野高場1766番地62","tel":"026-247-8117","url":"http://npo-atlas.com","lat":36.53973646,"lng":138.10986739,"weekday":"13:00-18:00","saturday":"12:00-17:00","sunday":"","holiday":"12:00-17:00","closed":"日曜・年末年始","capacity":10,"id":"2051800122"},{"name":"特定非営利活動法人シャイン","nameKana":"とくていひえいりかつどうほうじんしゃいん","corp":"特定非営利活動法人シャイン","serviceTypes":["放課後等デイサービス"],"ward":"上田市","address":"長野県上田市岩下502番地","tel":"0268-27-2796","url":"http://npo-syain.com/","lat":36.36987917,"lng":138.28556471,"weekday":"","saturday":"","sunday":"","holiday":"","closed":"","capacity":null,"id":"2050300173"},{"name":"芽吹き岡谷店","nameKana":"めぶきおかやてん","corp":"株式会社オフィスハナオカ","serviceTypes":["放課後等デイサービス"],"ward":"岡谷市","address":"長野県岡谷市長地権現町２丁目１番68号","tel":"0266-88-9127","url":"","lat":36.06622002,"lng":138.07090698,"weekday":"","saturday":"","sunday":"","holiday":"","closed":"","capacity":null,"id":"2050400098"},{"name":"ロンド岡谷","nameKana":"ろんどおかや","corp":"エリア創星会","serviceTypes":["放課後等デイサービス"],"ward":"岡谷市","address":"長野県岡谷市湊五丁目９番１号みなとスクエア","tel":"0266-78-8089","url":"http://www.area-star.jp","lat":36.03166075,"lng":138.07459363,"weekday":"13:00-18:00","saturday":"09:00-17:00","sunday":"09:00-17:00","holiday":"09:00-17:00","closed":"8月13日から8月16日、12月29日から1月3日","capacity":10,"id":"2050400049"},{"name":"ムーンショットステーション","nameKana":"むーんしょっとすてーしょん","corp":"特定非営利活動法人ともそだちプラネット","serviceTypes":["放課後等デイサービス"],"ward":"岡谷市","address":"長野県岡谷市中央町１−８−４１あかはねビル１階","tel":"0266-78-7642","url":"http://tomosodachi.or.jp/","lat":36.05903424,"lng":138.04686489,"weekday":"13:00-18:00","saturday":"09:00-16:00","sunday":"09:00-16:00","holiday":"09:00-16:00","closed":"日曜　法人が法人が定める日（お盆、年末年始等）","capacity":10,"id":"2050400072"},{"name":"わくわくステーション","nameKana":"わくわくすてーしょん","corp":"特定非営利活動法人ともそだちプラネット","serviceTypes":["放課後等デイサービス"],"ward":"岡谷市","address":"長野県岡谷市天竜町二丁目1番2号3940035","tel":"0266-78-7642","url":"http://tomosodachi.or.jp/","lat":36.05792054,"lng":138.04880366,"weekday":"13:00-18:00","saturday":"09:00-16:00","sunday":"09:00-16:00","holiday":"09:00-16:00","closed":"日曜日","capacity":10,"id":"2050400064"},{"name":"After School 虹","nameKana":"あふたーすくーるにじ","corp":"社会福祉法人松美会","serviceTypes":["放課後等デイサービス"],"ward":"飯田市","address":"長野県飯田市時又329番地社会福祉法人松美会　内","tel":"0265-26-9208","url":"https://www.matsumikai.jp","lat":35.46387832,"lng":137.83182573,"weekday":"12:30-18:00","saturday":"08:00-14:00","sunday":"","holiday":"","closed":"日曜、祝日、年末年始、お盆及び行事等で事業の実施が困難な場合を除く","capacity":10,"id":"2050500368"},{"name":"After Shool 風","nameKana":"あふたーすくーるかぜ","corp":"社会福祉法人松美会","serviceTypes":["放課後等デイサービス"],"ward":"飯田市","address":"長野県飯田市時又325-1社会福祉法人松美会　内","tel":"0265-26-9208","url":"https://www.matsumikai.jp","lat":35.46401163,"lng":137.83158686,"weekday":"14:00-17:00","saturday":"","sunday":"","holiday":"","closed":"土・日曜日・年末年始お盆及び行事等は休所の場合あり","capacity":10,"id":"2050500400"},{"name":"さくら","nameKana":"さくら","corp":"株式会社ＨＥＡＲＴ","serviceTypes":["放課後等デイサービス"],"ward":"飯田市","address":"長野県飯田市大瀬木4338-2","tel":"0265-48-5671","url":"","lat":35.49245744,"lng":137.79255629,"weekday":"14:00-18:00","saturday":"","sunday":"","holiday":"","closed":"日曜・祝日、年末年始","capacity":10,"id":"2050500319"},{"name":"ぴゅあ　すくーる","nameKana":"ぴゅあすくーる","corp":"株式会社ぴゅあ","serviceTypes":["放課後等デイサービス"],"ward":"飯田市","address":"長野県飯田市上郷黒田3325番地","tel":"0265-49-8307","url":"","lat":35.5361281,"lng":137.83030574,"weekday":"15:00-19:00","saturday":"08:00-16:00","sunday":"","holiday":"08:00-16:00","closed":"日曜日","capacity":10,"id":"2050500103"},{"name":"ぴゅあ　あんじゅ","nameKana":"ぴゅああんじゅ","corp":"株式会社ぴゅあ","serviceTypes":["放課後等デイサービス"],"ward":"飯田市","address":"長野県飯田市上郷黒田2089-11","tel":"0265-49-0138","url":"","lat":35.5303763,"lng":137.83817457,"weekday":"15:00-19:00","saturday":"08:00-16:00","sunday":"","holiday":"08:00-16:00","closed":"日曜日","capacity":10,"id":"2050500327"},{"name":"みらいこども伊那坂下教室","nameKana":"みらいこどもいなさかしたきょうしつ","corp":"株式会社みらい福祉会","serviceTypes":["放課後等デイサービス"],"ward":"伊那市","address":"長野県伊那市坂下３３４９−１","tel":"0265-98-9711","url":"http://miraif.org/","lat":35.84135365,"lng":137.95952323,"weekday":"14:30-17:30","saturday":"11:00-16:00","sunday":"","holiday":"11:00-16:00","closed":"日曜盆正月","capacity":10,"id":"2050900220"},{"name":"みらいこども伊那インター教室","nameKana":"みらいこどもいないんたーきょうしつ","corp":"株式会社みらい福祉会","serviceTypes":["放課後等デイサービス"],"ward":"上伊那郡南箕輪村","address":"長野県上伊那郡南箕輪村字鳥居原8283-2","tel":"0265-48-0336","url":"","lat":35.915134,"lng":137.98194408,"weekday":"","saturday":"","sunday":"","holiday":"","closed":"","capacity":null,"id":"2052400336"},{"name":"みらいこども飯田鼎上山教室","nameKana":"みらいこどもいいだかなえかみやまきょうしつ","corp":"株式会社みらい福祉会","serviceTypes":["放課後等デイサービス"],"ward":"飯田市","address":"長野県飯田市鼎上山3771-12","tel":"0265-48-0336","url":"","lat":35.5050175,"lng":137.81201729,"weekday":"14:30-17:30","saturday":"11:00-16:00","sunday":"","holiday":"11:00-16:00","closed":"盆正月に利用者と相談の上、定休日をとる場合がある","capacity":10,"id":"2050500210"},{"name":"みらいこども飯田上郷飯沼教室","nameKana":"みらいこどもいいだかみさといいぬまきょうしつ","corp":"株式会社みらい福祉会","serviceTypes":["放課後等デイサービス"],"ward":"飯田市","address":"長野県飯田市上郷飯沼3512番地22","tel":"0265-52-1640","url":"","lat":35.51536736,"lng":137.85200147,"weekday":"14:30-17:30","saturday":"11:00-16:00","sunday":"","holiday":"11:00-16:00","closed":"盆正月に利用者と相談の上、定休日をとる場合がある","capacity":10,"id":"2050500228"},{"name":"みらいこども伊那御園教室","nameKana":"みらいこどもいなみそのきょうしつ","corp":"株式会社みらい福祉会","serviceTypes":["放課後等デイサービス"],"ward":"伊那市","address":"長野県伊那市御園731-4","tel":"0265-78-8814","url":"","lat":35.85230501,"lng":137.96338088,"weekday":"14:30-17:30","saturday":"11:00-16:00","sunday":"","holiday":"11:00-16:00","closed":"盆正月に利用者と相談の上、定休日をとる場合がある","capacity":10,"id":"2050900121"},{"name":"みらいこども南箕輪教室","nameKana":"みらいこどもみなみみのわきょうしつ","corp":"株式会社みらい福祉会","serviceTypes":["放課後等デイサービス"],"ward":"上伊那郡南箕輪村","address":"長野県上伊那郡南箕輪村8987-1","tel":"0265-96-0414","url":"","lat":35.86088965,"lng":137.94780154,"weekday":"14:30-17:30","saturday":"11:00-16:00","sunday":"","holiday":"11:00-16:00","closed":"盆正月に利用者と相談の上、定休日をとる場合がある","capacity":10,"id":"2052400120"},{"name":"ちゃっぷりん","nameKana":"ちゃっぷりん","corp":"特定非営利活動法人ぱれっと","serviceTypes":["放課後等デイサービス"],"ward":"飯田市","address":"長野県飯田市松尾上溝3322番地１","tel":"0265-21-0416","url":"","lat":35.5025687,"lng":137.84752473,"weekday":"14:15-17:15","saturday":"09:00-16:00","sunday":"00:00-00:00","holiday":"09:00-16:00","closed":"１２月３１日から１月３日","capacity":10,"id":"2050500095"},{"name":"ちっちゃい　くれよん","nameKana":"ちっちゃいくれよん","corp":"特定非営利活動法人くれよん","serviceTypes":["放課後等デイサービス"],"ward":"飯田市","address":"長野県飯田市座光寺4851番地８","tel":"0265-21-5070","url":"","lat":35.53318215,"lng":137.8683715,"weekday":"15:00-18:00","saturday":"09:00-16:00","sunday":"","holiday":"09:00-16:00","closed":"１２月３１日から１月３日と毎週日曜日","capacity":10,"id":"2050500038"},{"name":"障がい児サポートセンターちゃむ","nameKana":"しょうがいじさぽーとせんたーちゃむ","corp":"特定非営利活動法人ハートケア蒼い風","serviceTypes":["放課後等デイサービス"],"ward":"飯田市","address":"長野県飯田市高羽町1-6-2","tel":"0265-49-3211","url":"","lat":35.52050763,"lng":137.82002401,"weekday":"13:30-17:30","saturday":"","sunday":"","holiday":"","closed":"土曜日、日曜日、盆休暇、年末年始休暇","capacity":10,"id":"2050500053"},{"name":"障がい児サポートセンターぴーす","nameKana":"しょうがいじさぽーとせんたーぴーす","corp":"特定非営利活動法人ハートケア蒼い風","serviceTypes":["放課後等デイサービス"],"ward":"飯田市","address":"長野県飯田市白山町3丁目南1番6-1","tel":"0265-48-5229","url":"","lat":35.51883821,"lng":137.81373029,"weekday":"13:30-17:30","saturday":"08:00-16:00","sunday":"","holiday":"08:00-16:00","closed":"日曜日、盆休暇、年末年始休暇","capacity":10,"id":"2050500079"},{"name":"児童・協働支援センター　かでる","nameKana":"じどうきょうどうしえんせんたかでる","corp":"特定非営利活動法人日和向晴会","serviceTypes":["放課後等デイサービス"],"ward":"飯田市","address":"長野県飯田市座光寺1419-1","tel":"0265-48-6338","url":"","lat":35.54535509,"lng":137.84768985,"weekday":"14:30-18:30","saturday":"09:00-17:00","sunday":"09:00-17:00","holiday":"09:00-17:00","closed":"正月3が日","capacity":10,"id":"2050500244"},{"name":"ローリエ","nameKana":"ろーりえ","corp":"一般社団法人ソーシャルデザインプロジェクト丘のりんご","serviceTypes":["放課後等デイサービス"],"ward":"飯田市","address":"長野県飯田市小伝馬町１丁目45番地2　1Ｆ","tel":"0265-49-0985","url":"http://www.okanoringo.net","lat":35.51897204,"lng":137.82983693,"weekday":"13:30-18:00","saturday":"09:00-15:00","sunday":"","holiday":"09:00-17:00","closed":"日曜日及び年末年始（12/29〜1/3）","capacity":10,"id":"2050500376"},{"name":"並木テラス","nameKana":"なみきてらす","corp":"一般社団法人ソーシャルデザインプロジェクト丘のりんご","serviceTypes":["放課後等デイサービス"],"ward":"飯田市","address":"長野県飯田市松尾町２丁目28","tel":"0265-49-9222","url":"http://www.okanoringo.net","lat":35.51600833,"lng":137.82551252,"weekday":"13:30-18:00","saturday":"09:00-15:00","sunday":"","holiday":"09:00-17:00","closed":"日曜日及び年末年始（12/29〜1/3）","capacity":10,"id":"2050500392"},{"name":"丘のりんご","nameKana":"おかのりんご","corp":"一般社団法人ソーシャルデザインプロジェクト丘のりんご","serviceTypes":["放課後等デイサービス"],"ward":"飯田市","address":"長野県飯田市伝馬町二丁目4番地1","tel":"0265-24-7665","url":"http://www.okanoringo.net","lat":35.51789158,"lng":137.82918705,"weekday":"13:30-18:00","saturday":"09:00-15:00","sunday":"","holiday":"09:00-17:00","closed":"日曜日及び年末年始（12/29〜1/3）","capacity":10,"id":"2050500285"},{"name":"オリーブ","nameKana":"おりーぶ","corp":"一般社団法人ソーシャルデザインプロジェクト丘のりんご","serviceTypes":["放課後等デイサービス"],"ward":"飯田市","address":"長野県飯田市知久町一丁目18番地1 2F","tel":"0265-48-0082","url":"http://www.okanoringo.net","lat":35.5146418,"lng":137.82490986,"weekday":"13:30-18:00","saturday":"09:00-15:00","sunday":"","holiday":"09:00-17:00","closed":"日曜日及び年末年年始（12/29〜1/3）","capacity":10,"id":"2050500350"},{"name":"みらいこども松本寿南教室","nameKana":"みらいこどもまつもとことぶきみなみきょうしつ","corp":"株式会社みらい福祉会","serviceTypes":["放課後等デイサービス"],"ward":"松本市","address":"長野県松本市寿南１丁目３−１４","tel":"0263-86-6558","url":"","lat":36.17688992,"lng":137.97042217,"weekday":"14:30-17:30","saturday":"11:00-16:00","sunday":"","holiday":"11:00-16:00","closed":"盆正月に利用者と相談の上、定休日をとる場合がある","capacity":10,"id":"2050200555"},{"name":"みらいこども松本松原教室","nameKana":"みらいこどもまつもとまつばらきょうしつ","corp":"株式会社みらい福祉会","serviceTypes":["放課後等デイサービス"],"ward":"松本市","address":"長野県松本市松原46−1松原ビルテナント1F","tel":"0263310204","url":"https://miraif.org/","lat":36.17607928,"lng":137.98940406,"weekday":"14:30-17:30","saturday":"11:00-16:00","sunday":"","holiday":"11:00-16:00","closed":"盆正月に利用者と相談の上、定休日をとる場合がある","capacity":10,"id":"2050200662"},{"name":"放課後等デイサービス　あんSchoolホップ","nameKana":"ほうかごとうでいさーびすあんすくーるほっぷ","corp":"ライフライク株式会社","serviceTypes":["放課後等デイサービス"],"ward":"茅野市","address":"長野県茅野市宮川３９８７−３","tel":"0266-78-6675","url":"","lat":35.98966252,"lng":138.15137725,"weekday":"12:00-18:00","saturday":"","sunday":"","holiday":"10:00-16:00","closed":"","capacity":10,"id":"2051400071"},{"name":"放課後等デイサービス　あんSchoolステップ","nameKana":"ほうかごとうでいさーびすあんすくーるすてっぷ","corp":"ライフライク株式会社","serviceTypes":["放課後等デイサービス"],"ward":"諏訪市","address":"長野県諏訪市大手１丁目16-5満味楼ビル２階","tel":"0266-78-7660","url":"","lat":36.04366552,"lng":138.11566166,"weekday":"12:00-18:00","saturday":"","sunday":"","holiday":"10:00-16:00","closed":"","capacity":null,"id":"2050600168"},{"name":"放課後等デイサービス　あんSchoolジャンプ","nameKana":"ほうかごとうでいさーびすあんすくーるじゃんぷ","corp":"ライフライク株式会社","serviceTypes":["放課後等デイサービス"],"ward":"茅野市","address":"長野県茅野市ちの横内2928-2リバーサイド上川2階","tel":"0266-78-6675","url":"","lat":35.99635041,"lng":138.14589414,"weekday":"12:00-18:00","saturday":"","sunday":"","holiday":"10:00-16:00","closed":"","capacity":null,"id":"2051400105"},{"name":"すわっこホーム","nameKana":"すわっこほーむ","corp":"合同会社すわっこホーム","serviceTypes":["放課後等デイサービス"],"ward":"諏訪市","address":"長野県諏訪市豊田310-3","tel":"0265-55-7314","url":"https://www.suwakko-home.com/","lat":36.02908121,"lng":138.10678793,"weekday":"09:30-17:00","saturday":"09:30-16:00","sunday":"","holiday":"","closed":"毎週日曜日","capacity":10,"id":"2050600176"},{"name":"ふらっぷ諏訪","nameKana":"ふらっぷすわ","corp":"株式会社L Peace","serviceTypes":["放課後等デイサービス"],"ward":"諏訪市","address":"長野県諏訪市沖田町１丁目131番地１AIビル2階","tel":"0266780361","url":"https://lily-inc.jp/works/#jidou","lat":36.00929011,"lng":138.13330036,"weekday":"13:00-17:30","saturday":"","sunday":"","holiday":"09:30-16:00","closed":"土・日・お盆期間・年末年始","capacity":10,"id":"2050600192"},{"name":"放課後等デイサービスインハート諏訪","nameKana":"ほうかごとうでいさーびすいんはーとすわ","corp":"合同会社INハート","serviceTypes":["放課後等デイサービス"],"ward":"諏訪市","address":"長野県諏訪市中洲神宮寺709-3","tel":"0266-55-7707","url":"https://www.inheartsuwa.com/","lat":36.03899668,"lng":138.1140675,"weekday":"13:00-18:00","saturday":"09:00-14:00","sunday":"","holiday":"09:00-14:00","closed":"","capacity":10,"id":"2050600150"},{"name":"放課後等デイサービスみのり","nameKana":"ほうかごとうでいさーびすみのり","corp":"一般社団法人くるみ","serviceTypes":["放課後等デイサービス"],"ward":"諏訪市","address":"長野県諏訪市高島３丁目１３３９番地１３","tel":"0266-75-5092","url":"","lat":36.03786061,"lng":138.10971511,"weekday":"13:30-17:30","saturday":"09:00-14:00","sunday":"","holiday":"","closed":"第2、第4土曜日、日曜日、祝日","capacity":10,"id":"2050600135"},{"name":"にじのわスマイル","nameKana":"にじのわすまいる","corp":"株式会社  向日葵","serviceTypes":["放課後等デイサービス"],"ward":"諏訪市","address":"長野県諏訪市高島三丁目1405番11","tel":"0266-55-5240","url":"http://nijinowa.co.jp","lat":36.03781055,"lng":138.10723198,"weekday":"13:00-18:00","saturday":"09:00-16:00","sunday":"","holiday":"","closed":"日曜日、祝日、８月１３日〜８月１５日、１２月３０日〜１月３日","capacity":10,"id":"2050600127"},{"name":"スマイルひろば匠墨坂店","nameKana":"すまいるひろばたくみすみさかてん","corp":"タクミエイト株式会社","serviceTypes":["放課後等デイサービス"],"ward":"須坂市","address":"長野県須坂市墨坂３丁目５番２７号","tel":"026-245-7680","url":"https://www.takumi-smile.com","lat":36.6503499,"lng":138.3023777,"weekday":"14:30-17:30","saturday":"10:00-15:00","sunday":"","holiday":"","closed":"日曜、祝日および夏期休暇、年末年始休暇など会社が指定する日","capacity":10,"id":"2050700174"},{"name":"スマイルひろば匠臥竜店","nameKana":"すまいるひろばたくみがりゅうてん","corp":"タクミエイト株式会社","serviceTypes":["放課後等デイサービス"],"ward":"須坂市","address":"長野県須坂市臥竜４−８−８","tel":"026-405-7386","url":"https://www.takumi-smile.com","lat":36.64248168,"lng":138.3176211,"weekday":"14:30-17:30","saturday":"","sunday":"","holiday":"","closed":"土曜、日曜、祝日および夏期休暇、年末年始休暇など会社が定める日","capacity":10,"id":"2050700208"},{"name":"みんなのムム","nameKana":"みんなのむむ","corp":"社会福祉法人夢工房福祉会","serviceTypes":["放課後等デイサービス"],"ward":"須坂市","address":"長野県須坂市大字高梨343番地1","tel":"026-214-5565","url":"http://yumefukushi.com","lat":36.6590036,"lng":138.27913609,"weekday":"15:00-18:00","saturday":"","sunday":"","holiday":"10:00-15:00","closed":"土曜日、日曜日","capacity":10,"id":"2050700091"},{"name":"学習サポートｓｃｒｕｍＰＬＵＳ長野伊那校第２教室","nameKana":"がくしゅうさぽーとすくらむぷらすながのいなこうだいにきょうしつ","corp":"株式会社ＹＡＥ","serviceTypes":["放課後等デイサービス"],"ward":"伊那市","address":"長野県伊那市西町5111番地16田村ビル1階西","tel":"0265-96-7855","url":"","lat":35.83325737,"lng":137.95171309,"weekday":"13:00-19:00","saturday":"13:00-19:00","sunday":"","holiday":"","closed":"日曜及び祝日","capacity":10,"id":"2050900261"},{"name":"放課後等デイサービス　みつば","nameKana":"ほうかごとうでいさーびすみつば","corp":"株式会社　ハッピークローバー","serviceTypes":["放課後等デイサービス"],"ward":"伊那市","address":"長野県伊那市西箕輪4765番地1","tel":"0265-98-0899","url":"","lat":35.86970442,"lng":137.91516469,"weekday":"15:00-18:00","saturday":"10:00-16:00","sunday":"","holiday":"10:00-16:00","closed":"日曜日、5/3〜5/5、8/14〜8/16、12/29〜1/4。","capacity":10,"id":"2050900279"},{"name":"放課後等デイサービスＳＡＬＡ","nameKana":"ほうかごとうでいさーびすさら","corp":"特定非営利活動法人ＳＡＬＡ","serviceTypes":["放課後等デイサービス"],"ward":"伊那市","address":"長野県伊那市高遠町下山田７２７","tel":"0265-94-1130","url":"","lat":35.82652714,"lng":138.03920327,"weekday":"09:00-17:00","saturday":"09:00-17:00","sunday":"09:00-17:00","holiday":"09:00-17:00","closed":"12月29日から1月3日","capacity":10,"id":"2050900246"},{"name":"ＡＩＨ心理相談室","nameKana":"えーあいえいちしんりそうだんしつ","corp":"一般社団法人ＡＩＨ心理相談室","serviceTypes":["放課後等デイサービス"],"ward":"伊那市","address":"長野県伊那市日影５９０１−１ＡＩＨ心理相談室","tel":"0265-76-6611","url":"","lat":35.83990715,"lng":137.98641809,"weekday":"16:00-20:00","saturday":"09:00-18:00","sunday":"09:00-18:00","holiday":"","closed":"月曜日","capacity":10,"id":"2050900097"},{"name":"放課後等デイサービスきらきら福地","nameKana":"ほうかごとうでいさーびすきらきらふくち","corp":"株式会社支援アガピア","serviceTypes":["放課後等デイサービス"],"ward":"伊那市","address":"長野県伊那市富県7658番地１","tel":"0265-73-5707","url":"https://www.kirakiraf.com/","lat":35.80651442,"lng":137.99330447,"weekday":"15:00-18:00","saturday":"09:00-17:00","sunday":"","holiday":"","closed":"日曜、祝日、お盆休み　８月14日〜８月16日、年末年始　12月30日〜１月３日","capacity":10,"id":"2050900154"},{"name":"放課後等デイサービスタイム","nameKana":"ほうかごとうでいさーびすたいむ","corp":"株式会社シード","serviceTypes":["放課後等デイサービス"],"ward":"駒ヶ根市","address":"長野県駒ヶ根市赤穂１０８２４","tel":"0265-98-8581","url":"https://www.facebook.com/%E6%94%BE%E8%AA%B2%E5%BE%8C%E7%AD%89%E3%83%87%E3%82%A4%E3%82%B5%E3%83%BC%E3%83%93%E3%82%B9-%E3%82%BF%E3%82%A4%E3%83%A0-113674153788017","lat":35.72728329,"lng":137.93382924,"weekday":"15:00-21:00","saturday":"09:00-16:00","sunday":"","holiday":"","closed":"日曜日・祝日・年末年始・お盆・ゴールデンウィーク","capacity":10,"id":"2051000152"},{"name":"放課後等デイサービスMｙｓ","nameKana":"ほうかごとうでいさーびすみーす","corp":"合同会社LOSKA","serviceTypes":["放課後等デイサービス"],"ward":"駒ヶ根市","address":"長野県駒ヶ根市上穂栄町10−３三和森南貸店舗","tel":"0265980348","url":"https://mys-jp.com/","lat":35.73642371,"lng":137.93229587,"weekday":"14:30-17:30","saturday":"","sunday":"","holiday":"10:00-15:00","closed":"土日、お盆（8/13〜8/16）、年末年始(12/30〜1/3)","capacity":10,"id":"2051000186"},{"name":"ひなた長野徳間教室","nameKana":"ひなたながのとくまきょうしつ","corp":"Hinata株式会社","serviceTypes":["放課後等デイサービス"],"ward":"長野市","address":"長野県長野市徳間３３２０　１F","tel":"026-266-0706","url":"https://tokuma.k-hfm.com/","lat":36.67503483,"lng":138.23188024,"weekday":"14:00-17:30","saturday":"10:00-16:30","sunday":"","holiday":"10:00-16:30","closed":"日曜日・お盆・年末年始","capacity":10,"id":"2050101043"},{"name":"ひふみ　中野たかおか教室","nameKana":"ひふみなかのたかおかきょうしつ","corp":"株式会社ひふみ","serviceTypes":["放課後等デイサービス"],"ward":"中野市","address":"長野県中野市草間1161-5","tel":"0269-38-0258","url":"http://takaoka.k-hfm.com/","lat":36.73451833,"lng":138.32381602,"weekday":"14:00-17:00","saturday":"09:00-16:00","sunday":"","holiday":"09:00-16:00","closed":"日曜日・１２月２９日〜１月３日・８月１３日〜１６日","capacity":10,"id":"2051100127"},{"name":"ひふみ千曲あわさ教室","nameKana":"ひふみちくまあわさきょうしつ","corp":"株式会社ひふみ","serviceTypes":["放課後等デイサービス"],"ward":"千曲市","address":"長野県千曲市粟佐１２９５−１","tel":"026-214-2597","url":"https://awasa.k-hfm.com/","lat":36.53505397,"lng":138.11983587,"weekday":"13:00-17:00","saturday":"10:00-17:00","sunday":"","holiday":"10:00-17:00","closed":"日曜日・年末年始(12/29〜1/3)・お盆(8/13〜8/16)","capacity":10,"id":"2051800205"},{"name":"ひふみ千曲桜堂教室","nameKana":"ひふみちくまさくらどうきょうしつ","corp":"株式会社ひふみ","serviceTypes":["放課後等デイサービス"],"ward":"千曲市","address":"長野県千曲市桜堂335-1","tel":"026-214-3880","url":"https://sakurado.k-hfm.com/","lat":36.52738273,"lng":138.12265227,"weekday":"14:00-17:00","saturday":"10:00-16:00","sunday":"","holiday":"10:00-16:00","closed":"日曜日、年末年始（１２月２９日〜１月３日）、お盆（8月１３日〜８月１６日）","capacity":10,"id":"2051800171"},{"name":"北信圏域障害者生活支援センターコンパス","nameKana":"ほくしんけんいきしょうがいしゃせいかつしえんせんたーこんぱす","corp":"高水福祉会","serviceTypes":["放課後等デイサービス"],"ward":"飯山市","address":"長野県飯山市大字飯山2363番地","tel":"0269-67-0167","url":"","lat":36.8545577,"lng":138.36476677,"weekday":"14:30-18:30","saturday":"","sunday":"","holiday":"","closed":"土日祝日、8/13〜16、12/29〜1/3","capacity":15,"id":"2051300032"},{"name":"ひふみ長野まゆみだ教室","nameKana":"ひふみながのまゆみだきょうしつ","corp":"株式会社ひふみ","serviceTypes":["放課後等デイサービス"],"ward":"長野市","address":"長野県長野市徳間１−１１−５","tel":"0262660631","url":"http://mayumida.k-hfm.com","lat":36.67805635,"lng":138.21933435,"weekday":"14:00-17:00","saturday":"","sunday":"","holiday":"10:00-16:00","closed":"土、日曜、お盆、年末年始","capacity":10,"id":"2050100888"},{"name":"ひふみ長野石渡教室","nameKana":"ひふみながのいしわたきょうしつ","corp":"株式会社ひふみ","serviceTypes":["放課後等デイサービス"],"ward":"長野市","address":"長野県長野市石渡47-5","tel":"026-219-1850","url":"","lat":36.66180987,"lng":138.24224335,"weekday":"13:00-17:00","saturday":"10:00-16:30","sunday":"","holiday":"10:00-16:30","closed":"日曜日及び12月29日〜1月3日、8月13日〜8月16日","capacity":10,"id":"2050100409"},{"name":"ひふみ長野稲葉教室","nameKana":"ひふみながのいなばきょうしつ","corp":"株式会社ひふみ","serviceTypes":["放課後等デイサービス"],"ward":"長野市","address":"長野県長野市稲葉2605-1滝澤ビル　２F","tel":"026-262-1801","url":"http://kp-nagano-inaba.com/","lat":36.63691881,"lng":138.20909102,"weekday":"14:00-17:30","saturday":"10:00-17:00","sunday":"","holiday":"10:00-17:00","closed":"日曜日　、お盆（8/13〜8/16）、　年末年始（12/29〜1/3）","capacity":10,"id":"2050100482"},{"name":"ひふみ長野吉田第２教室","nameKana":"ひふみながのよしだだいにきょうしつ","corp":"株式会社ひふみ","serviceTypes":["放課後等デイサービス"],"ward":"長野市","address":"長野県長野市吉田2-7-17","tel":"026-266-0808","url":"http://kp-nagano-yoshida2.com","lat":36.67116302,"lng":138.21593748,"weekday":"14:00-18:30","saturday":"10:00-16:00","sunday":"00:00-00:00","holiday":"10:00-16:00","closed":"日曜","capacity":10,"id":"2050100565"},{"name":"NPO法人キッズウィル　キッズウィルガーデン","nameKana":"えぬぴーおーほうじんきっずうぃるきっずうぃるがーでん","corp":"キッズウィル","serviceTypes":["放課後等デイサービス"],"ward":"大町","address":"長野県大町市大町６５４３番地","tel":"0261-85-4370","url":"https://kidswill.net/","lat":36.50294497,"lng":137.86050192,"weekday":"14:00-19:00","saturday":"","sunday":"09:00-18:00","holiday":"09:00-18:00","closed":"土・12月29日〜1月3日","capacity":10,"id":"2051200117"},