[{"name":"熱海市児童発達支援センター","nameKana":"あたみしじどうはったつしえんせんたー","corp":"株式会社エルチェ","serviceTypes":["児童発達支援"],"ward":"熱海市","address":"静岡県熱海市上多賀730番地の２","tel":"0557-48-6188","url":"https://atami-jhsc.com/","lat":35.06262998,"lng":139.07029265,"weekday":"09:00-16:30","saturday":"","sunday":"","holiday":"","closed":"土日祝日","capacity":10,"id":"2250500044"},{"name":"グローバルキッズメソッド92","nameKana":"ぐろーばるきっずめそっどないんてぃつー","corp":"ハッピーホールディングス株式会社","serviceTypes":["児童発達支援"],"ward":"静岡市","address":"静岡県静岡市駿河区大谷449番地の2","tel":"054-204-7503","url":"","lat":34.96789672,"lng":138.42659146,"weekday":"","saturday":"","sunday":"","holiday":"","closed":"","capacity":null,"id":"2254230630"},{"name":"グローバルキッズメソッド１１１","nameKana":"ぐろーばるきっずめそっどいちいちいち","corp":"ハッピーホールディングス株式会社","serviceTypes":["児童発達支援","放課後等デイサービス"],"ward":"富士市","address":"静岡県富士市松岡1573—１","tel":"0545-32-8915","url":"","lat":35.15712527,"lng":138.63468165,"weekday":"","saturday":"","sunday":"","holiday":"","closed":"","capacity":null,"id":"2252300799"},{"name":"グローバルキッズメソッド１２８","nameKana":"ぐろーばるきっずめそっどいちにはち","corp":"ハッピーホールディングス株式会社","serviceTypes":["児童発達支援"],"ward":"沼津市","address":"静岡県沼津市神田町10−22","tel":"055-957-2605","url":"","lat":35.11884627,"lng":138.86733844,"weekday":"","saturday":"","sunday":"","holiday":"","closed":"","capacity":null,"id":"2251100539"},{"name":"グローバルキッズメソッド132","nameKana":"ぐろーばるきっずめそっどいちさんに","corp":"ハッピーライフケア株式会社","serviceTypes":["児童発達支援"],"ward":"静岡市","address":"静岡県静岡市葵区南沼上一丁目3番19号","tel":"054-395-7572","url":"","lat":35.00842711,"lng":138.40543949,"weekday":"","saturday":"","sunday":"","holiday":"","closed":"","capacity":null,"id":"2254201060"},{"name":"多機能型通所事業所ひぽぽ","nameKana":"たきのうがたつうしょじぎょうしょひぽぽ","corp":"合同会社元気いっぱい夢いっぱい","serviceTypes":["児童発達支援","放課後等デイサービス"],"ward":"浜松市","address":"静岡県浜松市中央区大蒲町120-14F","tel":"053-463-6310","url":"","lat":34.71519837,"lng":137.76909819,"weekday":"10:00-13:00","saturday":"","sunday":"","holiday":"","closed":"土・日・祝日","capacity":5,"id":"2257272027"},{"name":"ハビー新静岡駅前教室","nameKana":"はびーしんしずおかえきまえきょうしつ","corp":"ウェルビー株式会社","serviceTypes":["児童発達支援"],"ward":"静岡市","address":"静岡県静岡市葵区伝馬町8-1　サンローゼビル５階","tel":"054-293-7312","url":"","lat":34.97492873,"lng":138.38711996,"weekday":"09:45-17:00","saturday":"09:45-17:00","sunday":"09:45-17:00","holiday":"09:45-17:00","closed":"月曜日、火曜日、当社で定めた年末年始休暇","capacity":10,"id":"2254200963"},{"name":"LITALICOジュニア静岡教室","nameKana":"りたりこじゅにあしずおかきょうしつ","corp":"株式会社ＬＩＴＡＬＩＣＯパートナーズ","serviceTypes":["児童発達支援"],"ward":"静岡市","address":"静岡県静岡市駿河区南町５−２１濱一ビル４F","tel":"054-280-2011","url":"https://junior.litalico.jp/school/shizuoka/shizuoka/","lat":34.96878786,"lng":138.3900865,"weekday":"12:30-18:30","saturday":"09:45-17:45","sunday":"09:45-17:45","holiday":"12:30-18:30","closed":"事業所が定める休業日","capacity":10,"id":"2254230358"},{"name":"ＴＯＫＵＺＯジュニア三島清水町教室","nameKana":"とくぞーじゅにあみしましみずちょうきょうしつ","corp":"Ｍｏｔｓ　Ｌａｂ合同会社","serviceTypes":["児童発達支援","放課後等デイサービス"],"ward":"駿東郡清水町","address":"静岡県駿東郡清水町玉川字柳ヶ坪159−１","tel":"055-949-9082","url":"http://www.motslab-llc.com","lat":35.0989816,"lng":138.90300029,"weekday":"","saturday":"","sunday":"","holiday":"","closed":"","capacity":null,"id":"2251310351"},{"name":"ハッピーテラスときわ教室","nameKana":"はっぴーてらすときわきょうしつ","corp":"株式会社オフィスアイ","serviceTypes":["児童発達支援","放課後等デイサービス"],"ward":"静岡市","address":"静岡県静岡市葵区駒形通二丁目1番3号","tel":"054-255-5305","url":"https://happy-terrace.com/school/tokiwa/","lat":34.96957928,"lng":138.3787181,"weekday":"","saturday":"","sunday":"","holiday":"","closed":"","capacity":null,"id":"2254201151"},{"name":"放課後等デイサービス　ウィズ・ユー三島","nameKana":"ほうかごとうでいさーびすうぃずゆーみしま","corp":"株式会社あますん","serviceTypes":["児童発達支援"],"ward":"三島市","address":"静岡県三島市加屋町1-12松田ビル２階","tel":"0559555510","url":"","lat":35.11748576,"lng":138.90581306,"weekday":"10:00-16:00","saturday":"10:30-17:30","sunday":"","holiday":"10:30-17:30","closed":"日曜日　年末年始（12月30日〜1月3日）","capacity":10,"id":"2250600216"},{"name":"伊豆小室山ひまわり","nameKana":"いずこむろやまひまわり","corp":"障害福祉支援もえぎ株式会社","serviceTypes":["児童発達支援"],"ward":"伊東市","address":"静岡県伊東市川奈1261番地37号","tel":"0557-52-6824","url":"https://moegi-group.net/facility/伊豆小室山ひまわり第一教室・第二教室/","lat":34.94333432,"lng":139.12395793,"weekday":"","saturday":"","sunday":"","holiday":"","closed":"","capacity":null,"id":"2250400138"},{"name":"スキップ","nameKana":"すきっぷ","corp":"合同会社あきみ","serviceTypes":["児童発達支援","放課後等デイサービス"],"ward":"静岡市","address":"静岡県静岡市葵区巴町23番地の１","tel":"054-200-0020","url":"http://skip-5.com","lat":34.98526921,"lng":138.39400788,"weekday":"09:30-15:30","saturday":"","sunday":"","holiday":"","closed":"土日祝、夏季休暇（8月13日〜8月15日）、年末年始（12月29日〜１月３日）","capacity":10,"id":"2254200617"},{"name":"まつぼっくり","nameKana":"まつぼっくり","corp":"社会福祉法人静岡福祉会","serviceTypes":["児童発達支援","放課後等デイサービス"],"ward":"静岡市","address":"静岡県静岡市葵区昭府一丁目20番33号","tel":"054-270-3005","url":"","lat":34.99947,"lng":138.37197345,"weekday":"09:00-15:00","saturday":"","sunday":"","holiday":"","closed":"土曜日、日曜日、祝日","capacity":10,"id":"2254200682"},{"name":"えくぼ","nameKana":"えくぼ","corp":"社会福祉法人　柳原福祉会","serviceTypes":["児童発達支援","放課後等デイサービス"],"ward":"静岡市","address":"静岡県静岡市葵区北一丁目30番20号","tel":"054-249-5580","url":"http://ekubo-kids.com","lat":35.0297915,"lng":138.39374323,"weekday":"09:00-16:00","saturday":"09:00-17:00","sunday":"","holiday":"09:00-17:00","closed":"日曜日、12/29〜1/3","capacity":10,"id":"2254200690"},{"name":"コペルプラス　静岡竜南教室","nameKana":"こぺるぷらすしずおかりゅうなんきょうしつ","corp":"株式会社建装","serviceTypes":["児童発達支援"],"ward":"静岡市","address":"静岡県静岡市葵区竜南一丁目10-28　２F","tel":"054-395-5900","url":"https://copelplus.copel.co.jp/school/shizuoka-ryunan/","lat":34.99759255,"lng":138.39831266,"weekday":"10:00-18:00","saturday":"10:00-18:00","sunday":"","holiday":"","closed":"日曜・月曜・国民の祝日・夏季・冬季休暇","capacity":10,"id":"2254200724"},{"name":"ロペ","nameKana":"ろぺ","corp":"寿陽会合同会社","serviceTypes":["児童発達支援","放課後等デイサービス"],"ward":"静岡市","address":"静岡県静岡市葵区安東二丁目18番16号","tel":"054-246-0186","url":"","lat":34.98837423,"lng":138.38338944,"weekday":"","saturday":"","sunday":"","holiday":"","closed":"","capacity":null,"id":"2254200815"},{"name":"ロペキッズ","nameKana":"ろぺきっず","corp":"寿陽会合同会社","serviceTypes":["児童発達支援","放課後等デイサービス"],"ward":"静岡市","address":"静岡県静岡市葵区安東三丁目５番3号","tel":"080-9733-1065","url":"https://juyoukai.net/","lat":34.99065453,"lng":138.38717785,"weekday":"","saturday":"","sunday":"","holiday":"","closed":"","capacity":null,"id":"2254200823"},{"name":"ロペくさなぎ","nameKana":"ろぺくさなぎ","corp":"寿陽会合同会社","serviceTypes":["児童発達支援","放課後等デイサービス"],"ward":"静岡市","address":"静岡県静岡市清水区七ツ新屋二丁目5番10号","tel":"070-1632-7552","url":"","lat":35.01096787,"lng":138.45103634,"weekday":"","saturday":"","sunday":"","holiday":"","closed":"","capacity":null,"id":"2254260876"},{"name":"アトリエ　ロペ","nameKana":"あとりえろぺ","corp":"寿陽会合同会社","serviceTypes":["児童発達支援","放課後等デイサービス"],"ward":"静岡市","address":"静岡県静岡市葵区安東３丁目５−３４","tel":"054-246-0186","url":"https://juyoukai.net","lat":34.99065175,"lng":138.38737227,"weekday":"","saturday":"","sunday":"","holiday":"","closed":"","capacity":null,"id":"2254201037"},{"name":"児童発達支援事業所とことこ","nameKana":"じどうはったつしえんじぎょうしょとことこ","corp":"特定非営利活動法人なのはな","serviceTypes":["児童発達支援"],"ward":"静岡市","address":"静岡県静岡市葵区北一丁目16番５号","tel":"054-295-6789","url":"http://tocotoco.nanohanakodomo.jp","lat":35.03398273,"lng":138.39582634,"weekday":"09:00-16:00","saturday":"","sunday":"","holiday":"","closed":"土日祝","capacity":10,"id":"2254200856"},{"name":"児童発達支援・放課後等デイサービス　ピース","nameKana":"じどうはったつしえんほうかごとうでいさーびすぴーす","corp":"株式会社kind","serviceTypes":["児童発達支援","放課後等デイサービス"],"ward":"静岡市","address":"静岡県静岡市葵区安西5丁目23-2","tel":"054-292-6777","url":"https://kind-0415.com","lat":34.97598107,"lng":138.36538324,"weekday":"08:30-16:30","saturday":"","sunday":"","holiday":"","closed":"日祝日","capacity":10,"id":"2254200872"},{"name":"児童発達支援ＣitaＣita チタチタ","nameKana":"じどうはったつしえんちたちた","corp":"Conoko合同会社","serviceTypes":["児童発達支援"],"ward":"静岡市","address":"静岡県静岡市駿河区中吉田17番22号","tel":"0543956288","url":"https://sites.google.com/conoko.jp/citacita","lat":34.99961586,"lng":138.43304906,"weekday":"09:30-15:30","saturday":"","sunday":"","holiday":"","closed":"土日祝","capacity":10,"id":"2254230556"},{"name":"多機能型児童発達支援センターAs　Natural","nameKana":"たきのうがたじどうはったつしえんせんたーあずなちゅらる","corp":"医療法人社団As　Natural","serviceTypes":["児童発達支援","医療型児童発達支援","放課後等デイサービス"],"ward":"静岡市","address":"静岡県静岡市葵区瀬名三丁目38番2号","tel":"054-277-9707","url":"https://as-natural.com/","lat":35.0226432,"lng":138.42395741,"weekday":"09:00-15:00","saturday":"09:00-15:00","sunday":"","holiday":"","closed":"国民の祝日、８月中旬の夏季休暇、12-1月の冬季休暇","capacity":10,"id":"2254201011"},{"name":"ｓｍｉｌｅすみれ","nameKana":"すまいるすみれ","corp":"静岡県障害児教育の充実を願う会","serviceTypes":["児童発達支援","放課後等デイサービス"],"ward":"静岡市","address":"静岡県静岡市葵区北安東二丁目28番22号","tel":"054-395-6987","url":"https://smile-sumire.wixsite.com/mystyle","lat":34.99892291,"lng":138.38628877,"weekday":"09:00-15:00","saturday":"","sunday":"","holiday":"","closed":"土日　祝日、年末年始","capacity":10,"id":"2254201003"},{"name":"ちむ","nameKana":"ちむ","corp":"株式会社ｃｈｉｍ","serviceTypes":["児童発達支援","放課後等デイサービス"],"ward":"静岡市","address":"静岡県静岡市葵区牧ケ谷2300番地の2","tel":"054-395-7005","url":"","lat":34.96833446,"lng":138.35264588,"weekday":"11:00-17:00","saturday":"10:00-16:00","sunday":"","holiday":"","closed":"","capacity":10,"id":"2254201029"},{"name":"こどもリハビリ発達支援青い鳥","nameKana":"こどもりはびりはったつしえんあおいとり","corp":"株式会社こどもリハビリ発達支援青い鳥","serviceTypes":["児童発達支援","放課後等デイサービス"],"ward":"静岡市","address":"静岡県静岡市葵区大岩本町2番12号","tel":"054-340-0058","url":"http://aoitori.lovesick.jp","lat":34.98748819,"lng":138.38075922,"weekday":"","saturday":"","sunday":"","holiday":"","closed":"","capacity":10,"id":"2254201086"},{"name":"るしおる","nameKana":"るしおる","corp":"夢殿会","serviceTypes":["児童発達支援","放課後等デイサービス"],"ward":"静岡市","address":"静岡県静岡市葵区新間393番地の122階","tel":"070-5593-4467","url":"","lat":34.98801725,"lng":138.30585843,"weekday":"09:30-15:00","saturday":"","sunday":"","holiday":"","closed":"土・日・祝祭日及び管理者が決めた日","capacity":10,"id":"2254201144"},{"name":"いっぽ","nameKana":"いっぽ","corp":"社会福祉法人愛誠会","serviceTypes":["児童発達支援"],"ward":"藤枝市","address":"静岡県藤枝市前島２丁目１−４３プラザⅡ3階","tel":"054-639-7963","url":"http://www.swc-aisei.or.jp","lat":34.84704378,"lng":138.25347006,"weekday":"09:30-15:30","saturday":"09:30-15:30","sunday":"","holiday":"09:30-15:30","closed":"年末年始および土曜日、日曜日（事業者が指定する日を除く）","capacity":10,"id":"2255300200"},{"name":"静岡市心身障害児福祉センターいこいの家","nameKana":"しずおかししんしんしょうがいじふくしせんたーいこいのいえ","corp":"静岡市","serviceTypes":["児童発達支援"],"ward":"静岡市","address":"静岡県静岡市葵区城東町２４−１","tel":"054-249-3190","url":"http://www.ikoinoie-kodomo.jp/","lat":34.98621067,"lng":138.38760851,"weekday":"08:30-17:00","saturday":"","sunday":"","holiday":"","closed":"土・日・祝日　12月27日〜1月5日","capacity":50,"id":"2254200054"},{"name":"トミーズ","nameKana":"とみーず","corp":"社会福祉法人愛誠会","serviceTypes":["児童発達支援"],"ward":"静岡市","address":"静岡県静岡市葵区追手町４６中町ＣＦビル２Ｆ","tel":"054-255-1553","url":"https://swc-aisei.or.jp","lat":34.97699227,"lng":138.37965955,"weekday":"09:00-16:00","saturday":"09:00-16:00","sunday":"00:00-00:00","holiday":"09:00-16:00","closed":"日曜日・年末年始（１２月３０日〜１月３日）","capacity":10,"id":"2254200088"},{"name":"独立行政法人国立病院機構静岡てんかん・神経医療センター","nameKana":"どくりつぎょうせいほうじんこくりつびょういんきこうしずおかてんかんしんけいいりょうせんたー","corp":"独立行政法人国立病院機構静岡てんかん・神経医療センター","serviceTypes":["児童発達支援"],"ward":"静岡市","address":"静岡県静岡市葵区漆山８８６　","tel":"054-245-5446","url":"https://shizuokamind.hosp.go.jp/","lat":35.01899263,"lng":138.39773175,"weekday":"09:00-16:00","saturday":"00:00-00:00","sunday":"00:00-00:00","holiday":"00:00-00:00","closed":"土日祝日　年末年始","capacity":5,"id":"2254200153"},{"name":"わくわく","nameKana":"わくわく","corp":"認定ＮＰＯ法人活き生きネットワーク","serviceTypes":["児童発達支援","放課後等デイサービス"],"ward":"静岡市","address":"静岡県静岡市葵区安東１丁目２６番１２号","tel":"054-209-6400","url":"http://npo-ikiiki.net/","lat":34.98631058,"lng":138.38206466,"weekday":"10:00-17:00","saturday":"10:00-17:00","sunday":"","holiday":"10:00-17:00","closed":"日曜日、年末年始","capacity":8,"id":"2254200062"},{"name":"のびっこハウス","nameKana":"のびっこはうす","corp":"認定ＮＰＯ法人活き生きネットワーク","serviceTypes":["児童発達支援","居宅訪問型児童発達支援"],"ward":"静岡市","address":"静岡県静岡市葵区長谷町２４番地","tel":"054-200-1517","url":"http://npo-ikiiki.net/","lat":34.98470244,"lng":138.38142033,"weekday":"09:00-16:00","saturday":"09:00-16:00","sunday":"","holiday":"09:00-16:00","closed":"日曜　年末年始　夏季休暇","capacity":10,"id":"2254200419"},{"name":"るんるん","nameKana":"るんるん","corp":"認定ＮＰＯ法人活き生きネットワーク","serviceTypes":["児童発達支援","放課後等デイサービス"],"ward":"静岡市","address":"静岡県静岡市葵区安東１丁目２６番１２号","tel":"054-200-1525","url":"http://npo-ikiiki.net/","lat":34.98631058,"lng":138.38206466,"weekday":"10:00-16:00","saturday":"10:00-16:00","sunday":"","holiday":"10:00-16:00","closed":"日　年末年始　夏季休暇","capacity":3,"id":"2254260124"},{"name":"にこにこ","nameKana":"にこにこ","corp":"認定ＮＰＯ法人活き生きネットワーク","serviceTypes":["児童発達支援","放課後等デイサービス"],"ward":"静岡市","address":"静岡県静岡市葵区安東１丁目26番14号","tel":"054-209-6800","url":"http://npo-ikiiki.net/index.html","lat":34.98637446,"lng":138.38192857,"weekday":"10:00-16:00","saturday":"10:00-16:00","sunday":"","holiday":"10:00-16:00","closed":"日曜・年末年始","capacity":3,"id":"2254260470"},{"name":"りずむ","nameKana":"りずむ","corp":"株式会社ＷＩＬＬ","serviceTypes":["児童発達支援"],"ward":"静岡市","address":"静岡県静岡市清水区袖師町５１５番地の２","tel":"054-376-5504","url":"http://will.sun.bindcloud.jp/index.html","lat":35.03700409,"lng":138.49027355,"weekday":"09:00-15:30","saturday":"","sunday":"","holiday":"","closed":"　日曜日　祝日","capacity":10,"id":"2254260488"},{"name":"ぱっそ　音羽町教室","nameKana":"ぱっそおとわちょうきょうしつ","corp":"特定非営利活動法人しずおか福祉の街づくり","serviceTypes":["児童発達支援"],"ward":"静岡市","address":"静岡県静岡市葵区音羽町5番17号","tel":"054-395-5165","url":"https://www.shizuoka-fukushi.or.jp","lat":34.98018927,"lng":138.39332199,"weekday":"09:30-17:10","saturday":"09:30-17:10","sunday":"","holiday":"09:30-17:10","closed":"日曜日，月曜日","capacity":10,"id":"2254200369"},{"name":"ぱっそ大和教室","nameKana":"ぱっそやまときょうしつ","corp":"特定非営利活動法人しずおか福祉の街づくり","serviceTypes":["児童発達支援","放課後等デイサービス"],"ward":"静岡市","address":"静岡県静岡市駿河区大和一丁目６番27号なし","tel":"054-292-5355","url":"https://www.shizuoka-fukushi.or.jp/","lat":34.97384289,"lng":138.39788839,"weekday":"10:00-17:00","saturday":"","sunday":"","holiday":"","closed":"土曜日、日曜日、祝日","capacity":10,"id":"2254230101"},{"name":"フォセット","nameKana":"ふぉせっと","corp":"特定非営利活動法人バディー","serviceTypes":["児童発達支援"],"ward":"静岡市","address":"静岡県静岡市葵区井宮町210番地","tel":"054-204-3151","url":"http://www.npo-buddy.net/room/fossette.html","lat":34.98696592,"lng":138.37132422,"weekday":"09:00-17:00","saturday":"09:00-17:00","sunday":"","holiday":"","closed":"日祝日　8/12〜8/16　12/29〜1/3","capacity":10,"id":"2254200591"},{"name":"Smileすみれ","nameKana":"すみれ","corp":"静岡県障害児教育の充実を願う会","serviceTypes":["児童発達支援","放課後等デイサービス"],"ward":"静岡市","address":"静岡県静岡市葵区北安東二丁目28番22号","tel":"054-395-6987","url":"https://smile-sumire.wixsite.com/mystyle","lat":34.99891735,"lng":138.38629155,"weekday":"09:00-15:00","saturday":"","sunday":"","holiday":"","closed":"土曜、日曜、祝日、年末年始休み","capacity":10,"id":"2254200609"},{"name":"いるかくらぶ","nameKana":"いるかくらぶ","corp":"株式会社ライフクリエイト","serviceTypes":["児童発達支援","放課後等デイサービス"],"ward":"静岡市","address":"静岡県静岡市葵区東千代田一丁目９番１１号","tel":"054-267-6177","url":"http://irukaclub.jp","lat":35.00091161,"lng":138.40937268,"weekday":"09:30-17:00","saturday":"","sunday":"","holiday":"","closed":"土曜日・日曜・祝日","capacity":10,"id":"2254200344"},{"name":"星とたんぽぽ","nameKana":"ほしとたんぽぽ","corp":"株式会社とやまかいご","serviceTypes":["児童発達支援","放課後等デイサービス"],"ward":"静岡市","address":"静岡県静岡市葵区新富町五丁目7-24200061","tel":"0542926102","url":"https://hoshitotampopo.com/","lat":34.97002076,"lng":138.36960784,"weekday":"","saturday":"","sunday":"","holiday":"","closed":"日・祝","capacity":null,"id":"2254200880"},{"name":"星とたんぽぽ清水入江","nameKana":"ほしとたんぽぽしみずいりえ","corp":"株式会社とやまかいご","serviceTypes":["児童発達支援","放課後等デイサービス"],"ward":"静岡市","address":"静岡県静岡市清水区入江三丁目6番27−2号","tel":"054-368-7455","url":"","lat":35.0183673,"lng":138.47629204,"weekday":"09:00-17:40","saturday":"09:00-17:40","sunday":"","holiday":"","closed":"日、月、祝","capacity":10,"id":"2254260975"},{"name":"星とたんぽぽ東新田うんどう・まなび","nameKana":"ほしとたんぽぽとうしんでんうんどうまなび","corp":"株式会社とやまかいご","serviceTypes":["児童発達支援","放課後等デイサービス"],"ward":"静岡市","address":"静岡県静岡市駿河区東新田四丁目18番65号","tel":"054-292-6250","url":"","lat":34.94281573,"lng":138.3740555,"weekday":"09:45-17:45","saturday":"09:45-17:45","sunday":"","holiday":"","closed":"日月祝","capacity":10,"id":"2254230747"},{"name":"まほら。（andまほら）","nameKana":"まほらあんどまほら","corp":"株式会社ＨＳＳ","serviceTypes":["児童発達支援"],"ward":"三島市","address":"静岡県三島市長伏83-1コーポラス杉山V　1F-C号","tel":"055-939-8983","url":"https://www.mahorahanaemi-co.net","lat":35.08954108,"lng":138.91715469,"weekday":"10:00-14:00","saturday":"","sunday":"","holiday":"","closed":"土曜日・日曜日・祝日","capacity":10,"id":"2250600190"},{"name":"きりん","nameKana":"きりん","corp":"株式会社ＨＳＳ","serviceTypes":["児童発達支援","放課後等デイサービス"],"ward":"藤枝市","address":"静岡県藤枝市高洲472-2","tel":"054-625-9988","url":"http://hss-co.net/","lat":34.83476542,"lng":138.26595818,"weekday":"10:00-17:00","saturday":"10:00-16:00","sunday":"","holiday":"10:00-16:00","closed":"土曜日曜年末年始　そのほか会社スケジュールによる","capacity":10,"id":"2255300366"},{"name":"こころ","nameKana":"こころ","corp":"株式会社ＨＳＳ","serviceTypes":["児童発達支援"],"ward":"静岡市","address":"静岡県静岡市駿河区池田1800番地の１","tel":"054-395-5622","url":"","lat":34.98188412,"lng":138.43120471,"weekday":"10:00-17:00","saturday":"10:00-16:00","sunday":"","holiday":"10:00-16:00","closed":"日曜日","capacity":10,"id":"2254230135"},{"name":"すずめ","nameKana":"すずめ","corp":"株式会社ＨＳＳ","serviceTypes":["児童発達支援","放課後等デイサービス"],"ward":"静岡市","address":"静岡県静岡市葵区羽鳥六丁目25番30号","tel":"054-295-7517","url":"http://hss-co.net/","lat":34.98731819,"lng":138.33608033,"weekday":"10:00-17:00","saturday":"10:00-16:00","sunday":"","holiday":"10:00-16:00","closed":"","capacity":10,"id":"2254201102"},{"name":"ミナシアBASE","nameKana":"みなしあべーす","corp":"株式会社Minashia","serviceTypes":["児童発達支援"],"ward":"静岡市","address":"静岡県静岡市駿河区豊原町3番15号多々良ビル１階","tel":"054-687-8540","url":"http://minashia.jp/","lat":34.9752733,"lng":138.40061587,"weekday":"09:00-16:00","saturday":"09:00-16:00","sunday":"","holiday":"","closed":"土・日・祝日","capacity":10,"id":"2254230184"},{"name":"こども発達支援　ぴぴ","nameKana":"こどもはったつしえんぴぴ","corp":"特定非営利活動法人ぴゅあ","serviceTypes":["児童発達支援","放課後等デイサービス","居宅訪問型児童発達支援"],"ward":"静岡市","address":"静岡県静岡市駿河区登呂三丁目３番１号","tel":"054-204-5930","url":"","lat":34.95928643,"lng":138.40554923,"weekday":"08:30-16:30","saturday":"08:30-16:30","sunday":"","holiday":"","closed":"金・日・祝日・年末年始","capacity":5,"id":"2254230408"},{"name":"あおい","nameKana":"あおい","corp":"社会福祉法人駿府葵会","serviceTypes":["児童発達支援","放課後等デイサービス"],"ward":"静岡市","address":"静岡県静岡市葵区竜南3-10-16　","tel":"054-291-6233","url":"http://sunpuaoikai.or.jp/n-kusabuka/","lat":35.00017833,"lng":138.40224001,"weekday":"10:30-18:30","saturday":"00:00-00:00","sunday":"00:00-00:00","holiday":"09:30-17:30","closed":"土曜日・日曜日","capacity":10,"id":"2254200674"},{"name":"あおい中村町","nameKana":"あおいなかむらちょう","corp":"社会福祉法人駿府葵会","serviceTypes":["児童発達支援","放課後等デイサービス"],"ward":"静岡市","address":"静岡県静岡市駿河区中村町12番地の3","tel":"054-291-7474","url":"","lat":34.95489236,"lng":138.39298388,"weekday":"10:30-18:30","saturday":"","sunday":"","holiday":"09:30-17:30","closed":"土日","capacity":10,"id":"2254230572"},{"name":"あおい城北","nameKana":"あおいじょうほく","corp":"社会福祉法人駿府葵会","serviceTypes":["児童発達支援","放課後等デイサービス"],"ward":"静岡市","address":"静岡県静岡市葵区竜南二丁目１番38号","tel":"054-297-3303","url":"https://sunpuaoikai.or.jp/johoku/index.html","lat":35.00068935,"lng":138.4004596,"weekday":"10:30-18:30","saturday":"","sunday":"","holiday":"09:30-17:30","closed":"土曜日・日曜日","capacity":10,"id":"2254201052"},{"name":"こども発達ひろば　まんまる","nameKana":"こどもはったつひろばまんまる","corp":"株式会社　エスプロジエ","serviceTypes":["児童発達支援"],"ward":"静岡市","address":"静岡県静岡市清水区草薙１３２２−１３","tel":"0543487970","url":"https://manmaru.splanner.co.jp/","lat":35.0158816,"lng":138.4895269,"weekday":"","saturday":"","sunday":"","holiday":"","closed":"","capacity":null,"id":"2254260751"},{"name":"こども発達ひろばたねまる","nameKana":"こどもはったつひろばたねまる","corp":"株式会社　エスプロジエ","serviceTypes":["児童発達支援"],"ward":"静岡市","address":"静岡県静岡市清水区草薙1322番地の16","tel":"054-340-3400","url":"","lat":34.99984409,"lng":138.45052292,"weekday":"","saturday":"","sunday":"","holiday":"","closed":"","capacity":null,"id":"2254261023"},{"name":"児童発達支援・放課後等デイサービスみんと","nameKana":"じどうはったつしえんほうかごとうでいさーびすみんと","corp":"合同会社　える","serviceTypes":["児童発達支援","放課後等デイサービス"],"ward":"静岡市","address":"静岡県静岡市葵区駒形通六丁目13番26号","tel":"054-273-8448","url":"https://elu-llc.com","lat":34.96260225,"lng":138.37249947,"weekday":"09:30-17:30","saturday":"09:30-17:30","sunday":"","holiday":"09:30-17:30","closed":"日曜日、ゴールデンウィーク、年末年始","capacity":5,"id":"2254200765"},{"name":"ブロッサムジュニア　静岡下川原教室","nameKana":"ぶろっさむじゅにあしずおかしもかわはらきょうしつ","corp":"株式会社ヒットエンドラン","serviceTypes":["児童発達支援","放課後等デイサービス"],"ward":"静岡市","address":"静岡県静岡市駿河区下川原三丁目35番38号","tel":"054-266-6188","url":"","lat":34.93503881,"lng":138.37129206,"weekday":"","saturday":"","sunday":"","holiday":"","closed":"日曜日","capacity":10,"id":"2254230390"},{"name":"こども教室ｎｉｃｏ","nameKana":"こどもきょうしつにこ","corp":"リトルハウス合同会社","serviceTypes":["児童発達支援","放課後等デイサービス"],"ward":"静岡市","address":"静岡県静岡市駿河区広野3-9-10","tel":"054-204-8177","url":"https://www.nico-shizuoka.com/","lat":34.93141977,"lng":138.37079495,"weekday":"10:00-17:00","saturday":"","sunday":"","holiday":"","closed":"土日","capacity":10,"id":"2254230440"},{"name":"ミナシアＦｒｉｅｎｄｓ","nameKana":"みなしあふれんず","corp":"ふくがうち合同会社","serviceTypes":["児童発達支援"],"ward":"静岡市","address":"静岡県静岡市駿河区高松二丁目17番33号　ベネフィック天野101","tel":"0542042422","url":"","lat":34.95164588,"lng":138.42277285,"weekday":"","saturday":"","sunday":"","holiday":"","closed":"日、祝、年末年始","capacity":null,"id":"2254230481"},{"name":"ありぃ","nameKana":"ありぃ","corp":"一般社団法人しずおかこども発達支援","serviceTypes":["児童発達支援"],"ward":"静岡市","address":"静岡県静岡市駿河区西脇1177番地の６","tel":"050-3154-0856","url":"https://scsds.jp","lat":34.95078187,"lng":138.40194985,"weekday":"08:30-16:30","saturday":"","sunday":"","holiday":"","closed":"土曜日　日曜日　祝日　ゴールデンウィーク　夏季　年末年始","capacity":10,"id":"2254230531"},{"name":"つばめ","nameKana":"つばめ","corp":"株式会社サポートスタッフ","serviceTypes":["児童発達支援","放課後等デイサービス"],"ward":"静岡市","address":"静岡県静岡市葵区羽鳥六丁目2番26号","tel":"054-395-7235","url":"","lat":34.98383803,"lng":138.33711644,"weekday":"09:00-12:00","saturday":"","sunday":"","holiday":"","closed":"土曜日日曜日祝日","capacity":10,"id":"2254200914"},{"name":"ぽかぽか岡宮","nameKana":"ぽかぽかおかのみや","corp":"特定非営利活動法人Ｐ・Ｃ・Ｓ","serviceTypes":["児童発達支援","放課後等デイサービス"],"ward":"沼津市","address":"静岡県沼津市岡宮275　椎田ビル１階","tel":"055-941-5886","url":"","lat":35.12399033,"lng":138.8715907,"weekday":"13:00-18:00","saturday":"","sunday":"","holiday":"09:00-17:00","closed":"","capacity":10,"id":"2251100489"},{"name":"ぽかぽか清水町","nameKana":"ぽかぽかしみずちょう","corp":"特定非営利活動法人Ｐ・Ｃ・Ｓ","serviceTypes":["児童発達支援","放課後等デイサービス"],"ward":"駿東郡清水町","address":"静岡県駿東郡清水町伏見596-8","tel":"055-939-7885","url":"","lat":35.11578021,"lng":138.89808334,"weekday":"","saturday":"","sunday":"","holiday":"","closed":"","capacity":null,"id":"2251310286"},{"name":"ＣＡＮＤＹ","nameKana":"きゃんでぃ","corp":"株式会社Ｓ‐プレイス","serviceTypes":["児童発達支援","放課後等デイサービス"],"ward":"静岡市","address":"静岡県静岡市駿河区中原397番地の2","tel":"054-204-0770","url":"","lat":34.95585327,"lng":138.38631781,"weekday":"","saturday":"","sunday":"","holiday":"","closed":"","capacity":null,"id":"2254230713"},{"name":"ミナシアFriends見瀬教室","nameKana":"みなしあふれんずみせきょうしつ","corp":"ながお合同会社","serviceTypes":["児童発達支援"],"ward":"静岡市","address":"静岡県静岡市駿河区見瀬264番地の2","tel":"054-260-9440","url":"https://minashia-friends.jp/school/mise/","lat":34.95932787,"lng":138.38738426,"weekday":"09:00-17:00","saturday":"","sunday":"","holiday":"","closed":"土日祝","capacity":null,"id":"2254230770"},{"name":"伊豆医療福祉センター","nameKana":"いずいりょうふくしせんたー","corp":"社会福祉法人恩賜財団済生会支部静岡県済生会","serviceTypes":["児童発達支援"],"ward":"伊豆の国市","address":"静岡県伊豆の国市寺家２０２","tel":"055-949-1165","url":"http://www.izuiryo.jp/","lat":35.04843876,"lng":138.94326956,"weekday":"09:30-15:30","saturday":"","sunday":"","holiday":"","closed":"","capacity":5,"id":"2252200163"},{"name":"ゆいまある児童発達・放課後支援部","nameKana":"ゆいまあるじどうはったつほうかごしえんぶ","corp":"社会福祉法人健生会","serviceTypes":["児童発達支援","放課後等デイサービス"],"ward":"静岡市","address":"静岡県静岡市駿河区敷地二丁目２３−６","tel":"054-659-9899","url":"http://yuimaru20150601.wixsite.com/yuimaaruhoukago","lat":34.95035707,"lng":138.41489587,"weekday":"09:00-17:30","saturday":"","sunday":"","holiday":"","closed":"土曜、日曜、祝日、夏季休暇、年末年始","capacity":10,"id":"2254260348"},{"name":"ＬＩＢ","nameKana":"りぶ","corp":"社会福祉法人健生会","serviceTypes":["児童発達支援","放課後等デイサービス"],"ward":"静岡市","address":"静岡県静岡市駿河区敷地１丁目２４−２５","tel":"054-659-8335","url":"https://lib0201.wixsite.com/2019","lat":34.95321781,"lng":138.41187107,"weekday":"09:45-17:00","saturday":"09:00-17:00","sunday":"","holiday":"","closed":"土曜、日曜、祝日、夏季休暇、年末年始","capacity":10,"id":"2254230127"},{"name":"ステップアップ鎌田校","nameKana":"すてっぷあっぷかまたこう","corp":"株式会社キッズサポート","serviceTypes":["児童発達支援","放課後等デイサービス"],"ward":"静岡市","address":"静岡県静岡市駿河区鎌田98番地の8増田アパート１階","tel":"054-259-5063","url":"https://www.support-group.jp/kidssupport/","lat":34.94386533,"lng":138.36044856,"weekday":"","saturday":"","sunday":"","holiday":"","closed":"","capacity":null,"id":"2254230416"},{"name":"ステップアップ鎌田校第2","nameKana":"すてっぷあっぷかまたこうだいに","corp":"株式会社キッズサポート","serviceTypes":["児童発達支援","放課後等デイサービス"],"ward":"静岡市","address":"静岡県静岡市駿河区鎌田70番地の12　1階","tel":"054-259-5063","url":"https://www.support-group.jp/kidssupport/","lat":34.94428471,"lng":138.35955698,"weekday":"11:00-17:00","saturday":"09:00-16:00","sunday":"","holiday":"","closed":"日曜日、夏季休暇、年末年始","capacity":10,"id":"2254230705"},{"name":"ステップアップ本通校","nameKana":"すてっぷあっぷほんとおりこう","corp":"株式会社キッズサポート","serviceTypes":["児童発達支援","放課後等デイサービス"],"ward":"静岡市","address":"静岡県静岡市葵区本通７丁目９番地の５　モーリビル１０３","tel":"054-275-2901","url":"http://support-group.jp","lat":34.97015138,"lng":138.37458512,"weekday":"11:00-17:00","saturday":"11:00-17:00","sunday":"","holiday":"","closed":"日曜・祝日","capacity":10,"id":"2254200393"},{"name":"ステップアップ桃園校","nameKana":"すてっぷあっぷももぞのこう","corp":"株式会社キッズサポート","serviceTypes":["児童発達支援","放課後等デイサービス"],"ward":"静岡市","address":"静岡県静岡市駿河区桃園町１０番１０号","tel":"054-268-7701","url":"","lat":34.93135047,"lng":138.37833864,"weekday":"11:00-18:00","saturday":"11:00-18:00","sunday":"","holiday":"10:00-16:00","closed":"日曜日","capacity":10,"id":"2254230010"},{"name":"そらまめ","nameKana":"そらまめ","corp":"株式会社 あおむし","serviceTypes":["児童発達支援","放課後等デイサービス","居宅訪問型児童発達支援"],"ward":"静岡市","address":"静岡県静岡市駿河区大谷405番地","tel":"054-207-8654","url":"http://www.aomushi-soramame.com/soramame.php","lat":34.96755784,"lng":138.42382782,"weekday":"11:00-17:00","saturday":"","sunday":"","holiday":"","closed":"土・日曜日、祝日、年末年始","capacity":5,"id":"2254230044"},{"name":"ハッピーテラス静岡八幡教室","nameKana":"はっぴーてらすしずおかやはたきょうしつ","corp":"株式会社ｇｉｆｔ","serviceTypes":["児童発達支援","放課後等デイサービス"],"ward":"静岡市","address":"静岡県静岡市駿河区八幡五丁目３３番１３号","tel":"054-204-9070","url":"","lat":34.9682742,"lng":138.40470458,"weekday":"13:00-19:00","saturday":"10:00-17:00","sunday":"","holiday":"","closed":"日曜日、祝日、月曜日、12月29日〜1月3日","capacity":10,"id":"2254230234"},{"name":"ハッピーテラス静岡駅南教室","nameKana":"はっぴーてらすしずおかえきなんきょうしつ","corp":"株式会社ｇｉｆｔ","serviceTypes":["児童発達支援","放課後等デイサービス"],"ward":"静岡市","address":"静岡県静岡市駿河区馬渕３丁目７番１４号　ユーロハイツ　MABUCHI　E号室","tel":"054-266-3355","url":"","lat":34.96499664,"lng":138.38886728,"weekday":"13:00-19:00","saturday":"09:00-17:00","sunday":"","holiday":"","closed":"事業所カレンダーに基づく（基本は日曜日、祝祭日）","capacity":10,"id":"2254260504"},{"name":"ハッピーテラス静岡敷地教室","nameKana":"はっぴーてらすしずおかしきじきょうしつ","corp":"株式会社ｇｉｆｔ","serviceTypes":["児童発達支援","放課後等デイサービス"],"ward":"静岡市","address":"静岡県静岡市駿河区敷地一丁目26番12号","tel":"054-270-7550","url":"https://happy-terrace.com/","lat":34.95393995,"lng":138.41262653,"weekday":"13:00-19:00","saturday":"10:00-17:00","sunday":"","holiday":"","closed":"日曜日、月曜日、祝日　12月２９日〜１月３日まで","capacity":10,"id":"2254230580"},{"name":"こどもサポート　ポプリ","nameKana":"こどもさぽーとぽぷり","corp":"一般社団法人　一勉一歩の会","serviceTypes":["児童発達支援","放課後等デイサービス"],"ward":"静岡市","address":"静岡県静岡市清水区江尻台町４番３号","tel":"054-340-1416","url":"https://popuri-kodomo.com/","lat":35.0224474,"lng":138.4780723,"weekday":"09:00-17:00","saturday":"09:00-16:00","sunday":"","holiday":"","closed":"日曜日・祝日・年末年始","capacity":10,"id":"2254260686"},{"name":"えまるじょん","nameKana":"えまるじょん","corp":"株式会社4EP","serviceTypes":["児童発達支援","放課後等デイサービス"],"ward":"静岡市","address":"静岡県静岡市清水区蒲原新田一丁目15番23号","tel":"054-388-2878","url":"","lat":35.117094,"lng":138.60062763,"weekday":"09:00-15:00","saturday":"","sunday":"","holiday":"","closed":"","capacity":10,"id":"2254260728"},{"name":"はれのひ","nameKana":"はれのひ","corp":"合同会社リノデイズ","serviceTypes":["児童発達支援","放課後等デイサービス"],"ward":"静岡市","address":"静岡県静岡市清水区辻一丁目4-11","tel":"054-365-7885","url":"","lat":35.02561933,"lng":138.48770463,"weekday":"","saturday":"","sunday":"","holiday":"","closed":"","capacity":null,"id":"2254260736"},{"name":"ナトゥラーレはぐはぐ","nameKana":"なとぅらーれはぐはぐ","corp":"株式会社　ナトゥラーレ","serviceTypes":["児童発達支援"],"ward":"静岡市","address":"静岡県静岡市清水区西久保１丁目10番８号","tel":"054-625-5520","url":"https://www.haghag.net/","lat":35.03302398,"lng":138.48340202,"weekday":"","saturday":"","sunday":"","holiday":"","closed":"","capacity":null,"id":"2254260801"},{"name":"ナトゥラーレはぐはぐ押切","nameKana":"なとぅらーれはぐはぐおしきり","corp":"株式会社　ナトゥラーレ","serviceTypes":["児童発達支援"],"ward":"静岡市","address":"静岡県静岡市清水区押切846-3","tel":"054-660-7788","url":"https://www.haghag.net","lat":35.01588159,"lng":138.48952695,"weekday":"","saturday":"","sunday":"","holiday":"","closed":"","capacity":null,"id":"2254260850"},{"name":"ナトゥラーレはぐはぐ興津","nameKana":"なちゅらーれはぐはぐおきつ","corp":"株式会社　ナトゥラーレ","serviceTypes":["児童発達支援"],"ward":"静岡市","address":"静岡県静岡市清水区八木間町662番地","tel":"054-660-8889","url":"","lat":35.06797845,"lng":138.52300865,"weekday":"","saturday":"","sunday":"","holiday":"","closed":"","capacity":null,"id":"2254260942"},{"name":"ナトゥラーレはぐはぐ向田町","nameKana":"なとぅらーれはぐはぐむかいだちょう","corp":"株式会社　ナトゥラーレ","serviceTypes":["児童発達支援"],"ward":"静岡市","address":"静岡県静岡市清水区向田町8番25号　中田ビル1階","tel":"054-660-8189","url":"","lat":34.9991001,"lng":138.48217251,"weekday":"08:45-16:45","saturday":"08:45-16:45","sunday":"","holiday":"08:45-16:45","closed":"日曜日・年末年始","capacity":10,"id":"2254261031"},{"name":"放課後等デイサービス　ラック","nameKana":"ほうかごとうでいさーびすらっく","corp":"合同会社エルズ","serviceTypes":["児童発達支援","放課後等デイサービス"],"ward":"静岡市","address":"静岡県静岡市清水区三保1321番地の11","tel":"090-9915-0290","url":"","lat":34.99916169,"lng":138.52152152,"weekday":"13:00-18:00","saturday":"10:00-17:00","sunday":"","holiday":"","closed":"","capacity":10,"id":"2254260843"},{"name":"児童発達支援事業所　ことみる","nameKana":"じどうはったつしえんじぎょうしょことみる","corp":"株式会社イノウエ","serviceTypes":["児童発達支援"],"ward":"藤枝市","address":"静岡県藤枝市五十海１丁目18−19","tel":"054-631-5312","url":"https://kotomirufujieda202.wixsite.com/kotomiru","lat":34.88008196,"lng":138.25995782,"weekday":"09:00-15:00","saturday":"","sunday":"","holiday":"","closed":"土曜日、日曜日、祝日、夏休み、年末年始","capacity":10,"id":"2255300333"},{"name":"児童発達支援センターもも","nameKana":"じどうはったつしえんせんたーもも","corp":"社会福祉法人花園会","serviceTypes":["児童発達支援"],"ward":"静岡市","address":"静岡県静岡市駿河区登呂三丁目２番１号児童発達支援センターもも","tel":"054-283-2850","url":"https://hanazonokai.com","lat":34.95910034,"lng":138.4052076,"weekday":"08:00-18:00","saturday":"00:00-00:00","sunday":"00:00-00:00","holiday":"00:00-00:00","closed":"土曜日、日曜日、12月29日〜1月3日、事業所が定める日。","capacity":50,"id":"2254230218"},{"name":"百花園　5番地ルーム","nameKana":"ひゃっかえんごばんちるーむ","corp":"社会福祉法人花園会","serviceTypes":["児童発達支援"],"ward":"静岡市","address":"静岡県静岡市葵区昭和町5番地の5平野医院1階","tel":"054-273-0655","url":"https://hanazonokai.com/facility/momo/index.html","lat":34.97118749,"lng":138.38382036,"weekday":"08:00-17:00","saturday":"","sunday":"","holiday":"","closed":"土曜日、日曜日、祝日、12月29日〜1月3日","capacity":5,"id":"2254200955"},{"name":"やんちゃりか","nameKana":"やんちゃりか","corp":"たからじま","serviceTypes":["児童発達支援","放課後等デイサービス"],"ward":"静岡市","address":"静岡県静岡市清水区袖師町266番地の3","tel":"054-365-8787","url":"","lat":35.0386511,"lng":138.48804317,"weekday":"10:00-17:00","saturday":"","sunday":"","holiday":"","closed":"土曜日、日曜日、国民の休日","capacity":10,"id":"2254200229"},{"name":"トロフィーグループ清水高部スクエア","nameKana":"とろふぃーぐるーぷしみずたかべすくえあ","corp":"株式会社COMFIA","serviceTypes":["児童発達支援"],"ward":"静岡市","address":"静岡県静岡市清水区石川本町17番22号","tel":"054-659-0955","url":"","lat":35.0339652,"lng":138.4588127,"weekday":"09:00-18:00","saturday":"09:00-18:00","sunday":"","holiday":"09:00-18:00","closed":"日曜日、会社指定の休日（年間カレンダーにて運営）","capacity":10,"id":"2254260967"},{"name":"児童発達支援　トロフィープラス　港橋教室","nameKana":"じどうはったつしえんとろふぃーぷらすみなとばしきょうしつ","corp":"株式会社COMFIA","serviceTypes":["児童発達支援"],"ward":"静岡市","address":"静岡県静岡市清水区港町２丁目１番１号　キララシティコート２０２A","tel":"054-351-0119","url":"http://trophy-japan.com/","lat":35.00756591,"lng":138.49152974,"weekday":"09:00-18:00","saturday":"09:00-18:00","sunday":"","holiday":"09:00-18:00","closed":"日曜日　会社指定の閉所日","capacity":10,"id":"2254260579"},{"name":"グローアップ","nameKana":"ぐろーあっぷ","corp":"特定非営利活動法人グッドフォーユー","serviceTypes":["児童発達支援","放課後等デイサービス"],"ward":"静岡市","address":"静岡県静岡市清水区大沢町２０番１号","tel":"054-376-5300","url":"https://goodforyou.sakura.ne.jp","lat":35.00293293,"lng":138.47467318,"weekday":"09:30-15:00","saturday":"","sunday":"","holiday":"","closed":"土曜日、日曜日、祝日","capacity":10,"id":"2254260538"},{"name":"浜松市根洗学園","nameKana":"はままつしねあらいがくえん","corp":"浜松市（指定管理者：社会福祉法人ひかりの園）","serviceTypes":["児童発達支援"],"ward":"浜松市","address":"静岡県浜松市中央区根洗町667-1","tel":"053-436-9318","url":"","lat":34.79533369,"lng":137.69693009,"weekday":"09:30-15:30","saturday":"08:30-12:30","sunday":"","holiday":"","closed":"日曜・祝日・12月29日〜1月3日","capacity":80,"id":"2252200130"},{"name":"多機能型事業所るれいるーむ","nameKana":"じどうはったつしえんるれいるーむ","corp":"株式会社東海美工","serviceTypes":["児童発達支援"],"ward":"浜松市","address":"静岡県浜松市中央区北寺島町370","tel":"053-489-9221","url":"http://www.rureiroom.com/","lat":34.70253268,"lng":137.7424169,"weekday":"","saturday":"","sunday":"","holiday":"","closed":"","capacity":null,"id":"2257271102"},{"name":"和合こども園ふぁーろ","nameKana":"わごうこどもえんふぁーろ","corp":"社会福祉法人遠淡海会","serviceTypes":["児童発達支援"],"ward":"浜松市","address":"静岡県浜松市中央区和合町220-1280","tel":"053-482-7753","url":"http://tootsu.jp/","lat":34.74232758,"lng":137.70837433,"weekday":"09:30-14:30","saturday":"09:15-12:30","sunday":"","holiday":"","closed":"日曜祝日","capacity":10,"id":"2257271235"},{"name":"児童発達支援　るれいるーむ沼津","nameKana":"じどうはったつしえんるれいるーむぬまづ","corp":"株式会社東海美工","serviceTypes":["児童発達支援"],"ward":"沼津市","address":"静岡県沼津市大手町3-6-10　駅前ビル4階","tel":"08051574446","url":"","lat":35.10080295,"lng":138.86080883,"weekday":"","saturday":"","sunday":"","holiday":"","closed":"","capacity":null,"id":"2251100406"},{"name":"はぐみなの響","nameKana":"はくみなのひびき","corp":"合同会社MiMoチルコロ","serviceTypes":["児童発達支援"],"ward":"浜松市","address":"静岡県浜松市中央区葵西6-6-20","tel":"090-6640-8937","url":"https://hagumina.com/facility-info/hagumina-hibiki/","lat":34.76999901,"lng":137.70277804,"weekday":"08:30-13:30","saturday":"","sunday":"","holiday":"","closed":"土日、祝日、年末年始、お盆","capacity":10,"id":"2257271417"},{"name":"はれれあ","nameKana":"はれれあ","corp":"株式会社サニートラベル","serviceTypes":["児童発達支援"],"ward":"浜松市","address":"静岡県浜松市中央区向宿3-10-5","tel":"053-401-6650","url":"https://www.halelea-sunny.jp","lat":34.70277192,"lng":137.75342998,"weekday":"09:00-15:00","saturday":"","sunday":"","holiday":"","closed":"土曜日、日曜日、国民の祝日、事業所が定める日","capacity":10,"id":"2257271490"},{"name":"はぐくみの家第１ココ","nameKana":"はぐくみのいえだいいちここ","corp":"一般社団法人浜松児童福祉会","serviceTypes":["児童発達支援"],"ward":"浜松市","address":"静岡県浜松市中央区三方原町1044","tel":"053-401-2133","url":"","lat":34.77650652,"lng":137.70669402,"weekday":"","saturday":"","sunday":"","holiday":"","closed":"","capacity":null,"id":"2257271656"},{"name":"はぐくみの家第２ココ","nameKana":"はぐくみのいえだいにここ","corp":"一般社団法人浜松児童福祉会","serviceTypes":["児童発達支援"],"ward":"浜松市","address":"静岡県浜松市中央区三方原町1044","tel":"053-401-2133","url":"","lat":34.77650652,"lng":137.70669402,"weekday":"","saturday":"","sunday":"","holiday":"","closed":"","capacity":null,"id":"2257271664"},{"name":"Ｗａｏ！","nameKana":"わお","corp":"株式会社ＡＬＢＡＬＩＺＥ","serviceTypes":["児童発達支援"],"ward":"浜松市","address":"静岡県浜松市中央区都盛町278","tel":"053-568-1511","url":"https://albalize-wao.com/","lat":34.68431631,"lng":137.75499375,"weekday":"09:00-15:00","saturday":"09:00-15:00","sunday":"","holiday":"","closed":"土曜・祝日","capacity":10,"id":"2257271672"},{"name":"さんくすホープ","nameKana":"さんくすほーぷ","corp":"株式会社共立スタッフバンク","serviceTypes":["児童発達支援","放課後等デイサービス"],"ward":"浜松市","address":"静岡県浜松市中央区向宿1-8-31","tel":"053-411-4400","url":"https://thanks-hope.com/","lat":34.70655469,"lng":137.75111344,"weekday":"09:00-17:00","saturday":"10:00-15:00","sunday":"","holiday":"10:00-15:00","closed":"祝日、日曜日","capacity":10,"id":"2257271862"},{"name":"ヒーローズきっず焼津教室","nameKana":"ひーろーずきっずやいづきょうしつ","corp":"株式会社ヒーローズホールディングス","serviceTypes":["児童発達支援"],"ward":"焼津市","address":"静岡県焼津市東小川１丁目8-4番３階","tel":"054-629-0880","url":"https://heros-hattatsu.com/","lat":34.85950925,"lng":138.31297605,"weekday":"09:00-18:00","saturday":"09:00-18:00","sunday":"","holiday":"09:00-18:00","closed":"月曜日・夏季休暇・年末年始休暇","capacity":10,"id":"2255100287"},{"name":"ヒーローズきっず＆ジュニア浜松","nameKana":"ひーろーずきっずあんどじゅにあはままつ","corp":"株式会社ヒーローズホールディングス","serviceTypes":["児童発達支援","放課後等デイサービス"],"ward":"浜松市","address":"静岡県浜松市中央区砂山町10911−N号室","tel":"053-523-6301","url":"","lat":34.70203804,"lng":137.7337897,"weekday":"","saturday":"","sunday":"","holiday":"","closed":"","capacity":null,"id":"2257271946"},{"name":"児童発達支援事業所「ころころ」","nameKana":"じどうはったつしえんじぎょうしょころころ","corp":"社会福祉法人みんなの森福祉会","serviceTypes":["児童発達支援"],"ward":"浜松市","address":"静岡県浜松市中央区中郡町1802番地の2","tel":"053-424-6262","url":"","lat":34.76902167,"lng":137.78225674,"weekday":"09:00-14:30","saturday":"","sunday":"","holiday":"","closed":"土、日、祝祭日","capacity":10,"id":"2257270914"},{"name":"児童発達支援事業所ころころ伊場","nameKana":"じどうはったつしえんじぎょうしょころころいば","corp":"社会福祉法人みんなの森福祉会","serviceTypes":["児童発達支援"],"ward":"浜松市","address":"静岡県浜松市中央区西伊場町7-5","tel":"053-488-6169","url":"https://minnanomori.jp/jidoshien/korokoroiba/","lat":34.70104304,"lng":137.70807184,"weekday":"09:00-14:30","saturday":"","sunday":"","holiday":"","closed":"土、日、祝日","capacity":10,"id":"2257271227"},{"name":"コペルプラス浜松幸教室","nameKana":"こぺるぷらすはままつさいわいきょうしつ","corp":"株式会社三つ葉","serviceTypes":["児童発達支援"],"ward":"浜松市","address":"静岡県浜松市中央区幸五丁目11−33","tel":"0534885560","url":"https://copelplus.copel.co.jp/school/hamamatsu/","lat":34.74673307,"lng":137.72657903,"weekday":"10:00-18:00","saturday":"10:00-18:00","sunday":"","holiday":"","closed":"日曜、祝日、8月13日〜15日、12月30日〜1月3日","capacity":10,"id":"2257271136"},{"name":"ブロッサムジュニア浜松有玉教室","nameKana":"ぶろっさむじゅにあはままつありたまきょうしつ","corp":"株式会社つぼみ","serviceTypes":["児童発達支援","放課後等デイサービス"],"ward":"浜松市","address":"静岡県浜松市中央区有玉北町21-1","tel":"053-424-8203","url":"","lat":34.74131948,"lng":137.79169711,"weekday":"","saturday":"","sunday":"","holiday":"","closed":"日曜日","capacity":10,"id":"2257271581"},{"name":"児童発達支援事業所きりんくらぶ","nameKana":"じどうはったつしえんじぎょうしょきりんくらぶ","corp":"株式会社キリンコーポレーション","serviceTypes":["児童発達支援"],"ward":"浜松市","address":"静岡県浜松市中央区新橋町1088-2","tel":"053-488-7484","url":"","lat":34.68111845,"lng":137.70937533,"weekday":"09:30-14:00","saturday":"09:30-12:00","sunday":"","holiday":"","closed":"日曜日・祝日・土曜日不定休","capacity":10,"id":"2257271383"},{"name":"児童発達支援事業所ＰＯＰＯ","nameKana":"じどうはったつしえんじぎょうしょぽっぽー","corp":"株式会社Twinkle Star Line","serviceTypes":["児童発達支援"],"ward":"浜松市","address":"静岡県浜松市中央区安松町58-17","tel":"053-424-9898","url":"https://twinkle-star-line.jp/","lat":34.69670134,"lng":137.77100337,"weekday":"","saturday":"","sunday":"","holiday":"","closed":"土曜日隔週・祝日隔月・日曜日","capacity":null,"id":"2257271870"},{"name":"児童発達支援事業所といろ","nameKana":"じどうはったつしえんじぎょうしょといろ","corp":"株式会社あかりのいえ","serviceTypes":["児童発達支援"],"ward":"浜松市","address":"静岡県浜松市中央区佐鳴台三丁目54-31","tel":"070-3795-0667","url":"","lat":34.70648933,"lng":137.69358658,"weekday":"09:00-14:30","saturday":"","sunday":"","holiday":"","closed":"土、日曜日及び国民の祝日","capacity":10,"id":"2257272043"},{"name":"みみ・あんふぁんあみぃ","nameKana":"みみあんふぁんあみぃ","corp":"社会福祉法人あんじゅの森","serviceTypes":["児童発達支援"],"ward":"浜松市","address":"静岡県浜松市中央区和合町220-489みみ・あんふぁんあみぃ","tel":"053-523-7488","url":"https://mimi-anfanshushu.com/","lat":34.74598831,"lng":137.70926283,"weekday":"09:00-15:00","saturday":"","sunday":"","holiday":"","closed":"土曜日、日曜日、祝日","capacity":10,"id":"2257272126"},{"name":"重心児童発達支援・放課後等ﾃﾞｲｻｰﾋﾞｽにじっこ","nameKana":"じゅうしんじどうはったつしえんほうかごとうでいさうびすにじっこ","corp":"株式会社Ｆｅａｔｈｅｒ","serviceTypes":["児童発達支援","放課後等デイサービス"],"ward":"浜松市","address":"静岡県浜松市中央区湖東町1039-16","tel":"053-486-6770","url":"","lat":34.76137341,"lng":137.66300991,"weekday":"09:00-16:30","saturday":"09:00-15:30","sunday":"","holiday":"09:00-15:30","closed":"木曜日、日曜日","capacity":6,"id":"2257272118"},{"name":"多機能型支援事業所Ｌｕｃｋｙ","nameKana":"たきのうがたじぎょうしょらっきー","corp":"株式会社楽座","serviceTypes":["児童発達支援","放課後等デイサービス"],"ward":"浜松市","address":"静岡県浜松市中央区初生町1219-1","tel":"053-555-4577","url":"https://k-rakuza.com/lucky-hatsuoi/","lat":34.77073553,"lng":137.72002065,"weekday":"09:30-12:45","saturday":"","sunday":"","holiday":"08:30-12:30","closed":"土曜日　日曜日","capacity":10,"id":"2257272167"},{"name":"多機能型支援事業所ウィステリア高丘北","nameKana":"たきのうがたしえんじぎょうしょうぃすてりあたかおかきた","corp":"合同会社Ｗｉｓｔｅｒｉａ","serviceTypes":["児童発達支援","放課後等デイサービス"],"ward":"浜松市","address":"静岡県浜松市中央区高丘北１-７-１","tel":"053-543-9340","url":"https://www.wisteria-llc-hamamatsu.com/about-2","lat":34.75951434,"lng":137.70382242,"weekday":"09:30-12:45","saturday":"","sunday":"","holiday":"09:00-12:15","closed":"土、日","capacity":10,"id":"2257272266"},{"name":"スターティット","nameKana":"すたーてぃっと","corp":"ウェル恵明会株式会社","serviceTypes":["児童発達支援"],"ward":"浜松市","address":"静岡県浜松市中央区中央１−４−３１F","tel":"053-488-9509","url":"https://www.asoberu.top/","lat":34.712573,"lng":137.73580306,"weekday":"08:30-15:00","saturday":"08:30-15:00","sunday":"08:30-15:00","holiday":"08:30-15:00","closed":"土日祝","capacity":10,"id":"2257272217"},{"name":"自立する未来の創造こころ","nameKana":"じりつするみらいのそうぞうこころ","corp":"株式会社千晴","serviceTypes":["児童発達支援","放課後等デイサービス"],"ward":"浜松市","address":"静岡県浜松市中央区安松町３−１","tel":"053-582-6577","url":"https://licca.conohawing.com/kokoro/","lat":34.69229637,"lng":137.76914797,"weekday":"09:30-12:00","saturday":"","sunday":"","holiday":"09:30-12:00","closed":"土日","capacity":10,"id":"2257272225"},{"name":"多機能型通所事業所ＡＫＵ−ＳＨＵ","nameKana":"たきのうがたつうしょじぎょうしょあくしゅ","corp":"株式会社ＫＯＳ","serviceTypes":["児童発達支援","放課後等デイサービス"],"ward":"浜松市","address":"静岡県浜松市中央区安松町10-3日内地ビル２階","tel":"053-570-2332","url":"https://h-navi.jp/support_facility/facilities/182173","lat":34.69323512,"lng":137.76932852,"weekday":"14:00-17:30","saturday":"10:00-16:00","sunday":"","holiday":"","closed":"","capacity":10,"id":"2257272316"},{"name":"放課後デイサービス　ウィズ・ユー浜松上島","nameKana":"ほうかごでいさーびすうぃずゆーはままつかみしま","corp":"ふじの丘合同会社","serviceTypes":["児童発達支援","放課後等デイサービス"],"ward":"浜松市","address":"静岡県浜松市中央区上島3-17-7","tel":"05014400926","url":"https://www.with-ac.com/shisetu/kamijima/","lat":34.73937071,"lng":137.74752096,"weekday":"10:30-17:00","saturday":"10:30-16:30","sunday":"","holiday":"10:30-16:30","closed":"日曜日","capacity":10,"id":"2257272332"},{"name":"児童発達支援事業所GO☆GO","nameKana":"じどうはったつしえんじぎょうしょごーごー","corp":"株式会社Twinkle Star Line","serviceTypes":["児童発達支援"],"ward":"浜松市","address":"静岡県浜松市中央区安松町32-10","tel":"053-545-9282","url":"https://www.twinkle-star-line.co.jp/","lat":34.69472655,"lng":137.76889522,"weekday":"","saturday":"","sunday":"","holiday":"","closed":"","capacity":null,"id":"2257271045"},{"name":"ねお児童発達支援事業所　東伊場","nameKana":"ねおじどうはったつしえんじぎょうしょひがしいば","corp":"ねおらいふ株式会社","serviceTypes":["児童発達支援"],"ward":"浜松市","address":"静岡県浜松市中央区東伊場1-24-10メゾン・あがたい　1階","tel":"053-401-3080","url":"https://www.neo-life-co.com/","lat":34.70011277,"lng":137.71492425,"weekday":"09:30-15:30","saturday":"09:30-15:30","sunday":"","holiday":"09:30-15:30","closed":"日曜日","capacity":10,"id":"2257271706"},{"name":"ねお重心多機能型施設　入野","nameKana":"ねおじゅうしんたきのうがたしせついりの","corp":"ねおらいふ株式会社","serviceTypes":["児童発達支援"],"ward":"浜松市","address":"静岡県浜松市中央区入野町6183-3","tel":"053-415-0701","url":"https://www.neo-life-co.com/","lat":34.69806259,"lng":137.69122881,"weekday":"09:00-16:45","saturday":"09:00-16:30","sunday":"","holiday":"09:00-16:30","closed":"日曜日 年末年始","capacity":6,"id":"2257271714"},{"name":"ねお児童発達支援事業所　佐鳴台","nameKana":"ねおじどうはったつしえんじぎょうしょさなるだい","corp":"ねおらいふ株式会社","serviceTypes":["児童発達支援"],"ward":"浜松市","address":"静岡県浜松市中央区佐鳴台４−９−８","tel":"053-415-9222","url":"","lat":34.70730883,"lng":137.70015547,"weekday":"","saturday":"","sunday":"","holiday":"","closed":"","capacity":null,"id":"2257272233"},{"name":"聖隷こども発達支援センターかるみあ","nameKana":"せいれいこどもはったつしえんせんたーかるみあ","corp":"社会福祉法人聖隷福祉事業団","serviceTypes":["児童発達支援"],"ward":"磐田市","address":"静岡県磐田市上岡田1079-1","tel":"0538-30-7551","url":"https://www.seirei.or.jp/elderlyhome/hattatsu/karumia/","lat":34.695987,"lng":137.85325556,"weekday":"","saturday":"","sunday":"","holiday":"","closed":"土日・祝日","capacity":30,"id":"2256900164"},{"name":"聖隷こども発達支援事業所かるみあ富丘","nameKana":"せいれいこどもはったつしえんじぎょうしょかるみあとみがおか","corp":"社会福祉法人聖隷福祉事業団","serviceTypes":["児童発達支援","居宅訪問型児童発達支援"],"ward":"磐田市","address":"静岡県磐田市富丘677番地1","tel":"0538-36-0606","url":"https://www.seirei.or.jp/elderlyhome/hattatsu/karumia-toyoda/","lat":34.73044516,"lng":137.84291343,"weekday":"","saturday":"","sunday":"","holiday":"","closed":"土日・祝祭日　12月29日〜1月3日","capacity":10,"id":"2256900263"},{"name":"こどもサポート教室「きらり」沼津校","nameKana":"こどもさぽーときょうしつきらりぬまづこう","corp":"株式会社クラ・ゼミ","serviceTypes":["児童発達支援","放課後等デイサービス"],"ward":"沼津市","address":"静岡県沼津市高島町5-18佐藤ビル1F","tel":"055-943-9166","url":"https://kirari-kodomo.com/roominfo/%e6%9d%b1%e9%83%a8-%e6%b2%bc%e6%b4%a5%e6%a0%a1","lat":35.10471098,"lng":138.8592477,"weekday":"10:00-19:00","saturday":"09:00-18:00","sunday":"","holiday":"10:00-19:00","closed":"日曜日","capacity":10,"id":"2251100166"},{"name":"こどもサポート教室「きらり」藤枝ついじ校","nameKana":"こどもさぽーときょうしつきらりふじえだついじこう","corp":"株式会社クラ・ゼミ","serviceTypes":["児童発達支援","放課後等デイサービス"],"ward":"藤枝市","address":"静岡県藤枝市築地1丁目16-27佐貫ビル2階　西側","tel":"054-646-5212","url":"https://kirari-kodomo.com/area_003/%e5%a4%8f%e5%ad%a3%e4%bc%91%e6%a5%ad%e3%81%ae%e3%81%8a%e7%9f%a5%e3%82%89%e3%81%9b","lat":34.85817368,"lng":138.26883495,"weekday":"09:00-18:00","saturday":"09:00-18:00","sunday":"00:00-00:00","holiday":"09:00-18:00","closed":"日曜日","capacity":10,"id":"2255300283"},{"name":"こどもサポート教室「きらり」沼津金岡校","nameKana":"こどもさぽーときょうしつきらりぬまづかなおかこう","corp":"株式会社クラ・ゼミ","serviceTypes":["児童発達支援","放課後等デイサービス"],"ward":"沼津市","address":"静岡県沼津市筒井町2-12高橋第二ビル１階","tel":"055-960-6565","url":"https://kirari-kodomo.com/roominfo/%e6%9d%b1%e9%83%a8-%e6%b2%bc%e6%b4%a5%e9%87%91%e5%b2%a1%e6%a0%a1\t\t\t\t\t\t\t\t\t\t\t\t\t","lat":35.1191323,"lng":138.862986,"weekday":"10:00-19:00","saturday":"09:00-18:00","sunday":"","holiday":"10:00-19:00","closed":"日曜日","capacity":10,"id":"2251100281"},{"name":"こどもサポート教室「きらり」湖西校","nameKana":"こどもさぽーときょうしつきらりこさいこう","corp":"株式会社クラ・ゼミ","serviceTypes":["児童発達支援","放課後等デイサービス"],"ward":"湖西市","address":"静岡県湖西市鷲津1191−1サンレイク和泉102・302","tel":"053-525-9017","url":"https://kirari-kodomo.com/around/around-301/","lat":34.71112479,"lng":137.54829672,"weekday":"09:00-14:00","saturday":"09:00-14:00","sunday":"","holiday":"09:00-14:00","closed":"日曜日","capacity":20,"id":"2258400064"},{"name":"こどもサポート教室「きらり」磐田駅前校","nameKana":"こどもさぽーときょうしつきらりいわたえきまえこう","corp":"株式会社クラ・ゼミ","serviceTypes":["児童発達支援","放課後等デイサービス"],"ward":"磐田市","address":"静岡県磐田市中泉一丁目４−12","tel":"0538-34-6585","url":"https://kirari-kodomo.com/around/around-310/","lat":34.71114007,"lng":137.85346878,"weekday":"10:00-19:00","saturday":"10:00-19:00","sunday":"","holiday":"10:00-19:00","closed":"日曜日","capacity":10,"id":"2256900438"},{"name":"EAC袋井","nameKana":"いーえーしーふくろい","corp":"株式会社クラ・ゼミ","serviceTypes":["児童発達支援","放課後等デイサービス"],"ward":"袋井市","address":"静岡県袋井市松原1324番地１","tel":"0538-23-2160","url":"https://kirari-kodomo.com/around/around-309/","lat":34.68723106,"lng":137.93063893,"weekday":"09:00-13:00","saturday":"09:00-14:00","sunday":"","holiday":"09:00-13:00","closed":"日曜日","capacity":10,"id":"2257300315"},{"name":"こどもサポート教室「きらり」富士松岡校","nameKana":"こどもさぽーときょうしつきらりふじまつおかこう","corp":"株式会社クラ・ゼミ","serviceTypes":["児童発達支援","放課後等デイサービス"],"ward":"富士市","address":"静岡県富士市松岡1210-6","tel":"0545-30-7212","url":"http://kirari-kodomo.com/","lat":35.15587553,"lng":138.63744809,"weekday":"10:00-19:00","saturday":"10:00-19:00","sunday":"","holiday":"10:00-19:00","closed":"毎週日曜日","capacity":10,"id":"2252300724"},{"name":"こどもサポート教室「きらり」掛川第２校","nameKana":"こどもさぽーときょうしつきらりかけがわだいにこう","corp":"株式会社クラ・ゼミ","serviceTypes":["児童発達支援","放課後等デイサービス"],"ward":"掛川市","address":"静岡県掛川市上張278−３","tel":"0537-21-5066","url":"https://kirari-kodomo.com/around/around-335/","lat":34.77113008,"lng":138.02188208,"weekday":"10:00-19:00","saturday":"09:00-18:00","sunday":"","holiday":"10:00-19:00","closed":"日曜日","capacity":10,"id":"2257400305"},{"name":"コペルプラス藤枝教室","nameKana":"こぺるぷらすふじえだきょうしつ","corp":"株式会社クラ・ゼミ","serviceTypes":["児童発達支援","放課後等デイサービス"],"ward":"藤枝市","address":"静岡県藤枝市前島一丁目９番40号ナカエンタープライズビル１階","tel":"054-639-5165","url":"https://copelplus.copel.co.jp/school/fujieda/","lat":34.84745194,"lng":138.25110081,"weekday":"10:00-18:00","saturday":"10:00-18:00","sunday":"","holiday":"","closed":"日曜日・月曜日","capacity":10,"id":"2255300341"},{"name":"こどもサポート教室「きらり」函南校","nameKana":"こどもさぽーときょうしつきらりかんなみこう","corp":"株式会社クラ・ゼミ","serviceTypes":["児童発達支援","放課後等デイサービス"],"ward":"田方郡函南町","address":"静岡県田方郡函南町大土肥８７−１","tel":"055-944-6088","url":"https://kirari-kodomo.com/roominfo/%e6%9d%b1%e9%83%a8-%e5%87%bd%e5%8d%97%e6%a0%a1","lat":35.08739413,"lng":138.94621061,"weekday":"10:00-19:00","saturday":"09:00-18:00","sunday":"00:00-00:00","holiday":"10:00-19:00","closed":"日","capacity":10,"id":"2250300023"},{"name":"こどもサポート教室「きらり」三島校","nameKana":"こどもさぽーときょうしつきらりみしまこう","corp":"株式会社クラ・ゼミ","serviceTypes":["児童発達支援","放課後等デイサービス"],"ward":"三島市","address":"静岡県三島市一番町１３−６アルヴァアーレー一番町１Ｆ","tel":"055-946-6311","url":"https://kirari-kodomo.com/roominfo/%e6%9d%b1%e9%83%a8-%e4%b8%89%e5%b3%b6%e6%a0%a1","lat":35.12457693,"lng":138.91330927,"weekday":"10:00-19:00","saturday":"09:00-18:00","sunday":"","holiday":"10:00-13:00","closed":"日曜日","capacity":10,"id":"2250600109"},{"name":"こどもサポート教室「きらり」御殿場校","nameKana":"こどもさぽーときょうしつきらりごてんばこう","corp":"株式会社クラ・ゼミ","serviceTypes":["児童発達支援","放課後等デイサービス"],"ward":"御殿場市","address":"静岡県御殿場市新橋１９８４−２　ヴァン・クレール新橋１−Ｂ号室","tel":"0550-88-8660","url":"https://kirari-kodomo.com/around/around-289/","lat":35.30110407,"lng":138.93403664,"weekday":"10:00-19:00","saturday":"09:00-18:00","sunday":"00:00-00:00","holiday":"10:00-19:00","closed":"日曜日\t\t\t\t\t\t\t\t\t\t\t\t\t\t","capacity":10,"id":"2251200131"},{"name":"こどもサポート教室「きらり」富士宮校","nameKana":"こどもさぽーときょうしつきらりふじのみやこう","corp":"株式会社クラ・ゼミ","serviceTypes":["児童発達支援","放課後等デイサービス"],"ward":"富士宮市","address":"静岡県富士宮市若の宮町６","tel":"050-3533-0288","url":"https://kirari-kodomo.com/roominfo/%E6%9D%B1%E9%83%A8-%E5%AF%8C%E5%A3%AB%E5%AE%AE%E6%A0%A1","lat":35.23246026,"lng":138.61564042,"weekday":"10:00-19:00","saturday":"10:00-19:00","sunday":"00:00-00:00","holiday":"10:00-19:00","closed":"日（ただしGW、お盆、年末年始は休業）","capacity":10,"id":"2252100108"},{"name":"こどもサポート教室「きらり」富士校","nameKana":"こどもさぽーときょうしつきらりふじこう","corp":"株式会社クラ・ゼミ","serviceTypes":["児童発達支援","放課後等デイサービス"],"ward":"富士市","address":"静岡県富士市横割１丁目５−2無し","tel":"0545-30-9195","url":"https://kirari-kodomo.com/around/around-290/","lat":35.14892423,"lng":138.6536688,"weekday":"10:00-19:00","saturday":"10:00-19:00","sunday":"00:00-00:00","holiday":"10:00-19:00","closed":"日曜日","capacity":10,"id":"2252300245"},{"name":"こどもサポート教室「きらり」藤枝校","nameKana":"こどもさぽーときょうしつきらりふじえだこう","corp":"株式会社クラ・ゼミ","serviceTypes":["児童発達支援","放課後等デイサービス"],"ward":"藤枝市","address":"静岡県藤枝市田沼１−２４−８プレシャス田沼　1F","tel":"054-631-5170","url":"https://kirari-kodomo.com/roominfo/%e4%b8%ad%e9%83%a8-%e8%97%a4%e6%9e%9d%e6%a0%a1","lat":34.84799106,"lng":138.25655866,"weekday":"09:00-18:00","saturday":"09:00-18:00","sunday":"","holiday":"09:00-18:00","closed":"毎週日曜日","capacity":10,"id":"2255300242"},{"name":"こどもサポート教室「きらり」磐田校","nameKana":"こどもさぽーときょうしつきらりいわたこう","corp":"株式会社クラ・ゼミ","serviceTypes":["児童発達支援","放課後等デイサービス"],"ward":"磐田市","address":"静岡県磐田市今之浦三丁目１０−５","tel":"0538-86-4143","url":"https://kirari-kodomo.com/around/around-308/","lat":34.72079704,"lng":137.85944829,"weekday":"10:00-19:00","saturday":"10:00-19:00","sunday":"","holiday":"10:00-19:00","closed":"日曜日","capacity":10,"id":"2256900172"},{"name":"ＥＡＣ（Ｅｓｐａｃｏ　Ａｃｒｅｄｉｔａｒ　ｅ　Ｃｒｅｓｃｅｒ）第２事業所","nameKana":"いーえーしーだいにじぎょうしょ","corp":"株式会社クラ・ゼミ","serviceTypes":["児童発達支援","放課後等デイサービス"],"ward":"磐田市","address":"静岡県磐田市下太字堀東384番地6","tel":"0538-31-3066","url":"https://kirari-kodomo.com/around/around-307/","lat":34.7179028,"lng":137.8515131,"weekday":"09:00-13:00","saturday":"09:00-14:00","sunday":"","holiday":"09:00-13:00","closed":"日曜日","capacity":10,"id":"2256900289"},{"name":"こどもサポート教室「きらり」袋井校","nameKana":"こどもさぽーときょうしつきらりふくろいこう","corp":"株式会社クラ・ゼミ","serviceTypes":["児童発達支援","放課後等デイサービス"],"ward":"袋井市","address":"静岡県袋井市方丈三丁目2-3","tel":"0538-86-6462","url":"https://kirari-kodomo.com/roominfo/%e8%a5%bf%e9%83%a8-%e8%a2%8b%e4%ba%95%e6%a0%a1","lat":34.74746828,"lng":137.92706789,"weekday":"10:00-19:00","saturday":"09:00-18:00","sunday":"","holiday":"10:00-19:00","closed":"日","capacity":10,"id":"2257300091"},{"name":"こどもサポート教室「きらり」掛川校","nameKana":"こどもさぽーときょうしつきらりかけがわこう","corp":"株式会社クラ・ゼミ","serviceTypes":["児童発達支援","放課後等デイサービス"],"ward":"掛川市","address":"静岡県掛川市成滝642-2　2階西","tel":"0537-29-8950","url":"https://kirari-kodomo.com/roominfo/%E8%A5%BF%E9%83%A8-%E6%8E%9B%E5%B7%9D%E6%A0%A1","lat":34.77695767,"lng":138.02769829,"weekday":"10:00-19:00","saturday":"09:00-18:00","sunday":"","holiday":"10:00-19:00","closed":"日曜日","capacity":10,"id":"2257400180"},{"name":"あいあい静岡宮竹校","nameKana":"あいあいしずおかみやたけこう","corp":"株式会社クラ・ゼミ","serviceTypes":["児童発達支援","放課後等デイサービス"],"ward":"静岡市","address":"静岡県静岡市駿河区宮竹1丁目10番1号","tel":"054-252-0550","url":"","lat":34.95518703,"lng":138.41357917,"weekday":"09:00-18:00","saturday":"09:00-18:00","sunday":"00:00-00:00","holiday":"09:00-18:00","closed":"日曜日","capacity":10,"id":"2254260330"},{"name":"コペルプラス　草薙教室","nameKana":"こぺるぷらすくさなぎきょうしつ","corp":"株式会社クラ・ゼミ","serviceTypes":["児童発達支援"],"ward":"静岡市","address":"静岡県静岡市清水区草薙一里山18番7号","tel":"054-340-8420","url":"https://copelplus.copel.co.jp/school/kusanagi/","lat":35.00508241,"lng":138.45000054,"weekday":"","saturday":"","sunday":"","holiday":"","closed":"日曜、月曜、祝日(一部を除く)、お盆、年末年始","capacity":10,"id":"2254260991"},{"name":"コペルプラス静岡栄町教室","nameKana":"こぺるぷらすしずおかさかえちょうきょうしつ","corp":"株式会社クラ・ゼミ","serviceTypes":["児童発達支援","放課後等デイサービス"],"ward":"静岡市","address":"静岡県静岡市葵区栄町5番地の1　レイアップ栄町ビル3階","tel":"054-266-4840","url":"https://copelplus.copel.co.jp/school/shizuoka-sakae/","lat":34.97467606,"lng":138.3927472,"weekday":"10:00-18:00","saturday":"10:00-18:00","sunday":"10:00-18:00","holiday":"","closed":"月曜日、祝日（一部を除く）、夏季冬季休暇","capacity":10,"id":"2254201045"},{"name":"あいあい静岡インター校","nameKana":"あいあいしずおかいんたーこう","corp":"株式会社クラ・ゼミ","serviceTypes":["児童発達支援","放課後等デイサービス"],"ward":"静岡市","address":"静岡県静岡市駿河区中野新田277-2静岡インタービル1F","tel":"054-204-8477","url":"https://kirari-kodomo.com/","lat":34.96074178,"lng":138.40404654,"weekday":"10:00-19:00","saturday":"10:00-19:00","sunday":"00:00-00:00","holiday":"10:00-19:00","closed":"日曜","capacity":10,"id":"2254200328"},{"name":"あいあい静岡駅南校","nameKana":"あいあいしずおかえきなんこう","corp":"株式会社クラ・ゼミ","serviceTypes":["児童発達支援","放課後等デイサービス"],"ward":"静岡市","address":"静岡県静岡市駿河区八幡１丁目２番１７号","tel":"054-270-9434","url":"http://kirari-kodomo.com/","lat":34.97295962,"lng":138.39443597,"weekday":"10:00-19:00","saturday":"10:00-19:00","sunday":"00:00-00:00","holiday":"10:00-19:00","closed":"日曜日","capacity":10,"id":"2254230036"},{"name":"あいあい静岡本部校","nameKana":"あいあいしずおかほんぶこう","corp":"株式会社クラ・ゼミ","serviceTypes":["児童発達支援","放課後等デイサービス"],"ward":"静岡市","address":"静岡県静岡市葵区千代田五丁目８−２６なし","tel":"050-3533-0217","url":"https://kirari-kodomo.com/","lat":34.99726489,"lng":138.40565923,"weekday":"09:00-18:00","saturday":"09:00-18:00","sunday":"00:00-00:00","holiday":"09:00-17:00","closed":"日曜","capacity":10,"id":"2254260223"},{"name":"児童発達支援　あえる浜北","nameKana":"じどうはったつしえんあえるはまきた","corp":"株式会社エイドネットワーク","serviceTypes":["児童発達支援"],"ward":"浜松市","address":"静岡県浜松市浜名区東美薗1571-1","tel":"053-589-5560","url":"","lat":34.80446653,"lng":137.8028557,"weekday":"09:15-14:15","saturday":"","sunday":"","holiday":"09:15-14:15","closed":"日曜","capacity":10,"id":"2257271193"},{"name":"浜松こども園ももはな園","nameKana":"はままつこどもえんももはなえん","corp":"公益財団法人　浜松こども園","serviceTypes":["児童発達支援"],"ward":"浜松市","address":"静岡県浜松市中央区米津町２８７０‐１","tel":"053-442-0688","url":"https://www.hamamatukodomoen.com","lat":34.66792624,"lng":137.71503637,"weekday":"09:30-15:00","saturday":"09:00-12:00","sunday":"","holiday":"","closed":"土曜日、日曜祝日、夏休み、年末年始","capacity":10,"id":"2257200143"},{"name":"サンスマイルスポトレ上西","nameKana":"さんすまいるすぽとれかみにし","corp":"Ｗｉｔｈ　Ｗｉｎ　合同会社","serviceTypes":["児童発達支援","放課後等デイサービス"],"ward":"浜松市","address":"静岡県浜松市中央区上西町2-8","tel":"053-571-1515","url":"","lat":34.72541366,"lng":137.75187967,"weekday":"","saturday":"","sunday":"","holiday":"","closed":"","capacity":null,"id":"2257271177"},{"name":"ゆりかご","nameKana":"ゆりかご","corp":"社会福祉法人あそしえ","serviceTypes":["児童発達支援"],"ward":"浜松市","address":"静岡県浜松市中央区蜆塚二丁目６−１３","tel":"053-489-3200","url":"https://associe.org","lat":34.71163635,"lng":137.7097851,"weekday":"09:00-15:00","saturday":"08:30-13:00","sunday":"","holiday":"","closed":"不定土曜日・日曜日・祝日・事業所が定める日","capacity":10,"id":"2257210043"},{"name":"在宅支援センターぱぴるす","nameKana":"ざいたくしえんせんたーぱぴるす","corp":"社会福祉法人小羊学園","serviceTypes":["児童発達支援","放課後等デイサービス"],"ward":"浜松市","address":"静岡県浜松市中央区高丘北３−３８−７","tel":"053-414-1666","url":"http://www.kohitsuji.or.jp","lat":34.76772693,"lng":137.70069217,"weekday":"10:00-15:00","saturday":"00:00-00:00","sunday":"00:00-00:00","holiday":"00:00-00:00","closed":"土・日・祝","capacity":20,"id":"2257200085"},{"name":"聖隷こども発達支援センター和合","nameKana":"せいれいこどもはったつしえんせんたーわごう","corp":"社会福祉法人聖隷福祉事業団","serviceTypes":["児童発達支援","放課後等デイサービス"],"ward":"浜松市","address":"静岡県浜松市中央区和合町555","tel":"053-475-6110","url":"","lat":34.74226643,"lng":137.70148939,"weekday":"09:00-15:00","saturday":"","sunday":"","holiday":"","closed":"","capacity":30,"id":"2257271938"},{"name":"児童発達支援センターひかりの子","nameKana":"じどうはったつしえんせんたーひかりのこ","corp":"社会福祉法人聖隷福祉事業団","serviceTypes":["児童発達支援","放課後等デイサービス"],"ward":"浜松市","address":"静岡県浜松市中央区三方原町３４５３聖隷おおぞら療育センター 内","tel":"053-437-1467","url":"https://www.seirei.or.jp/mikatahara/oozora/overview/outpatient/index.html","lat":34.77375444,"lng":137.7189512,"weekday":"09:00-16:45","saturday":"09:00-16:45","sunday":"","holiday":"","closed":"土曜日、日曜日、祝日、12月29日から1月3日","capacity":15,"id":"2257250015"},{"name":"子ども発達センターたっく","nameKana":"こどもはったつせんたーたっく","corp":"社会福祉法人ひかりの園","serviceTypes":["児童発達支援","放課後等デイサービス"],"ward":"浜松市","address":"静岡県浜松市中央区大久保町５３８８‐１","tel":"053-485-6122","url":"","lat":34.71975403,"lng":137.64907096,"weekday":"09:15-13:45","saturday":"09:00-12:00","sunday":"","holiday":"","closed":"土曜・日曜日・祝日・12月29日〜1月3日","capacity":24,"id":"2257270070"},{"name":"あさぎり","nameKana":"あさぎり","corp":"社会福祉法人和光会","serviceTypes":["児童発達支援"],"ward":"浜松市","address":"静岡県浜松市中央区舘山寺町136","tel":"053-487-6877","url":"","lat":34.76122505,"lng":137.62788313,"weekday":"09:00-15:00","saturday":"","sunday":"","holiday":"","closed":"土曜日・日曜日・国民の休日・夏季・冬期休暇","capacity":10,"id":"2257270963"},{"name":"ほしのこ","nameKana":"ほしのこ","corp":"認定特定非営利活動法人笠井共生活動センター","serviceTypes":["児童発達支援"],"ward":"浜松市","address":"静岡県浜松市中央区笠井町１３３","tel":"053-570-7707","url":"","lat":34.76954222,"lng":137.79974097,"weekday":"08:00-17:00","saturday":"","sunday":"","holiday":"","closed":"土、日、祝日","capacity":10,"id":"2257200101"},{"name":"児童発達支援センター「ひまわり」","nameKana":"じどうはったつしえんせんたーひまわり","corp":"浜松市（指定管理者：浜松市社会福祉事業団）","serviceTypes":["児童発達支援","居宅訪問型児童発達支援"],"ward":"浜松市","address":"静岡県浜松市浜名区高薗７７５‐１","tel":"053-586-8802","url":"https://www.h-hattatsu.com/","lat":34.77796162,"lng":137.8153831,"weekday":"09:30-16:00","saturday":"","sunday":"","holiday":"","closed":"土曜日、日曜日国民の祝日に関する法律に規定する休日、12月29日から1月3日まで","capacity":80,"id":"2257260014"},{"name":"こどもサポート教室きらり上浅田校","nameKana":"こどもさぽーときょうしつきらりかみあさだこう","corp":"株式会社クラ・ゼミ","serviceTypes":["児童発達支援"],"ward":"浜松市","address":"静岡県浜松市中央区上浅田2-10-20","tel":"053-581-7205","url":"https://kirari-kodomo.com/roominfo/%e8%a5%bf%e9%83%a8-%e5%af%8c%e5%a1%9a%e6%a0%a1","lat":34.69356673,"lng":137.73123734,"weekday":"09:00-17:00","saturday":"09:00-17:00","sunday":"","holiday":"09:00-17:00","closed":"日曜日","capacity":10,"id":"2257271813"},{"name":"こどもサポート教室「きらり」小松校","nameKana":"こどもさぽーときょうしつきらりこまつこう","corp":"株式会社クラ・ゼミ","serviceTypes":["児童発達支援","放課後等デイサービス"],"ward":"浜松市","address":"静岡県浜松市浜名区小松4398-4","tel":"053-545-5111","url":"","lat":34.78390851,"lng":137.77562847,"weekday":"09:00-18:00","saturday":"","sunday":"","holiday":"09:00-18:00","closed":"土曜日・日曜日","capacity":10,"id":"2257271755"},{"name":"こどもサポート教室「きらり」上島校","nameKana":"こどもさぽーときょうしつきらりかみじまこう","corp":"株式会社クラ・ゼミ","serviceTypes":["児童発達支援","放課後等デイサービス"],"ward":"浜松市","address":"静岡県浜松市中央区上島１−９−28","tel":"050-3533-0192","url":"https://kirari-kodomo.com/","lat":34.73681759,"lng":137.73971834,"weekday":"09:00-15:00","saturday":"09:00-18:00","sunday":"","holiday":"09:00-18:00","closed":"日曜日","capacity":10,"id":"2257270088"},{"name":"こどもサポート教室「きらり」富塚校","nameKana":"こどもさぽーときょうしつきらりとみつかこう","corp":"株式会社クラ・ゼミ","serviceTypes":["児童発達支援","放課後等デイサービス"],"ward":"浜松市","address":"静岡県浜松市中央区富塚町１９３３−１佐鳴湖パークタウンサウス　２階２H区画","tel":"050-3533-0194","url":"https://kirari-kodomo.com/roominfo/%e8%a5%bf%e9%83%a8-%e5%af%8c%e5%a1%9a%e6%a0%a1","lat":34.72203785,"lng":137.69970751,"weekday":"09:00-15:00","saturday":"09:00-18:00","sunday":"","holiday":"09:00-18:00","closed":"日曜日","capacity":10,"id":"2257270120"},{"name":"ＥＡＣ（Ｅｓｐａｃｏ　Ａｃｒｅｄｉｔａｒ　ｅ　Ｃｒｅｓｃｅｒ）（イーエーシー）","nameKana":"いーえーしー","corp":"株式会社クラ・ゼミ","serviceTypes":["児童発達支援","放課後等デイサービス"],"ward":"浜松市","address":"静岡県浜松市中央区頭陀寺町３４５−３","tel":"053-544-5223","url":"http://kirari-kodomo.com/","lat":34.70055021,"lng":137.75871843,"weekday":"09:00-13:00","saturday":"08:30-13:00","sunday":"","holiday":"09:00-13:00","closed":"日曜日、ゴールデンウイーク、お盆、年末年始","capacity":10,"id":"2257270385"},{"name":"こどもサポート教室「きらり」浜北駅前校","nameKana":"こどもさぽーときょうしつきらりはまきたえきまえこう","corp":"株式会社クラ・ゼミ","serviceTypes":["児童発達支援","放課後等デイサービス"],"ward":"浜松市","address":"静岡県浜松市浜名区貴布祢3000なゆた浜北２階","tel":"053-589-5557","url":"https://kirari-kodomo.com/around/around-304/","lat":34.79161664,"lng":137.78330253,"weekday":"09:00-18:00","saturday":"09:00-18:00","sunday":"","holiday":"09:00-18:00","closed":"日曜日","capacity":10,"id":"2257270435"},{"name":"多機能型事業所むく","nameKana":"たきのうがたじぎょうしょむく","corp":"特定非営利活動法人むく","serviceTypes":["児童発達支援"],"ward":"浜松市","address":"静岡県浜松市中央区根洗町1405-1","tel":"053-570-5300","url":"","lat":34.79129028,"lng":137.70627667,"weekday":"","saturday":"","sunday":"","holiday":"","closed":"","capacity":null,"id":"2257270369"},{"name":"児童発達支援事業所ながかみ","nameKana":"じどうはったつしえんじぎょうしょながかみ","corp":"社会福祉法人七恵会","serviceTypes":["児童発達支援"],"ward":"浜松市","address":"静岡県浜松市中央区中田町778中田町778","tel":"053-411-4611","url":"http://www.jade.dti.ne.jp/~ngkm/index(3).html","lat":34.73624339,"lng":137.76028127,"weekday":"08:30-15:30","saturday":"","sunday":"","holiday":"","closed":"土、日、祝日,年末年始（12月29日〜1月3日）、その他管理者が定める日とする。","capacity":10,"id":"2257260071"},{"name":"児童発達支援わぉん","nameKana":"じとうはったつしえんわぉん","corp":"株式会社アルクマーク","serviceTypes":["児童発達支援"],"ward":"浜松市","address":"静岡県浜松市中央区和田町919-3","tel":"053-582-7780","url":"https://arukumark.co.jp/","lat":34.71835343,"lng":137.76775667,"weekday":"09:00-17:00","saturday":"09:00-16:30","sunday":"","holiday":"","closed":"日曜、祝日、夏季休暇、年末年始休暇","capacity":10,"id":"2257271466"},{"name":"児童発達支援ふぉるて","nameKana":"じどうはったつしえんふぉるて","corp":"株式会社アルクマーク","serviceTypes":["児童発達支援"],"ward":"浜松市","address":"静岡県浜松市中央区高塚町１７８７","tel":"053-525-9850","url":"https://arukumark.co.jp/","lat":34.69284632,"lng":137.6766414,"weekday":"09:00-17:00","saturday":"09:00-16:00","sunday":"","holiday":"","closed":"日、祝日、夏季、年末年始休暇","capacity":10,"id":"2257270740"},{"name":"グリーピースＴｏｙｓ","nameKana":"ぐりーぴーすといず","corp":"株式会社Ｇｒｅｅ","serviceTypes":["児童発達支援"],"ward":"浜松市","address":"静岡県浜松市浜名区中条484-12F　北","tel":"053-424-9987","url":"https://www.greepeace.jp","lat":34.78268723,"lng":137.78624983,"weekday":"08:30-14:30","saturday":"09:00-15:00","sunday":"","holiday":"09:00-15:00","closed":"日曜日","capacity":10,"id":"2257271300"},{"name":"グリーピースⅡ・Ｎｕｒｓｅｒｙ","nameKana":"ぐりーぴーすつーなーさりー","corp":"株式会社Ｇｒｅｅ","serviceTypes":["児童発達支援","放課後等デイサービス"],"ward":"浜松市","address":"静岡県浜松市浜名区中条434-11Ｆ","tel":"053-544-7900","url":"","lat":34.78222612,"lng":137.78564437,"weekday":"08:00-14:00","saturday":"09:00-15:00","sunday":"","holiday":"09:00-15:00","closed":"土曜日曜定休日、GW休業、夏季休業、冬季休業有","capacity":10,"id":"2257271839"},{"name":"グリーピースＴｏｙｓ・Ｓｗｉｔｃｈ","nameKana":"ぐりーぴーすといずすいっち","corp":"株式会社Ｇｒｅｅ","serviceTypes":["児童発達支援","放課後等デイサービス"],"ward":"浜松市","address":"静岡県浜松市浜名区中条484-1２F","tel":"053-544-7900","url":"https://www.greepeace.jp","lat":34.78268723,"lng":137.78624706,"weekday":"08:00-14:00","saturday":"09:00-15:00","sunday":"","holiday":"09:00-15:00","closed":"日曜定休日、GW休業、夏季休業、冬季休業有","capacity":10,"id":"2257271300"},{"name":"児童発達支援事業所かやのもり","nameKana":"じどうはったつしえんじぎょうしょかやのもり","corp":"合同会社かやの森","serviceTypes":["児童発達支援"],"ward":"浜松市","address":"静岡県浜松市中央区浜松市102号","tel":"053-439-3741","url":"https://kayanomori.localinfo.jp/","lat":34.7107869,"lng":137.7261037,"weekday":"09:00-14:00","saturday":"09:00-11:30","sunday":"","holiday":"00:00-00:00","closed":"土曜日　日曜日　祝日","capacity":10,"id":"2257271482"},{"name":"児童発達支援事業所　みつばち","nameKana":"じどうはったつしえんじぎょうしょみつばち","corp":"合同会社アベイユ","serviceTypes":["児童発達支援"],"ward":"浜松市","address":"静岡県浜松市中央区根洗町1173","tel":"0535257016","url":"","lat":34.79650092,"lng":137.71178708,"weekday":"","saturday":"","sunday":"","holiday":"","closed":"","capacity":null,"id":"2257271110"},{"name":"児童発達支援事業所　みつばち第２","nameKana":"じどうはつたつしえんじぎょうしょみつばちだいに","corp":"合同会社アベイユ","serviceTypes":["児童発達支援"],"ward":"浜松市","address":"静岡県浜松市浜名区細江町気賀453-1","tel":"053-401-1995","url":"","lat":34.80809745,"lng":137.65390063,"weekday":"","saturday":"","sunday":"","holiday":"","closed":"","capacity":null,"id":"2257271599"},{"name":"児童発達支援事業所　みつばち天竜","nameKana":"じどうはったつしえんじぎょうしょみつばつてんりゅう","corp":"合同会社アベイユ","serviceTypes":["児童発達支援"],"ward":"浜松市","address":"静岡県浜松市天竜区二俣町阿蔵137-19","tel":"053-545-6528","url":"","lat":34.85947265,"lng":137.81720916,"weekday":"","saturday":"","sunday":"","holiday":"","closed":"","capacity":null,"id":"2257272092"},{"name":"わくわく","nameKana":"わくわく","corp":"合同会社Connectoday","serviceTypes":["児童発達支援"],"ward":"浜松市","address":"静岡県浜松市中央区十軒町681-1メゾン・カフリーエ101、102","tel":"053-571-2345","url":"","lat":34.72837164,"lng":137.74766316,"weekday":"","saturday":"","sunday":"","holiday":"","closed":"","capacity":null,"id":"2257271771"},{"name":"多機能型事業所さんぽみち","nameKana":"たきのうがたじぎょうしょさんぽみち","corp":"医療法人社団至空会","serviceTypes":["児童発達支援","放課後等デイサービス"],"ward":"浜松市","address":"静岡県浜松市中央区中郡町４７４","tel":"053-589-3026","url":"https://dada.or.jp/","lat":34.77707889,"lng":137.77870633,"weekday":"10:00-16:00","saturday":"10:00-16:00","sunday":"","holiday":"10:00-16:00","closed":"日曜日、祝日（開所している場合あり）","capacity":20,"id":"2257270161"},{"name":"重心通園事業所みゆう","nameKana":"じゅうしんつうえんじぎょうしょみゆう","corp":"独立行政法人国立病院機構天竜病院","serviceTypes":["児童発達支援"],"ward":"浜松市","address":"静岡県浜松市浜名区於呂4201-2","tel":"053-583-3111","url":"","lat":34.85313957,"lng":137.79908048,"weekday":"","saturday":"","sunday":"","holiday":"","closed":"","capacity":null,"id":"2257271318"},{"name":"こぱんはうすさくら　浜松原島教室","nameKana":"こぱんはうすさくらはままつばらじまきょうしつ","corp":"株式会社アンド・アイ","serviceTypes":["児童発達支援","放課後等デイサービス"],"ward":"浜松市","address":"静岡県浜松市中央区原島町552","tel":"0535447022","url":"","lat":34.72893307,"lng":137.76833107,"weekday":"08:30-15:30","saturday":"","sunday":"","holiday":"08:30-15:30","closed":"土曜日・日曜日・年末年始","capacity":10,"id":"2257271128"},{"name":"こぱんはうすさくら　浜松南教室","nameKana":"こぱんはうすさくらはままつみなみきょうしつ","corp":"株式会社アンド・アイ","serviceTypes":["児童発達支援","放課後等デイサービス"],"ward":"浜松市","address":"静岡県浜松市中央区江之島町530-3","tel":"053-401-6353","url":"","lat":34.6673129,"lng":137.752311,"weekday":"09:00-18:00","saturday":"","sunday":"","holiday":"09:00-18:00","closed":"土日・年末年始・ゴールデンウイーク","capacity":10,"id":"2257271375"},{"name":"こぱんはうすさくら浜松江之島教室","nameKana":"こぱんはうすさくらはままつえのしまきょうしつ","corp":"株式会社アンド・アイ","serviceTypes":["児童発達支援","放課後等デイサービス"],"ward":"浜松市","address":"静岡県浜松市中央区江之島町530-1","tel":"053-582-7390","url":"","lat":34.66759073,"lng":137.75294146,"weekday":"","saturday":"","sunday":"","holiday":"","closed":"","capacity":null,"id":"2257272050"},{"name":"こぱんはうすさくら　浜松丸塚東教室","nameKana":"こぱんはうすはままつまるづかひがしきょうしつ","corp":"株式会社アンド・アイ","serviceTypes":["児童発達支援","放課後等デイサービス"],"ward":"浜松市","address":"静岡県浜松市中央区丸塚町51-1","tel":"053-581-9665","url":"https://www.copainsakurahk.com/","lat":34.7278052,"lng":137.75882084,"weekday":"","saturday":"","sunday":"","holiday":"","closed":"","capacity":null,"id":"2257271888"},{"name":"こぱんはうすさくら浜松恩地教室","nameKana":"こぱんはうすさくらはままつおんじきょうしつ","corp":"株式会社アンド・アイ","serviceTypes":["児童発達支援","放課後等デイサービス"],"ward":"浜松市","address":"静岡県浜松市中央区恩地町４３４−２","tel":"080-1607-5990","url":"https://www.copainsakurahk.com/","lat":34.68626905,"lng":137.75907944,"weekday":"","saturday":"","sunday":"","holiday":"","closed":"","capacity":null,"id":"2257272258"},{"name":"こぱんはうすさくら　浜松丸塚教室","nameKana":"こぱんはうすさくらはままつまるづかきょうしつ","corp":"株式会社アンド・アイ","serviceTypes":["児童発達支援","放課後等デイサービス"],"ward":"浜松市","address":"静岡県浜松市中央区丸塚町６４−２","tel":"053-424-6693","url":"https://www.copainsakurahk.com/","lat":34.72951071,"lng":137.7642425,"weekday":"09:30-15:30","saturday":"10:00-16:00","sunday":"10:00-16:00","holiday":"09:30-15:30","closed":"土曜日・日曜日・年末年始","capacity":10,"id":"2257270773"},{"name":"児童発達支援事業所　ひまわり　ひくまの丘","nameKana":"じどうはったつしえんじぎょうしょひまわりひくまのおか","corp":"社会福祉法人浜松市社会福祉事業団","serviceTypes":["児童発達支援"],"ward":"浜松市","address":"静岡県浜松市中央区曳馬六丁目22-19","tel":"053-416-3950","url":"","lat":34.73810609,"lng":137.73621538,"weekday":"08:30-17:15","saturday":"","sunday":"","holiday":"","closed":"土日祝日","capacity":10,"id":"2257270518"},{"name":"児童発達支援事業所「ひまわり　こころん」","nameKana":"じどうはったつしえんじぎょうしょひまわりこころん","corp":"社会福祉法人浜松市社会福祉事業団","serviceTypes":["児童発達支援"],"ward":"浜松市","address":"静岡県浜松市中央区鴨江２−１１−２","tel":"053-413-0033","url":"","lat":34.70499268,"lng":137.71311579,"weekday":"09:30-16:00","saturday":"","sunday":"","holiday":"","closed":"土日祝日","capacity":10,"id":"2257270807"},{"name":"そよかぜ","nameKana":"そよかぜ","corp":"社会福祉法人天竜厚生会","serviceTypes":["児童発達支援"],"ward":"袋井市","address":"静岡県袋井市上田町267-31","tel":"0538-67-8825","url":"https://www.tenryu-kohseikai.or.jp/children/soyokaze/","lat":34.73653634,"lng":137.93460082,"weekday":"09:00-15:00","saturday":"","sunday":"","holiday":"","closed":"土日、祝日、年末年始（12月29日〜1月3日）","capacity":10,"id":"2257300299"},{"name":"天竜厚生会ちゃるか","nameKana":"てんりゅうこうせいかいちゃるか","corp":"社会福祉法人天竜厚生会","serviceTypes":["児童発達支援"],"ward":"浜松市","address":"静岡県浜松市中央区城北１−２４−５天竜厚生会城北の家内","tel":"053-412-2011","url":"https://www.tenryu-kohseikai.or.jp/children/charkha_rio/","lat":34.72178831,"lng":137.72360865,"weekday":"09:00-15:00","saturday":"","sunday":"","holiday":"","closed":"土日祝日、12月29日〜1月3日","capacity":10,"id":"2257270377"},{"name":"こでまり・やまぼうし","nameKana":"こでまりやまぼうし","corp":"社会福祉法人天竜厚生会","serviceTypes":["児童発達支援","放課後等デイサービス"],"ward":"浜松市","address":"静岡県浜松市浜名区中瀬２３０８","tel":"053-545-7580","url":"https://www.tenryu-kohseikai.or.jp/children/kodemari_yamaboushi/","lat":34.83002986,"lng":137.80858837,"weekday":"09:00-15:00","saturday":"09:00-15:00","sunday":"","holiday":"","closed":"土日、祝日、12月29日〜1月3日","capacity":20,"id":"2257270476"},{"name":"児童発達支援センターみゆき","nameKana":"じどうはったつしえんせんたーみゆき","corp":"沼津市","serviceTypes":["児童発達支援"],"ward":"沼津市","address":"静岡県沼津市東原１６１−１","tel":"055-968-0500","url":"https://www.city.numazu.shizuoka.jp/","lat":35.12779936,"lng":138.81995316,"weekday":"07:30-18:00","saturday":"","sunday":"","holiday":"","closed":"土日祝日、年末年始（12月29日から1月3日）、3月31日","capacity":40,"id":"2251100026"},{"name":"地球のかけら","nameKana":"ほしのかけら","corp":"株式会社デイベンロイ","serviceTypes":["児童発達支援","放課後等デイサービス","居宅訪問型児童発達支援"],"ward":"沼津市","address":"静岡県沼津市東椎路字中尾1640-1０","tel":"08046777809","url":"","lat":35.0955867,"lng":138.8634922,"weekday":"09:00-15:00","saturday":"","sunday":"","holiday":"","closed":"土日祝日　年末年始12/31〜1/3","capacity":10,"id":"2251100323"},{"name":"すみれ　南一色教室","nameKana":"すみれみなみいっしききょうしつ","corp":"株式会社エスライフ","serviceTypes":["児童発達支援","放課後等デイサービス"],"ward":"駿東郡長泉町","address":"静岡県駿東郡長泉町南一色275−1プラス21　１階","tel":"055-987-5360","url":"","lat":35.15981655,"lng":138.90013817,"weekday":"09:30-13:00","saturday":"","sunday":"","holiday":"09:30-13:00","closed":"土曜日・日曜日","capacity":null,"id":"2251310211"},{"name":"すみれ　下土狩教室","nameKana":"すみれしもとがりきょうしつ","corp":"株式会社エスライフ","serviceTypes":["児童発達支援","放課後等デイサービス"],"ward":"駿東郡長泉町","address":"静岡県駿東郡長泉町下土狩1289番地の10山恵ビル１階","tel":"055-989-2253","url":"","lat":35.13009535,"lng":138.89558314,"weekday":"","saturday":"","sunday":"","holiday":"","closed":"","capacity":null,"id":"2251310245"},{"name":"プラトン沼津","nameKana":"ぷらとんぬまづ","corp":"Ｇｒａｎｄｅｕｒ株式会社","serviceTypes":["児童発達支援","放課後等デイサービス"],"ward":"沼津市","address":"静岡県沼津市高島本町4-3","tel":"055-957-9911","url":"https://grandeur.world/platon/","lat":35.10968838,"lng":138.85724494,"weekday":"09:00-12:00","saturday":"10:00-16:00","sunday":"","holiday":"","closed":"日、祝","capacity":20,"id":"2251100398"},{"name":"みらいく大岡校","nameKana":"みらいくおおおかこう","corp":"株式会社Ｖｅｌｖｅｔ　ｐａｓｓ","serviceTypes":["児童発達支援","放課後等デイサービス"],"ward":"沼津市","address":"静岡県沼津市大岡242番地の８","tel":"055-955-9255","url":"","lat":35.1020561,"lng":138.88442117,"weekday":"10:00-17:00","saturday":"09:00-16:00","sunday":"","holiday":"09:00-16:00","closed":"日曜日","capacity":null,"id":"2251100422"},{"name":"みらいく　香貫校","nameKana":"みらいくかぬきこう","corp":"株式会社Ｖｅｌｖｅｔ　ｐａｓｓ","serviceTypes":["児童発達支援","放課後等デイサービス"],"ward":"沼津市","address":"静岡県沼津市上香貫二瀬川町1478番地１","tel":"055-955-5886","url":"http://me-like.shizuoka.jp","lat":35.08665131,"lng":138.8703116,"weekday":"10:00-17:00","saturday":"09:30-16:30","sunday":"","holiday":"09:30-16:30","closed":"日曜日","capacity":10,"id":"2251100471"},{"name":"ぬまづラビットハウス","nameKana":"ぬまづらびっとはうす","corp":"株式会社ヨシヒロ","serviceTypes":["児童発達支援"],"ward":"沼津市","address":"静岡県沼津市西条町９９番地","tel":"0559554888","url":"http://www.rabbithouse-numazu.jp/","lat":35.10058896,"lng":138.8556119,"weekday":"09:30-16:45","saturday":"","sunday":"","holiday":"","closed":"土・日・祝祭日・お盆期間・年末年始","capacity":10,"id":"2251100430"},{"name":"ブロッサムジュニア　沼津教室","nameKana":"ぶろっさむじゅにあぬまづきょうしつ","corp":"合同会社ＫＹＯＵＪＹＯ","serviceTypes":["児童発達支援"],"ward":"沼津市","address":"静岡県沼津市宮前町10-3","tel":"055-960-9833","url":"http://blossom.numazu.hajimeta223.com","lat":35.12104616,"lng":138.87294625,"weekday":"09:30-12:00","saturday":"09:30-16:00","sunday":"","holiday":"09:30-16:00","closed":"日曜日、月曜日　利用者状況により変更有","capacity":10,"id":"2251100448"},{"name":"児童発達支援・放課後等デイサービス　サトヤマキッズ","nameKana":"じどうはったつしえんほうかごとうでいさーびすさとやまきっず","corp":"株式会社さとやまワークス","serviceTypes":["児童発達支援"],"ward":"沼津市","address":"静岡県沼津市東原566番地１","tel":"050-5536-3023","url":"https://www.satoyamakidz.link/","lat":35.13470987,"lng":138.82423901,"weekday":"09:00-11:00","saturday":"09:00-11:00","sunday":"","holiday":"","closed":"日曜日および祝日","capacity":10,"id":"2251100455"},{"name":"ひかりのいえ","nameKana":"ひかりのいえ","corp":"有限会社敏和東海","serviceTypes":["児童発達支援","放課後等デイサービス"],"ward":"裾野市","address":"静岡県裾野市二ツ屋140番地１","tel":"055-939-7881","url":"https://hikarinoie.cool-m1229.com/","lat":35.16681291,"lng":138.90424615,"weekday":"09:30-15:00","saturday":"","sunday":"","holiday":"09:30-15:00","closed":"８月１３日から８月１6日、１２月３0日から１月３日","capacity":7,"id":"2251400111"},{"name":"児童発達支援・放課後等デイサービスぽてと","nameKana":"じどうはったつしえんほうかごとうでいさーびすぽてと","corp":"株式会社未来キッチン","serviceTypes":["児童発達支援","放課後等デイサービス"],"ward":"沼津市","address":"静岡県沼津市大岡3742-9サンぽてと１階","tel":"055-943-6400","url":"http://mirai-k.mom","lat":35.12985089,"lng":138.88703103,"weekday":"09:00-12:00","saturday":"10:00-16:00","sunday":"","holiday":"10:00-16:00","closed":"土、日、祝日","capacity":10,"id":"2251100497"},{"name":"Ano′ano","nameKana":"あのあの","corp":"Ｔｅａｍ　ＵＮＩＴＥ","serviceTypes":["児童発達支援"],"ward":"沼津市","address":"静岡県沼津市松下町15","tel":"055-952-5782","url":"https://anoano202410.wixsite.com/index/contact","lat":35.09876669,"lng":138.84758741,"weekday":"09:00-16:30","saturday":"","sunday":"","holiday":"","closed":"土・日　祝日","capacity":10,"id":"2251100547"},{"name":"伊豆の国市児童発達支援センター","nameKana":"いずのくにしじどうはったつしえんせんたー","corp":"社会福祉法人輝望会","serviceTypes":["児童発達支援"],"ward":"伊豆の国市","address":"静岡県伊豆の国市韮山多田６１０−１","tel":"055-944-6172","url":"http://www.kiboukai.or.jp/","lat":35.06355337,"lng":138.95894044,"weekday":"09:30-14:00","saturday":"","sunday":"","holiday":"","closed":"土・日・祝日","capacity":24,"id":"2250800030"},{"name":"ミルキーウェイ","nameKana":"みるきーうぇい","corp":"社会福祉法人輝望会","serviceTypes":["児童発達支援","放課後等デイサービス"],"ward":"沼津市","address":"静岡県沼津市我入道蔓蛇ケ原５０９−２","tel":"055-934-7770","url":"http://www.kiboukai.or.jp/","lat":35.0955867,"lng":138.8634922,"weekday":"09:00-16:00","saturday":"","sunday":"","holiday":"","closed":"土曜日・日曜日・祝日","capacity":5,"id":"2251100034"},{"name":"障害児・障害者サポートセンターみつばち","nameKana":"しょうがいじしょうがいしゃさぽーとせんたーみつばち","corp":"特定非営利活動法人臨床心理オフィスＢｅサポート","serviceTypes":["児童発達支援","放課後等デイサービス"],"ward":"沼津市","address":"静岡県沼津市庄栄町10-40","tel":"055-943-7646","url":"","lat":35.10966905,"lng":138.86231127,"weekday":"09:00-13:00","saturday":"09:00-18:00","sunday":"","holiday":"","closed":"日曜日、国民の祝日、12月29日から1月3日","capacity":10,"id":"2251100109"},{"name":"沼津センター","nameKana":"ぬまづせんたー","corp":"福祉教育アセスメントセンター株式会社","serviceTypes":["児童発達支援"],"ward":"沼津市","address":"静岡県沼津市千本緑町3-2-３","tel":"055-955-9016","url":"https://moegi-group.net/facility/沼津センター・ドルフィン/","lat":35.09198958,"lng":138.85353453,"weekday":"10:00-13:00","saturday":"10:00-16:00","sunday":"","holiday":"","closed":"日曜　祝日　12/30 12/31 1/1 1/2 1/3","capacity":5,"id":"2251100190"},{"name":"児童発達支援・放課後等デイサービス　くるみ","nameKana":"じどうはったつしえんほうかごとうでいさーびすくるみ","corp":"株式会社Ｋｏｃｈｉａ","serviceTypes":["児童発達支援","放課後等デイサービス"],"ward":"沼津市","address":"静岡県沼津市江原町13番26号１階","tel":"055-925-0556","url":"https://kurumi-numazu.jp/","lat":35.11844064,"lng":138.85988348,"weekday":"09:00-15:00","saturday":"","sunday":"","holiday":"09:00-17:30","closed":"土・日・祝日","capacity":10,"id":"2251100331"},{"name":"児童デイサービスリると和か葉","nameKana":"じどうでいさーびすりるとわかば","corp":"株式会社カームライフ","serviceTypes":["児童発達支援","放課後等デイサービス"],"ward":"駿東郡長泉町","address":"静岡県駿東郡長泉町納米里427−６","tel":"055-957-1702","url":"","lat":35.14421856,"lng":138.89437199,"weekday":"09:30-18:00","saturday":"09:30-18:00","sunday":"","holiday":"","closed":"日曜日","capacity":10,"id":"2251310336"},{"name":"放課後等デイサービスつばさ","nameKana":"ほうかごとうでいさーびすつばさ","corp":"合同会社ＡＳＰ","serviceTypes":["児童発達支援","放課後等デイサービス"],"ward":"駿東郡長泉町","address":"静岡県駿東郡長泉町下長窪612-6","tel":"055-916-8880","url":"https://tsubasa0630.com/","lat":35.14258542,"lng":138.89021119,"weekday":"13:00-18:00","saturday":"09:00-17:00","sunday":"","holiday":"09:00-17:00","closed":"日曜日","capacity":10,"id":"2250600240"},{"name":"ＭＵＫＵ−ＭＵＫＵみしま","nameKana":"むくむくみしま","corp":"ｗｈｙｂｅｓ合同会社","serviceTypes":["児童発達支援","放課後等デイサービス"],"ward":"三島市","address":"静岡県三島市沢地98番地の３","tel":"055-955-6090","url":"https://muku-muku.whybes.com/","lat":35.13685903,"lng":138.9228028,"weekday":"","saturday":"","sunday":"","holiday":"","closed":"","capacity":null,"id":"2250600257"},{"name":"ドルフィンキッズクラブ","nameKana":"どるふぃんきっずくらぶ","corp":"株式会社すいみー保育園","serviceTypes":["児童発達支援"],"ward":"駿東郡長泉町","address":"静岡県駿東郡長泉町竹原320","tel":"055-916-7603","url":"","lat":35.12014093,"lng":138.89776376,"weekday":"08:30-16:30","saturday":"08:30-16:30","sunday":"","holiday":"","closed":"日、祝日、年末年始","capacity":10,"id":"2251310252"},{"name":"三島市児童発達支援事業所","nameKana":"みしましじどうはったつしえんじぎょうしょ","corp":"三島市","serviceTypes":["児童発達支援"],"ward":"三島市","address":"静岡県三島市谷田２７１番地の１錦田こども園内","tel":"055-975-5088","url":"","lat":35.11383618,"lng":138.93436347,"weekday":"09:00-14:00","saturday":"","sunday":"","holiday":"","closed":"土曜日、日曜日、祝日、年末年始","capacity":24,"id":"2250600125"},{"name":"エシカファーム梅名園","nameKana":"えしかふぁーむうめなえん","corp":"特定非営利活動法人エシカファーム","serviceTypes":["児童発達支援"],"ward":"三島市","address":"静岡県三島市梅名99-3IPPO梅名","tel":"055-941-7853","url":"http://ethicafarm.com/","lat":35.09664312,"lng":138.92934789,"weekday":"09:00-13:30","saturday":"","sunday":"","holiday":"","closed":"土・日・祝日　年末年始","capacity":10,"id":"2250600034"},{"name":"ドリームケアふぃる","nameKana":"どりーむけあふぃる","corp":"株式会社インクル","serviceTypes":["児童発達支援"],"ward":"駿東郡清水町","address":"静岡県駿東郡清水町徳倉３６９−６","tel":"055-935-4655","url":"http://ethicafarm.com/","lat":35.08146352,"lng":138.8969347,"weekday":"09:00-16:30","saturday":"","sunday":"","holiday":"","closed":"","capacity":20,"id":"2251300014"},{"name":"ＫＯＮＯＭＩ","nameKana":"このみ","corp":"株式会社３ｒｄＩｓｌａｎｄ","serviceTypes":["児童発達支援","放課後等デイサービス"],"ward":"三島市","address":"静岡県三島市東本町２−４−３３１Ｂ","tel":"055-919-5500","url":"https://konomisyouni.wixsite.com/konomi","lat":35.11372804,"lng":138.92476407,"weekday":"09:30-14:30","saturday":"09:30-14:30","sunday":"","holiday":"","closed":"土・日・祝日","capacity":10,"id":"2250600166"},{"name":"さくらキャンプ","nameKana":"さくらきゃんぷ","corp":"一般社団法人さくらキャンプ","serviceTypes":["児童発達支援","放課後等デイサービス"],"ward":"三島市","address":"静岡県三島市幸原町二丁目５番９号","tel":"055-939-8792","url":"https://sakuracamp.jp","lat":35.13846401,"lng":138.91161781,"weekday":"09:00-14:00","saturday":"09:00-17:00","sunday":"","holiday":"09:00-14:00","closed":"土曜日・日曜日・12月30日から1月3日・8月15日から8月17日","capacity":30,"id":"2250600174"},{"name":"さくらキャンプ函南","nameKana":"さくらきゃんぷかんなみ","corp":"一般社団法人さくらキャンプ","serviceTypes":["児童発達支援"],"ward":"田方郡函南町","address":"静岡県田方郡函南町上沢85番地の４","tel":"055-928-9288","url":"","lat":35.09122136,"lng":138.94709942,"weekday":"","saturday":"","sunday":"","holiday":"","closed":"","capacity":null,"id":"2250300072"},{"name":"多機能型事業所　はぐくみスタジオ　すいみ","nameKana":"たきのうがたじぎょうしょはぐくみすたじおすいみ","corp":"株式会社シャンティアム","serviceTypes":["児童発達支援","放課後等デイサービス"],"ward":"富士市","address":"静岡県富士市緑町8-8信和ビルⅡ　1階","tel":"0545-67-2710","url":"","lat":35.15872351,"lng":138.68118818,"weekday":"13:00-17:00","saturday":"","sunday":"","holiday":"09:00-16:00","closed":"土曜日、日曜日","capacity":10,"id":"2252300740"},{"name":"児童発達支援Crescita","nameKana":"じどうはったつしえん","corp":"東海ウィングライト株式会社","serviceTypes":["児童発達支援"],"ward":"富士宮市","address":"静岡県富士宮市宮町7番6号","tel":"0544-21-0385","url":"https://www.crescita.jp/","lat":35.22386134,"lng":138.60773863,"weekday":"09:00-18:00","saturday":"09:00-17:00","sunday":"","holiday":"","closed":"日曜、祝日","capacity":10,"id":"2252100322"},{"name":"放課後等デイサービス　Crescita Ⅱ","nameKana":"ほうかごとうでいさーびすくれしーたせこんど","corp":"東海ウィングライト株式会社","serviceTypes":["児童発達支援","放課後等デイサービス"],"ward":"富士宮市","address":"静岡県富士宮市宮町7番6号","tel":"0544-21-0385","url":"http://www.crescita.jp","lat":35.22386135,"lng":138.60769975,"weekday":"09:00-18:00","saturday":"09:00-17:00","sunday":"","holiday":"","closed":"日曜・祝日","capacity":10,"id":"2252100371"},{"name":"こぱんはうすさくら　富士宮教室","nameKana":"こぱんはうすさくらふじのみやきょうしつ","corp":"株式会社愛和会","serviceTypes":["児童発達支援","放課後等デイサービス"],"ward":"富士宮市","address":"静岡県富士宮市宮原363-62","tel":"0544-55-3411","url":"https://www.copainmiyahara.com","lat":35.2497272,"lng":138.61233992,"weekday":"10:00-16:00","saturday":"10:00-16:00","sunday":"10:00-16:00","holiday":"10:00-16:00","closed":"","capacity":20,"id":"2252100330"},{"name":"児童発達支援・放課後デイサービスぱれっと","nameKana":"じどうはったつしえんほうかごでいさーびすぱれっと","corp":"株式会社キッズ・ライフ・クラブ","serviceTypes":["児童発達支援","放課後等デイサービス"],"ward":"富士宮市","address":"静岡県富士宮市星山983番地の4","tel":"0544-55-1845","url":"https://www.gurutto-fujinomiya.com/school/palette/index.html","lat":35.20870239,"lng":138.61676314,"weekday":"09:00-12:00","saturday":"","sunday":"","holiday":"","closed":"土日祝祭日","capacity":10,"id":"2252100348"},{"name":"多機能事業所　あのあの","nameKana":"たきのうじぎょうしょあのあの","corp":"株式会社静岡仮設","serviceTypes":["児童発達支援"],"ward":"富士宮市","address":"静岡県富士宮市小泉233番地の１Nビル1階","tel":"0544-25-0707","url":"https://yousonice.jp/service00/service01/","lat":35.21086926,"lng":138.63641441,"weekday":"","saturday":"09:00-15:00","sunday":"","holiday":"09:00-15:00","closed":"日曜日、年末年始（12/29〜1/3）","capacity":7,"id":"2252100363"},{"name":"ＬＥＡＦ Ａ","nameKana":"りーふえい","corp":"特定非営利活動法人ＥＰＯ","serviceTypes":["児童発達支援"],"ward":"富士宮市","address":"静岡県富士宮市粟倉２７３６−３","tel":"0544-21-9533","url":"http://epo-farm.com/","lat":35.25835561,"lng":138.67386211,"weekday":"10:00-18:00","saturday":"10:00-18:00","sunday":"","holiday":"","closed":"日曜祝日、夏季、年末年始、その他事業所カレンダーによる","capacity":10,"id":"2252100074"},{"name":"富士宮市立あすなろ園","nameKana":"ふじのみやしりつあすなろえん","corp":"富士宮市","serviceTypes":["児童発達支援"],"ward":"富士宮市","address":"静岡県富士宮市万野原新田３０１８−６","tel":"0544-26-8640","url":"http://www.city.fujinomiya.lg.jp","lat":35.25416882,"lng":138.6337718,"weekday":"09:00-14:30","saturday":"","sunday":"","holiday":"","closed":"日曜日、土曜日、国民の休日及び１２月２８日〜１月３日","capacity":30,"id":"2252200221"},{"name":"Ｇクレフ","nameKana":"じーくれふ","corp":"株式会社ムジカオハナ","serviceTypes":["児童発達支援","放課後等デイサービス"],"ward":"富士宮市","address":"静岡県富士宮市淀師1161-1","tel":"0544-21-9305","url":"http://hp.kaipoke.biz/ex7/","lat":35.24274476,"lng":138.60830139,"weekday":"10:00-12:00","saturday":"10:00-16:00","sunday":"","holiday":"10:00-16:10","closed":"日曜日・年末年始・お盆","capacity":20,"id":"2252100090"},{"name":"ぷらす。","nameKana":"ぷらす","corp":"合同会社Ｐ．Ｐ．Ｃｏｒｐｏｒａｔｉｏｎ","serviceTypes":["児童発達支援","放課後等デイサービス"],"ward":"富士市","address":"静岡県富士市松富町１８８","tel":"0545-62-0622","url":"","lat":35.15107902,"lng":138.64040061,"weekday":"09:00-12:00","saturday":"10:00-16:00","sunday":"","holiday":"10:00-16:00","closed":"日曜日・年末年始・お盆・長期休暇中","capacity":10,"id":"2252300278"},{"name":"えがお。","nameKana":"えがお","corp":"合同会社Ｐ．Ｐ．Ｃｏｒｐｏｒａｔｉｏｎ","serviceTypes":["児童発達支援"],"ward":"富士宮市","address":"静岡県富士宮市東町12-15","tel":"0544-28-6800","url":"","lat":35.223631,"lng":138.61745723,"weekday":"09:00-12:00","saturday":"","sunday":"","holiday":"","closed":"日曜日・年末年始","capacity":null,"id":"2252100264"},{"name":"伊東市立さくら園","nameKana":"いとうしりつさくらえん","corp":"伊東市","serviceTypes":["児童発達支援"],"ward":"伊東市","address":"静岡県伊東市玖須美元和田７１６−５０９","tel":"0557-36-2875","url":"https://www.city.ito.shizuoka.jp/gyosei/kosodate_kyoiku/kosodate/hoiku/6286.html","lat":34.95338862,"lng":139.11138038,"weekday":"09:00-15:00","saturday":"","sunday":"","holiday":"","closed":"土、日、祝日","capacity":20,"id":"2250400013"},{"name":"児童発達支援センター　クローバー","nameKana":"じどうはったつしえんせんたーくろーばー","corp":"社会福祉法人城ヶ崎いこいの里","serviceTypes":["児童発達支援"],"ward":"伊東市","address":"静岡県伊東市荻５７８−３","tel":"0557-45-6013","url":"http://www.ikoinosato.jp/","lat":34.93095124,"lng":139.09876882,"weekday":"08:30-14:30","saturday":"","sunday":"","holiday":"","closed":"土曜日、日曜日、祝日、12月29日〜1月3日","capacity":10,"id":"2250400039"},{"name":"おれんじはつくら","nameKana":"おれんじはつくら","corp":"認定NPO法人フリースペース・うぇるびー","serviceTypes":["児童発達支援","放課後等デイサービス"],"ward":"島田市","address":"静岡県島田市阪本797-5","tel":"0547-54-5121","url":"http://npo-wellbe.com","lat":34.81692141,"lng":138.21724251,"weekday":"14:30-17:30","saturday":"14:30-18:30","sunday":"","holiday":"","closed":"日曜、祝日、その他運営規定に定められた日","capacity":5,"id":"2255700136"},{"name":"島田市こども発達支援センター","nameKana":"しまだしこどもはったつしえんせんたー","corp":"島田市","serviceTypes":["児童発達支援"],"ward":"島田市","address":"静岡県島田市落合６４番地の８","tel":"0547-37-7094","url":"https://www.city.shimada.shizuoka.jp/","lat":34.85561923,"lng":138.18224347,"weekday":"09:00-16:00","saturday":"","sunday":"","holiday":"","closed":"土曜・日曜・祝日","capacity":30,"id":"2255700029"},{"name":"ハッピーエンジェル","nameKana":"はっぴーえんじぇる","corp":"S＆H合同会社","serviceTypes":["児童発達支援","放課後等デイサービス"],"ward":"富士市","address":"静岡県富士市錦町1-2-15","tel":"0545-67-4000","url":"http://happy-angel.org/","lat":35.16098155,"lng":138.67930227,"weekday":"13:50-17:00","saturday":"","sunday":"","holiday":"10:00-15:00","closed":"土曜日・日曜日","capacity":10,"id":"2252300591"},{"name":"ハッピードリーム","nameKana":"はっぴーどりーむ","corp":"S＆H合同会社","serviceTypes":["児童発達支援","放課後等デイサービス"],"ward":"富士市","address":"静岡県富士市厚原780","tel":"0545-32-7145","url":"","lat":35.18937495,"lng":138.65641859,"weekday":"13:50-17:00","saturday":"","sunday":"","holiday":"10:00-15:00","closed":"土曜日・日曜日","capacity":10,"id":"2252300856"},{"name":"くれよん","nameKana":"くれよん","corp":"合同会社かのん","serviceTypes":["児童発達支援","放課後等デイサービス"],"ward":"富士市","address":"静岡県富士市富士岡20-10","tel":"0545-32-8222","url":"https://crayon2020.jimdofree.com","lat":35.16437871,"lng":138.7264588,"weekday":"08:30-16:15","saturday":"","sunday":"","holiday":"","closed":"土・日・祝日（事業所が指定した土曜日・祝日は開所する。）","capacity":10,"id":"2252300476"},{"name":"児童発達支援・放課後等デイサービス　ふぉー","nameKana":"じどうはったつしえんほうかごとうでいさーびすふぉー","corp":"ＯＯＳＨＩＳＨＩ株式会社","serviceTypes":["児童発達支援","放課後等デイサービス"],"ward":"富士市","address":"静岡県富士市神谷578-2リバーサイドハイツ１階","tel":"0545-88-7754","url":"https://for-ooshishi.jp/","lat":35.16272911,"lng":138.74009108,"weekday":"09:00-13:00","saturday":"09:00-13:00","sunday":"","holiday":"09:00-13:00","closed":"日曜日","capacity":10,"id":"2252300575"},{"name":"児童発達支援・放課後等デイサービス　フジラボ","nameKana":"じどうはったつしえんほうかごとうでいさーびすふじらぼ","corp":"ＯＯＳＨＩＳＨＩ株式会社","serviceTypes":["児童発達支援","放課後等デイサービス"],"ward":"富士市","address":"静岡県富士市国久保3丁目2-12","tel":"0545-57-7340","url":"","lat":35.16976663,"lng":138.68029104,"weekday":"09:00-13:00","saturday":"09:00-13:00","sunday":"","holiday":"09:00-17:00","closed":"日曜日","capacity":10,"id":"2252300708"},{"name":"エミナ津島町教室","nameKana":"えみなつしまちょうきょうしつ","corp":"エミナ合同会社","serviceTypes":["児童発達支援","放課後等デイサービス"],"ward":"静岡市","address":"静岡県静岡市駿河区敷地２−２３−１１","tel":"054-293-7721","url":"https://www.emina.llc","lat":34.95050429,"lng":138.41531805,"weekday":"09:30-17:45","saturday":"09:30-16:00","sunday":"","holiday":"","closed":"日曜・月曜・祝日・夏季休暇・年末年始休暇","capacity":10,"id":"2254230499"},{"name":"エミナ　富士中央教室","nameKana":"えみなふじちゅうおうきょうしつ","corp":"エミナ合同会社","serviceTypes":["児童発達支援"],"ward":"富士市","address":"静岡県富士市米之宮町208番地","tel":"0545-32-6863","url":"https://www.emina.llc","lat":35.16473618,"lng":138.65632417,"weekday":"09:30-17:40","saturday":"","sunday":"","holiday":"","closed":"土曜日・日曜日・祝日","capacity":10,"id":"2252300682"},{"name":"エミナ富士吉原教室","nameKana":"えみなふじよしわらきょうしつ","corp":"エミナ合同会社","serviceTypes":["児童発達支援"],"ward":"富士市","address":"静岡県富士市吉原２丁目13番８号","tel":"0545-67-6577","url":"","lat":35.1624231,"lng":138.68712089,"weekday":"09:30-17:40","saturday":"","sunday":"","holiday":"","closed":"土曜・日曜・祝日・夏季休暇・年末年始休暇","capacity":10,"id":"2252300757"},{"name":"多機能型事業所 kids Care　te+te","nameKana":"たきのうがたじぎょうしょきっずけあてとて","corp":"株式会社クーキーズ","serviceTypes":["児童発達支援","放課後等デイサービス"],"ward":"富士市","address":"静岡県富士市緑町８−８信和ビルⅡ　１階","tel":"0545672710","url":"https://cookees-inc.com/","lat":35.15871518,"lng":138.68118263,"weekday":"09:00-17:00","saturday":"09:00-16:00","sunday":"","holiday":"","closed":"隔週土曜日と毎日曜日","capacity":10,"id":"2252300690"},{"name":"多機能事業所　コアの木","nameKana":"たきのうじぎょうしょこあのき","corp":"リアン株式会社","serviceTypes":["児童発達支援","放課後等デイサービス"],"ward":"富士市","address":"静岡県富士市厚原2180-4-2","tel":"0545-30-9095","url":"https://rian-shizuoka.com","lat":35.19125845,"lng":138.6703698,"weekday":"09:00-16:00","saturday":"09:00-15:00","sunday":"","holiday":"09:00-15:00","closed":"日曜日","capacity":5,"id":"2252300732"},{"name":"めいめい","nameKana":"めいめい","corp":"一般社団法人　ゆたか会","serviceTypes":["児童発達支援","放課後等デイサービス"],"ward":"富士市","address":"静岡県富士市下横割215番地１","tel":"0545-30-6563","url":"https://h-navi.jp/support_facility/facilities/163852","lat":35.14395566,"lng":138.66001813,"weekday":"13:00-16:00","saturday":"13:00-16:00","sunday":"","holiday":"","closed":"日曜、祝日、その他事業所指定日","capacity":5,"id":"2252300773"},{"name":"ＺＥＡＬ","nameKana":"じーる","corp":"株式会社ＳＴОＲＹ","serviceTypes":["児童発達支援","放課後等デイサービス"],"ward":"富士市","address":"静岡県富士市国久保三丁目２番32号美穂ビル３F","tel":"0545-55-3030","url":"https://zeal-story.com/","lat":35.17023323,"lng":138.67955501,"weekday":"09:30-17:00","saturday":"09:30-14:30","sunday":"","holiday":"09:30-14:30","closed":"毎週日曜　年末年始(12/29−1/3)","capacity":10,"id":"2252300781"},{"name":"ｎｅｏ　ｋｉｄｓ","nameKana":"ねおきっず","corp":"株式会社みななろ","serviceTypes":["児童発達支援","放課後等デイサービス"],"ward":"静岡市","address":"静岡県静岡市清水区草薙一里山3番38号Swk．Bld　201号","tel":"054-660-7760","url":"https://neokids.jp","lat":35.00666559,"lng":138.45229471,"weekday":"10:00-18:00","saturday":"09:30-17:30","sunday":"","holiday":"","closed":"日曜、月曜、祝日","capacity":10,"id":"2254261015"},{"name":"はなとこ","nameKana":"はなとこ","corp":"はなとこＬＡＢＯ合同会社","serviceTypes":["児童発達支援","放課後等デイサービス"],"ward":"富士市","address":"静岡県富士市日乃出町35","tel":"0545-67-1161","url":"https://hanatoko.jp","lat":35.16561419,"lng":138.66961442,"weekday":"","saturday":"","sunday":"","holiday":"","closed":"","capacity":null,"id":"2252300823"},{"name":"キッズケア　ぴいす","nameKana":"きっずけあぴいす","corp":"株式会社Ｊｏｙ’　ｎ","serviceTypes":["児童発達支援"],"ward":"富士市","address":"静岡県富士市津田町181番地の２","tel":"0545-67-3957","url":"","lat":35.15227431,"lng":138.6827908,"weekday":"","saturday":"","sunday":"","holiday":"","closed":"土曜日　日曜日","capacity":null,"id":"2252300849"},{"name":"スモールステップのあ","nameKana":"すもーるすてっぷのあ","corp":"合同会社ゆら","serviceTypes":["児童発達支援","放課後等デイサービス"],"ward":"富士市","address":"静岡県富士市横割１丁目17番24号　ＦＣビル３Ｆ","tel":"0545-38-9660","url":"","lat":35.14714383,"lng":138.65116903,"weekday":"09:00-18:00","saturday":"","sunday":"","holiday":"09:00-16:00","closed":"","capacity":10,"id":"2252300880"},{"name":"でらび〜","nameKana":"でらびー","corp":"社会福祉法人インクルふじ","serviceTypes":["児童発達支援","放課後等デイサービス"],"ward":"富士市","address":"静岡県富士市伝法８６番地３","tel":"0545-23-1551","url":"http://www.incle.jp","lat":35.18710908,"lng":138.68083812,"weekday":"09:00-16:00","saturday":"","sunday":"","holiday":"","closed":"原則土日祝日休み","capacity":5,"id":"2252300047"},{"name":"富士市立こども発達センターみはら園","nameKana":"ふじしりつこどもはったつせんたーみはらえん","corp":"富士市","serviceTypes":["児童発達支援","居宅訪問型児童発達支援"],"ward":"富士市","address":"静岡県富士市伝法８５","tel":"0545-21-2010","url":"https://www.city.fuji.shizuoka.jp/","lat":35.18655081,"lng":138.68076036,"weekday":"08:30-17:00","saturday":"","sunday":"","holiday":"","closed":"土・日・祝日と春・夏・冬休み","capacity":60,"id":"2252200098"},{"name":"はいから","nameKana":"はいから","corp":"特定非営利活動法人ドリームアカデミー","serviceTypes":["児童発達支援","放課後等デイサービス"],"ward":"富士市","address":"静岡県富士市本市場１０番地１はいから訓練棟・はいから学習棟の２棟が事業所の所在地にあります。","tel":"0545-88-2323","url":"http://haikara0810.i-ra.jp","lat":35.15973668,"lng":138.6524162,"weekday":"13:00-18:00","saturday":"09:00-17:00","sunday":"00:00-00:00","holiday":"09:00-17:00","closed":"日曜日","capacity":10,"id":"2252300310"},{"name":"ことこと","nameKana":"ことこと","corp":"一般社団法人サン・ビレッジ","serviceTypes":["児童発達支援","放課後等デイサービス"],"ward":"富士市","address":"静岡県富士市厚原２２１１番地の１","tel":"090-2184-3996","url":"https://www.sunvillage.or.jp/","lat":35.19032236,"lng":138.6667841,"weekday":"14:00-16:00","saturday":"12:00-15:00","sunday":"","holiday":"","closed":"日曜日、祝日、法人が定めた休日","capacity":null,"id":"2252300401"},{"name":"放課後等デイサービス　すまいる　らいふ。","nameKana":"ほうかごとうでいさーびすすまいるらいふ","corp":"ＮＰＯ法人はっぴぃ","serviceTypes":["児童発達支援","放課後等デイサービス"],"ward":"富士市","address":"静岡県富士市神戸441-1","tel":"0545-21-4000","url":"","lat":35.19331706,"lng":138.71304844,"weekday":"13:00-17:30","saturday":"08:30-17:30","sunday":"08:30-17:30","holiday":"08:30-17:30","closed":"","capacity":15,"id":"2252300187"},{"name":"あそびっこ　どんぐり","nameKana":"あそびっこどんぐり","corp":"あこの合同会社","serviceTypes":["児童発達支援","放課後等デイサービス"],"ward":"磐田市","address":"静岡県磐田市富士見町四丁目２番地７","tel":"0538-31-6960","url":"https://asobikko.creche-donguri.com","lat":34.73742549,"lng":137.86534957,"weekday":"10:00-13:00","saturday":"","sunday":"","holiday":"10:00-13:00","closed":"土日、ゴールデンウィーク、お盆、年末年始","capacity":10,"id":"2256900511"},{"name":"あにまぁと","nameKana":"あにまぁと","corp":"社会福祉法人福浜会","serviceTypes":["児童発達支援","放課後等デイサービス"],"ward":"磐田市","address":"静岡県磐田市大原2879番地２","tel":"0538-31-3381","url":"https://fukuhamakai.jimdo.com/","lat":34.68698525,"lng":137.86710719,"weekday":"08:30-17:00","saturday":"08:30-14:45","sunday":"","holiday":"","closed":"","capacity":5,"id":"2256900065"},{"name":"サポートハウス心愛（ここあ）","nameKana":"さぽーとはうすここあ","corp":"特定非営利活動法人ひなたぼっこ","serviceTypes":["児童発達支援"],"ward":"磐田市","address":"静岡県磐田市向笠竹之内1298-1","tel":"0538-84-7760","url":"http://www.hinata-cocoa.com","lat":34.75634007,"lng":137.86218335,"weekday":"09:30-14:00","saturday":"09:30-14:00","sunday":"","holiday":"","closed":"法人内年間カレンダーによる","capacity":10,"id":"2256900032"},{"name":"児童発達支援センター心愛（ここあ）つう","nameKana":"じどうはったつしえんせんたーここあつう","corp":"特定非営利活動法人ひなたぼっこ","serviceTypes":["児童発達支援"],"ward":"磐田市","address":"静岡県磐田市匂坂上228-1","tel":"0538-86-3900","url":"http://www.hinata-cocoa.com","lat":34.76937684,"lng":137.83326546,"weekday":"09:30-14:00","saturday":"09:30-14:00","sunday":"","holiday":"","closed":"法人内年間カレンダーによる","capacity":30,"id":"2256900040"},{"name":"まめの木","nameKana":"まめのき","corp":"特定非営利活動法人ここつみ","serviceTypes":["児童発達支援","放課後等デイサービス"],"ward":"磐田市","address":"静岡県磐田市岡918番地1","tel":"0538-30-6340","url":"https://budounoki.hamazo.tv/","lat":34.67404634,"lng":137.81692342,"weekday":"09:30-13:30","saturday":"09:30-13:30","sunday":"","holiday":"09:30-15:30","closed":"日・祝・年末年始・夏季休暇","capacity":10,"id":"2256900107"},{"name":"こども発達支援ホームいわしろ","nameKana":"こどもはったつしえんほーむいわしろ","corp":"社会福祉法人安基インクルージョン","serviceTypes":["児童発達支援"],"ward":"磐田市","address":"静岡県磐田市匂坂上１２６３−３","tel":"0538-38-2001","url":"http://iwasiro.server-shared.com/","lat":34.77662366,"lng":137.84382845,"weekday":"09:00-15:00","saturday":"09:00-15:00","sunday":"","holiday":"08:30-12:30","closed":"金曜日及び事業所の定める春休み、夏休み、年末年始休み","capacity":10,"id":"2256900024"},{"name":"おおふじ学園","nameKana":"おおふじがくえん","corp":"社会福祉法人磐田厚生会","serviceTypes":["児童発達支援","放課後等デイサービス"],"ward":"磐田市","address":"静岡県磐田市大久保２０４−１","tel":"0538-38-2278","url":"http://www4.tokai.or.jp/ofujigakuen/","lat":34.76364446,"lng":137.84672597,"weekday":"09:00-16:00","saturday":"","sunday":"","holiday":"09:00-16:00","closed":"土・日曜日及び年間カレンダーによる","capacity":5,"id":"2256900057"},{"name":"木っころ","nameKana":"きっころ","corp":"特定非営利活動法人こころのサポート・ひだまり","serviceTypes":["児童発達支援"],"ward":"磐田市","address":"静岡県磐田市富里90番地１","tel":"0538-30-6488","url":"https://www.kokorohidamari.com","lat":34.75690855,"lng":137.83127171,"weekday":"09:00-14:00","saturday":"","sunday":"","holiday":"","closed":"土曜日、日曜日、国民の祝日、その他事業所の定める日","capacity":10,"id":"2256900503"},{"name":"野楽っこ","nameKana":"のらっこ","corp":"特定非営利活動法人こころのサポート・ひだまり","serviceTypes":["児童発達支援"],"ward":"磐田市","address":"静岡県磐田市小立野４１７","tel":"0538-33-8100","url":"https://www.kokorohidamari.com","lat":34.72758899,"lng":137.8157105,"weekday":"09:00-14:00","saturday":"","sunday":"","holiday":"","closed":"土曜日、日曜日、祝日、その他事業所が定める日","capacity":10,"id":"2256900222"},{"name":"こぱんはうすさくら　磐田城之崎教室","nameKana":"こぱんはうすさくらいわたきのさききょうしつ","corp":"株式会社ユーイット","serviceTypes":["児童発達支援","放課後等デイサービス"],"ward":"磐田市","address":"静岡県磐田市城之崎３−７−８","tel":"0538-33-3339","url":"http://www.copain-sakura-kinosaki.com/","lat":34.71891968,"lng":137.86840576,"weekday":"10:00-16:00","saturday":"10:00-16:00","sunday":"","holiday":"10:00-16:00","closed":"1月1日、1月2日、1月3日、12月31日","capacity":10,"id":"2256900339"},{"name":"ぽぷら","nameKana":"ぽぷら","corp":"社会福祉法人焼津福祉会","serviceTypes":["児童発達支援"],"ward":"焼津市","address":"静岡県焼津市大覚寺三丁目２番地の１","tel":"054-627-0600","url":"http://www.yaizu-fukushikai.or.jp","lat":34.87611925,"lng":138.3052057,"weekday":"08:30-17:15","saturday":"","sunday":"","holiday":"","closed":"土曜・日曜・祝日・12/29〜1/3","capacity":30,"id":"2252200114"},{"name":"色えんぴつ","nameKana":"いろえんぴつ","corp":"社会福祉法人焼津福祉会","serviceTypes":["児童発達支援"],"ward":"焼津市","address":"静岡県焼津市三ケ名１０５８番１","tel":"054-639-9899","url":"http://www.yaizu-fukushikai.or.jp","lat":34.86017612,"lng":138.30521077,"weekday":"09:00-15:00","saturday":"","sunday":"","holiday":"","closed":"土曜日、日曜日、祝日、１２／２９〜１／３","capacity":10,"id":"2255100071"},{"name":"多機能型放課後等デイサービスてん　おおいがわ","nameKana":"たきのうがたほうかごとうでいさーびすてんおおいがわ","corp":"ポップ株式会社","serviceTypes":["児童発達支援","放課後等デイサービス"],"ward":"焼津市","address":"静岡県焼津市飯淵822-3","tel":"054-639-9553","url":"https://pop2010.com","lat":34.78741858,"lng":138.2849957,"weekday":"09:00-15:00","saturday":"","sunday":"","holiday":"09:00-15:00","closed":"土、日曜日、祝日　夏季、年末年始休業日","capacity":10,"id":"2255100097"},{"name":"発達支援のへや　こどもの里","nameKana":"はったつしえんのへやこどものさと","corp":"社会福祉法人未来","serviceTypes":["児童発達支援"],"ward":"掛川市","address":"静岡県掛川市家代の里一丁目５番地１","tel":"0537-64-3313","url":"http://mirai.ed.jp/kodomonosato/","lat":34.78739442,"lng":137.97530215,"weekday":"09:00-16:00","saturday":"","sunday":"","holiday":"","closed":"土曜・日曜・祝日","capacity":10,"id":"2257400271"},{"name":"児童発達支援事業所　ウェルスマイル","nameKana":"じどうはったつしえんじぎょうしょうぇるすまいる","corp":"株式会社コミュニティリハビリテーション","serviceTypes":["児童発達支援"],"ward":"掛川市","address":"静岡県掛川市板沢864-１","tel":"0537-54-2119","url":"https://com-reha.com","lat":34.76876628,"lng":137.99816747,"weekday":"09:30-12:30","saturday":"","sunday":"","holiday":"","closed":"土曜日　日曜日　祝祭日　12/29-1/3","capacity":5,"id":"2257400289"},{"name":"放課後等デイサービス　はちみつ","nameKana":"ほうかごとうでいさーびすはちみつ","corp":"株式会社ＣＯＣＯＳＩＡ","serviceTypes":["児童発達支援"],"ward":"掛川市","address":"静岡県掛川市城北一丁目９番11号","tel":"0537-25-7577","url":"https://cocosia.org/","lat":34.77838217,"lng":138.00996366,"weekday":"14:00-17:00","saturday":"10:00-16:00","sunday":"","holiday":"","closed":"土曜日・日曜日・祝日","capacity":10,"id":"2257400297"},