[{"name":"ひまわりＡＢＡ教室（発達療育レンテ名古屋）","nameKana":"ひまわりえいびいえいきょうしつはったつりょういくれんてなごや","corp":"株式会社エルチェ","serviceTypes":["児童発達支援"],"ward":"名古屋市","address":"愛知県名古屋市東区泉1-10-25シェモア泉7Ａ号室","tel":"052-212-8513","url":"https://elche.co.jp","lat":35.17603816,"lng":136.91058348,"weekday":"09:30-17:00","saturday":"09:30-17:00","sunday":"","holiday":"","closed":"日曜日、祝日、12月29日から1月3日","capacity":10,"id":"2356100095"},{"name":"ライフサポートスクール　エポックはるひ教室","nameKana":"らいふさぽーとすくーるえぽっくはるひきょうしつ","corp":"社会福祉法人　高嶺福祉会","serviceTypes":["児童発達支援","放課後等デイサービス"],"ward":"清須市","address":"愛知県清須市春日長畑８５番地２かすがタウン１階","tel":"052-982-6655","url":"","lat":35.24069771,"lng":136.83232002,"weekday":"10:00-15:00","saturday":"10:00-15:00","sunday":"","holiday":"10:00-15:00","closed":"土曜日・日曜日・年末年始(12月30日〜1月3日)","capacity":7,"id":"2350600280"},{"name":"コペルプラス本笠寺教室","nameKana":"こぺるぷらすもとかさでらきょうしつ","corp":"株式会社アイ・エス・シー","serviceTypes":["児童発達支援","放課後等デイサービス"],"ward":"名古屋市","address":"愛知県名古屋市南区桜本町51番成田ビル２階E号室","tel":"052-824-8882","url":"https://copelplus.copel.co.jp/school/motokasadera/","lat":35.1004654,"lng":136.93483956,"weekday":"10:00-18:00","saturday":"10:00-18:00","sunday":"10:00-18:00","holiday":"","closed":"国民の祝日　８月13〜15日　12月30日〜1月3日","capacity":10,"id":"2358100341"},{"name":"コペルプラス　大手教室","nameKana":"こぺるぷらすおおてきょうしつ","corp":"株式会社アイ・エス・シー","serviceTypes":["児童発達支援"],"ward":"名古屋市","address":"愛知県名古屋市港区佐野町3丁目20番地","tel":"052-304-8156","url":"https://copelplus.copel.co.jp/","lat":35.09766812,"lng":136.8722769,"weekday":"10:00-18:00","saturday":"10:00-18:00","sunday":"","holiday":"","closed":"日曜日・月曜日・国民の祝日・お盆・年末年始","capacity":10,"id":"2351200346"},{"name":"ひまわりのたね","nameKana":"ひまわりのたね","corp":"株式会社ＣＯＮＦＥＬ","serviceTypes":["児童発達支援"],"ward":"豊川市","address":"愛知県豊川市牛久保町大手６４","tel":"0532393061","url":"https://hoshi-zora.com/","lat":34.81065186,"lng":137.38199536,"weekday":"14:00-17:00","saturday":"10:00-16:00","sunday":"","holiday":"10:00-16:00","closed":"日曜日、12月30日から１月４日まで、お盆休み、その他事業所が定める日","capacity":2,"id":"2355200383"},{"name":"ほしぞら","nameKana":"ほしぞら","corp":"株式会社ＲＡＩＳＥ","serviceTypes":["児童発達支援","放課後等デイサービス"],"ward":"犬山市","address":"愛知県犬山市楽田大橋2丁目22番地","tel":"0568-68-9807","url":"http://hoshi-zora.com/","lat":35.3788179,"lng":136.9441608,"weekday":"10:00-17:30","saturday":"10:00-16:00","sunday":"","holiday":"10:00-16:00","closed":"週休二日制（日曜、他1日）年末年始、ＧＷ、お盆休み","capacity":10,"id":"2352300095"},{"name":"ほしぞらとよた","nameKana":"ほしぞらとよた","corp":"株式会社ＲＡＩSＥ","serviceTypes":["児童発達支援","放課後等デイサービス"],"ward":"豊田市","address":"愛知県豊田市渋谷町１丁目３番地１吉田店舗","tel":"0565-42-2785","url":"https://ahc.co.jp/","lat":35.0858614,"lng":137.18352549,"weekday":"14:00-18:00","saturday":"10:00-16:00","sunday":"","holiday":"10:00-16:00","closed":"日曜日","capacity":10,"id":"2353400381"},{"name":"ひまわりとよた","nameKana":"ひまわりとよた","corp":"株式会社ＣＯＮＦＥＬ","serviceTypes":["児童発達支援","放課後等デイサービス"],"ward":"豊田市","address":"愛知県豊田市栄町7-5-1　マルベリービル1","tel":"0565-42-5626","url":"http://hoshi-zora.com","lat":35.092735,"lng":137.15592024,"weekday":"15:00-18:00","saturday":"10:00-16:00","sunday":"","holiday":"10:00-16:00","closed":"日曜、１２月３０日から１月３日、その他事業所が定める日","capacity":10,"id":"2353400266"},{"name":"ハービー＆マックローリン・陽だまり介護センタ−","nameKana":"はーびーあんどまっくろーりんひだまりかいごせんたー","corp":"Ｈａｒｖｅｙ＆Ｍａｃｌａｕｒｉｎ　特定非営利活動法人","serviceTypes":["児童発達支援","放課後等デイサービス"],"ward":"蒲郡市","address":"愛知県蒲郡市三谷町諏訪山７６−１１０２","tel":"0533-67-8221","url":"http://www.harvey-and-maclaurin.org/index-j-gama.htm","lat":34.826464,"lng":137.2197572,"weekday":"11:00-17:00","saturday":"11:00-17:00","sunday":"","holiday":"","closed":"日曜","capacity":10,"id":"2355300027"},{"name":"コペルプラス　藤が丘教室","nameKana":"こぺるぷらすふじがおかきょうしつ","corp":"株式会社コぺル","serviceTypes":["児童発達支援"],"ward":"名古屋市","address":"愛知県名古屋市名東区明が丘124番2号ami ami annex5階事務所","tel":"0527994189","url":"https://copelplus.copel.co.jp/school/fujigaoka/","lat":35.18229659,"lng":137.01989254,"weekday":"10:00-18:00","saturday":"10:00-18:00","sunday":"","holiday":"","closed":"日曜、月曜、国民の休日、8月13日から15日、12月30日から翌年1月3日","capacity":10,"id":"2358000442"},{"name":"LITALICOジュニア名駅教室","nameKana":"りたりこじゅにあめいえききょうしつ","corp":"株式会社LITALICOパートナーズ","serviceTypes":["児童発達支援"],"ward":"名古屋市","address":"愛知県名古屋市中村区竹橋町28番地5号シーズンコート名駅西1F","tel":"0524593024","url":"https://junior.litalico.jp/school/aichi/meieki/","lat":35.17694217,"lng":136.86840147,"weekday":"12:00-18:00","saturday":"10:00-17:00","sunday":"10:00-17:00","holiday":"11:00-18:00","closed":"会社休業日（法人が定める日及び 12/29〜1/3）","capacity":10,"id":"2350100414"},{"name":"LITALICOジュニア新瑞橋教室","nameKana":"りたりこじゅにああらたまばしきょうしつ","corp":"株式会社LITALICOパートナーズ","serviceTypes":["児童発達支援"],"ward":"名古屋市","address":"愛知県名古屋市瑞穂区洲山町2丁目32番地の１新瑞の杜ビル　２F","tel":"052-858-1535","url":"https://junior.litalico.jp/school/aichi/aratamabashi/","lat":35.11751937,"lng":136.93757508,"weekday":"12:00-18:00","saturday":"10:00-17:00","sunday":"10:00-17:00","holiday":"12:00-18:00","closed":"会社休業日（法人が定める日及び 12/29〜1/3）","capacity":10,"id":"2351400318"},{"name":"LITALICOジュニア一社教室","nameKana":"りたりこじゅにあいっしゃきょうしつ","corp":"株式会社LITALICOパートナーズ","serviceTypes":["児童発達支援"],"ward":"名古屋市","address":"愛知県名古屋市名東区一社二丁目170番地グランメール一社1階3号室","tel":"052-709-7009","url":"https://junior.litalico.jp/school/aichi/issya/","lat":35.16593702,"lng":136.99611246,"weekday":"12:00-18:00","saturday":"10:00-17:00","sunday":"10:00-17:00","holiday":"12:00-18:00","closed":"なし","capacity":10,"id":"2358000863"},{"name":"LITALICOジュニア平安通教室","nameKana":"りたりこじゅにあへいあんどおりきょうしつ","corp":"株式会社LITALICOパートナーズ","serviceTypes":["児童発達支援"],"ward":"名古屋市","address":"愛知県名古屋市北区平安二丁目１番10号第五水光ビル　502号室","tel":"052-919-5019","url":"https://junior.litalico.jp/school/aichi/lj-6115/","lat":35.19641413,"lng":136.93007516,"weekday":"12:00-18:00","saturday":"10:00-17:00","sunday":"10:00-17:00","holiday":"12:00-18:00","closed":"なし","capacity":10,"id":"2357300538"},{"name":"LITALICOジュニア有松教室","nameKana":"りたりこじゅにあありまつきょうしつ","corp":"株式会社LITALICOパートナーズ","serviceTypes":["児童発達支援"],"ward":"名古屋市","address":"愛知県名古屋市緑区鳴海町字有松裏200番地イオンタウン有松2階","tel":"052-627-6887","url":"https://junior.litalico.jp/school/aichi/lj-6127/","lat":35.06813418,"lng":136.97192761,"weekday":"11:30-17:45","saturday":"10:00-17:00","sunday":"10:00-17:00","holiday":"","closed":"会社休業日（法人が定める日及び 12/29〜1/3）","capacity":10,"id":"2358500862"},{"name":"LITALICOジュニア名古屋伏見教室","nameKana":"りたりこじゅにあなごやふしみきょうしつ","corp":"株式会社LITALICOパートナーズ","serviceTypes":["児童発達支援"],"ward":"名古屋市","address":"愛知県名古屋市中区錦二丁目17番28号CK15伏見ビル４F","tel":"052-218-5393","url":"https://junior.litalico.jp/school/aichi/nagoya-fushimi/","lat":35.16891923,"lng":136.8978322,"weekday":"12:30-18:30","saturday":"10:00-17:00","sunday":"10:00-17:00","holiday":"12:30-18:30","closed":"法人が定める日及び12/29〜1/3","capacity":10,"id":"2356100129"},{"name":"まるにこ刈谷","nameKana":"まるにこかりや","corp":"株式会社ピーライフ","serviceTypes":["児童発達支援","放課後等デイサービス"],"ward":"刈谷市","address":"愛知県刈谷市小垣江町半崎２１番地１","tel":"0566-95-0264","url":"https://marunikokariya.amebaownd.com/","lat":34.97117113,"lng":136.99574634,"weekday":"10:00-13:00","saturday":"10:00-13:00","sunday":"","holiday":"10:00-13:00","closed":"日曜日、５月３日から５日、８月１３日から１５日、１２月３０日から１月４日は除く。","capacity":10,"id":"2353300201"},{"name":"TASUC 豊橋","nameKana":"たすくとよはし","corp":"TASUC株式会社","serviceTypes":["児童発達支援","放課後等デイサービス"],"ward":"豊橋市","address":"愛知県豊橋市花田一番町138豊橋西駅前ビル2階","tel":"0532-43-6535","url":"http://tasuc.com/","lat":34.76315215,"lng":137.3801975,"weekday":"09:00-17:45","saturday":"09:00-17:45","sunday":"","holiday":"09:00-17:45","closed":"日曜日、月曜日","capacity":5,"id":"2355100351"},{"name":"こぱんはうすさくら　名古屋緑教室","nameKana":"こぱんはうすさくらなごやみどりきょうしつ","corp":"株式会社ラ・ヴィータ","serviceTypes":["児童発達支援","放課後等デイサービス"],"ward":"名古屋市","address":"愛知県名古屋市緑区大将ケ根二丁目744番地ZIPTOWN2階2E,2F-1号室","tel":"052-825-5305","url":"","lat":35.0709185,"lng":136.9522593,"weekday":"","saturday":"","sunday":"","holiday":"","closed":"","capacity":null,"id":"2358500508"},{"name":"コペルプラス　豊橋教室","nameKana":"こぺるぷらすとよはしきょうしつ","corp":"合同会社豊橋こどもランド","serviceTypes":["児童発達支援"],"ward":"豊橋市","address":"愛知県豊橋市前田南町一丁目1番地3タワーレジデンスアネックス・1　2階E号室","tel":"0532-43-5381","url":"","lat":34.75865646,"lng":137.39238263,"weekday":"10:00-18:00","saturday":"10:00-18:00","sunday":"","holiday":"","closed":"日曜祝日","capacity":10,"id":"2355101375"},{"name":"こぱんはうすさくら　豊田大林教室","nameKana":"こぱんはうすさくらとよたおおばやしきょうしつ","corp":"株式会社アイシィピー","serviceTypes":["児童発達支援","放課後等デイサービス"],"ward":"豊田市","address":"愛知県豊田市大林町10丁目2番61階","tel":"0565-47-2088","url":"https://copain-sakura.com/news/pkobo_news/upload/135-18.pdf","lat":35.04421142,"lng":137.14003066,"weekday":"10:00-17:00","saturday":"10:00-16:00","sunday":"10:00-16:00","holiday":"10:00-16:00","closed":"","capacity":10,"id":"2353400670"},{"name":"こぱんはうすさくら　豊田西岡教室","nameKana":"こぱんはうすさくらとよたにしおかきょうしつ","corp":"株式会社アイシィピー","serviceTypes":["児童発達支援","放課後等デイサービス"],"ward":"豊田市","address":"愛知県豊田市西岡町保ケ山７０番地１","tel":"0565-42-7337","url":"","lat":35.04625913,"lng":137.06178607,"weekday":"10:00-17:00","saturday":"10:00-17:00","sunday":"","holiday":"10:00-17:00","closed":"","capacity":10,"id":"2353400738"},{"name":"てらぴぁぽけっと  とよた教室","nameKana":"てらぴぁぽけっととよたきょうしつ","corp":"株式会社アイシィピー","serviceTypes":["児童発達支援"],"ward":"豊田市","address":"愛知県豊田市小坂本町１丁目６番８号クレッセントビル１階","tel":"0565-42-8888","url":"https://terapiapocket.com/","lat":35.08823253,"lng":137.15297647,"weekday":"10:00-17:00","saturday":"10:00-17:00","sunday":"10:00-17:00","holiday":"09:00-17:00","closed":"12月30日から1月4日","capacity":10,"id":"2353400779"},{"name":"こぱんはうすさくら　豊田梅坪教室","nameKana":"こぱんはうすさくらとよたうめつぼきょうしつ","corp":"株式会社アイシィピー","serviceTypes":["児童発達支援","放課後等デイサービス"],"ward":"豊田市","address":"愛知県豊田市梅坪町９丁目３番地２","tel":"0565-47-0112","url":"","lat":35.09990397,"lng":137.16115797,"weekday":"10:00-17:00","saturday":"10:00-17:00","sunday":"","holiday":"09:00-17:00","closed":"","capacity":10,"id":"2353400878"},{"name":"てらぴぁぽけっと　みかわとよた教室","nameKana":"てらぴぁぽけっとみかわとよたきょうしつ","corp":"株式会社アイシィピー","serviceTypes":["児童発達支援"],"ward":"豊田市","address":"愛知県豊田市御幸本町１丁目１９２　京屋ビル２階東","tel":"0565-42-8830","url":"https://terapiapocket.com/","lat":35.05410266,"lng":137.14995408,"weekday":"10:00-17:00","saturday":"10:00-17:00","sunday":"","holiday":"10:00-17:00","closed":"日曜日・月曜日・12月30日から1月4日","capacity":10,"id":"2353400886"},{"name":"児童発達支援　わんてむ","nameKana":"じどうはったつしえんわんてむ","corp":"株式会社インビクタス","serviceTypes":["児童発達支援"],"ward":"江南市","address":"愛知県江南市古知野町桃源48番地2F","tel":"0587-50-9306","url":"https://one-tem.com/","lat":35.34133244,"lng":136.86798621,"weekday":"10:00-17:30","saturday":"10:00-17:00","sunday":"","holiday":"","closed":"日曜祝日・8月13日から8月15日まで・12月29日 から1月3日まで","capacity":10,"id":"2352200311"},{"name":"多機能型支援　わんてむ２","nameKana":"たきのうがたしえんわんてむつー","corp":"株式会社インビクタス","serviceTypes":["児童発達支援"],"ward":"江南市","address":"愛知県江南市古知野町久保見１４０番地","tel":"0587-56-0404","url":"https://one-tem.com/","lat":35.33861321,"lng":136.86751412,"weekday":"","saturday":"","sunday":"","holiday":"","closed":"","capacity":null,"id":"2352200311"},{"name":"児童発達支援　わんてむ３","nameKana":"じどうはったつしえんわんてむすりー","corp":"株式会社インビクタス","serviceTypes":["児童発達支援"],"ward":"江南市","address":"愛知県江南市高屋町神戸９９番地","tel":"0587-50-8161","url":"https://one-tem.com/","lat":35.34767368,"lng":136.87850151,"weekday":"10:00-17:30","saturday":"10:00-17:00","sunday":"","holiday":"","closed":"日曜祝日・8月13日から8月15日まで・12月29日 から1月3日まで","capacity":10,"id":"2352200352"},{"name":"児童発達支援わんてむ４","nameKana":"じどうはったつしえんわんてむつー","corp":"株式会社インビクタス","serviceTypes":["児童発達支援"],"ward":"丹羽郡扶桑町","address":"愛知県丹羽郡扶桑町高雄天道２６０","tel":"0587-56-0404","url":"https://one-tem.com/","lat":35.35980446,"lng":136.9125677,"weekday":"10:00-17:30","saturday":"10:00-17:00","sunday":"","holiday":"","closed":"日曜祝日・8月13日から8月15日まで・12月29日 から1月3日まで","capacity":10,"id":"2352200360"},{"name":"のびすくジュニア共和校","nameKana":"のびすくじゅにあきょうわこう","corp":"株式会社ナイスマン","serviceTypes":["児童発達支援","放課後等デイサービス"],"ward":"大府市","address":"愛知県大府市共和町三丁目8番地8マリエ共和２B","tel":"0562-74-2858","url":"https://nobisuku-jr.com/","lat":35.03426675,"lng":136.95403497,"weekday":"10:00-17:30","saturday":"09:30-16:00","sunday":"","holiday":"","closed":"日曜日、年末年始","capacity":10,"id":"2358800288"},{"name":"あいさい児童デイサービス　モッピー","nameKana":"あいさいじどうでいさーびすもっぴー","corp":"有限会社ｉｔｓ","serviceTypes":["児童発達支援","放課後等デイサービス"],"ward":"愛西市","address":"愛知県愛西市大井町弥八１ミワ第三ビル１F１０９号室","tel":"0567-31-7860","url":"https://its-moppie.backdrop.jp","lat":35.13163281,"lng":136.76326689,"weekday":"12:00-18:00","saturday":"11:00-17:00","sunday":"","holiday":"11:00-17:00","closed":"日曜日","capacity":7,"id":"2350700106"},{"name":"S.I.C.KIDSぶんぶんハウス豊明校","nameKana":"えすあいしーきっずぶんぶんはうすとよあけこう","corp":"有限会社　東海特殊観光サービス","serviceTypes":["児童発達支援","放課後等デイサービス"],"ward":"豊明市","address":"愛知県豊明市新田町錦１４番地３","tel":"0562-57-3899","url":"","lat":35.0569463,"lng":137.01669675,"weekday":"","saturday":"","sunday":"","holiday":"","closed":"","capacity":10,"id":"2359000268"},{"name":"アサヒサンクリーンデイサービスセンターチャレンジキッズ上前津東","nameKana":"あさひさんくりーんでいさーびすせんたーちゃれんじきっずかみまえづひがし","corp":"アサヒサンクリーン株式会社","serviceTypes":["児童発達支援","放課後等デイサービス"],"ward":"名古屋市","address":"愛知県名古屋市中区千代田二丁目４番２８号アーバニア上前津東1階","tel":"050-3317-1581","url":"","lat":35.15843253,"lng":136.91118143,"weekday":"11:30-17:30","saturday":"10:00-16:00","sunday":"00:00-00:00","holiday":"10:00-16:00","closed":"12/31〜1/3・日曜日","capacity":10,"id":"2356100012"},{"name":"ヒーローズきっず塩釜口教室","nameKana":"ひーろーずきっずしおがまぐちきょうしつ","corp":"株式会社ヒーローズホールディングス","serviceTypes":["児童発達支援","放課後等デイサービス"],"ward":"名古屋市","address":"愛知県名古屋市天白区塩釜口二丁目1501番地フェイム塩釜口303号室","tel":"052-834-0001","url":"https://heros-hattatsu.com/","lat":35.13183872,"lng":136.97897868,"weekday":"10:15-17:30","saturday":"10:15-17:30","sunday":"","holiday":"","closed":"日曜日、祝日","capacity":10,"id":"2356400487"},{"name":"こどもサポート教室「きらり」一宮校","nameKana":"こどもさぽーときょうしつきらりいちのみやこう","corp":"株式会社クラ・ゼミ","serviceTypes":["児童発達支援","放課後等デイサービス"],"ward":"一宮市","address":"愛知県一宮市北園通4丁目14","tel":"0586-82-2456","url":"https://kirari-kodomo.com/around/around-340/","lat":35.29668779,"lng":136.80640681,"weekday":"10:00-19:00","saturday":"10:00-19:00","sunday":"","holiday":"10:00-19:00","closed":"日曜日、その他年間スケジュールに定める休日","capacity":6,"id":"2352100982"},{"name":"コペルプラス　一宮教室","nameKana":"こぺるぷらすいちのみやきょうしつ","corp":"株式会社クラ・ゼミ","serviceTypes":["児童発達支援"],"ward":"一宮市","address":"愛知県一宮市新生四丁目1番7号","tel":"0586-52-5616","url":"https://copelplus.copel.co.jp/school/aichi/","lat":35.29600425,"lng":136.79703848,"weekday":"10:00-18:00","saturday":"10:00-18:00","sunday":"10:00-18:00","holiday":"","closed":"日曜日、及び8月13日から15日、12月30日から翌年1月3日","capacity":10,"id":"2352101287"},{"name":"こどもサポート教室「きらり」大府校","nameKana":"こどもさぽーときょうしつきらりおおぶこう","corp":"株式会社クラ・ゼミ","serviceTypes":["児童発達支援","放課後等デイサービス"],"ward":"大府市","address":"愛知県大府市中央町六丁目60番地","tel":"0562-48-5333","url":"https://kirari-kodomo.com/around/around-357/","lat":35.01016706,"lng":136.96406203,"weekday":"10:00-19:00","saturday":"09:00-18:00","sunday":"","holiday":"10:00-19:00","closed":"日曜日","capacity":10,"id":"2358800262"},{"name":"てらぴぁぽけっと豊橋柳生橋教室","nameKana":"てらぴぁぽけっととよはしやぎゅうばしきょうしつ","corp":"株式会社東海療育","serviceTypes":["児童発達支援"],"ward":"豊橋市","address":"愛知県豊橋市前田南町一丁目16-2ヴィレッジ杉田1階","tel":"0532-57-2060","url":"https://terapiapocket.com/","lat":34.75583745,"lng":137.3918467,"weekday":"10:00-17:00","saturday":"10:00-17:00","sunday":"","holiday":"","closed":"日曜日","capacity":10,"id":"2355100898"},{"name":"こぱんはうすさくら豊橋多米西教室","nameKana":"こぱんはうすさくらとよはしためにしきょうしつ","corp":"株式会社東海療育","serviceTypes":["児童発達支援","放課後等デイサービス"],"ward":"豊橋市","address":"愛知県豊橋市多米西町3丁目1-15の一部、1-16","tel":"0532-61-5090","url":"https://copain-sakura.com/","lat":34.76222335,"lng":137.43669532,"weekday":"10:00-17:00","saturday":"10:00-16:00","sunday":"10:00-16:00","holiday":"10:00-16:00","closed":"なし","capacity":10,"id":"2355101268"},{"name":"こどもサポート教室「きらり」長久手校","nameKana":"こどもさぽーときょうしつきらりながくてこう","corp":"株式会社クラ・ゼミ","serviceTypes":["児童発達支援","放課後等デイサービス"],"ward":"長久手市","address":"愛知県長久手市氏神前３０４氏神前倉庫付事務所Ｂ１０１号室","tel":"0561-56-8235","url":"https://kurazemi.co.jp/","lat":35.17563698,"lng":137.03937112,"weekday":"","saturday":"","sunday":"","holiday":"","closed":"日曜日","capacity":4,"id":"2358600159"},{"name":"こどもサポート教室「きらり」尾張旭校","nameKana":"こどもさぽーときょうしつきらりおわりあさひこう","corp":"株式会社クラ・ゼミ","serviceTypes":["児童発達支援","放課後等デイサービス"],"ward":"尾張旭市","address":"愛知県尾張旭市東栄町1丁目7番１６　第一松田ビル２階Ａ号室","tel":"0561-52-1226","url":"http://kirari-kodomo.com/","lat":35.21972347,"lng":137.05094123,"weekday":"10:00-19:00","saturday":"10:00-19:00","sunday":"","holiday":"10:00-19:00","closed":"日曜日　GW お盆休み　年末年始","capacity":10,"id":"2357900253"},{"name":"コペルプラス　太田川駅前教室","nameKana":"こぺるぷらすおおたがわえきまえきょうしつ","corp":"株式会社クラ・ゼミ","serviceTypes":["児童発達支援","放課後等デイサービス"],"ward":"東海市","address":"愛知県東海市大田町蟹田３９番地１魚信ビル２階","tel":"0562-57-4952","url":"https://copelplus.copel.co.jp/school/otagawa/","lat":35.0177926,"lng":136.89276697,"weekday":"10:00-18:00","saturday":"10:00-18:00","sunday":"","holiday":"10:00-18:00","closed":"8月13日から8月15日、12月30日から1月3日","capacity":10,"id":"2358700330"},{"name":"コペルプラス　小牧教室","nameKana":"こぺるぷらすこまききょうしつ","corp":"株式会社クラ・ゼミ","serviceTypes":["児童発達支援"],"ward":"小牧市","address":"愛知県小牧市中央２丁目１４９番地ステータスビル２階B号室","tel":"0568-54-2365","url":"https://copelplus.copel.co.jp/school/komaki/","lat":35.28857188,"lng":136.92977481,"weekday":"10:00-18:00","saturday":"10:00-18:00","sunday":"","holiday":"10:00-18:00","closed":"夏季休業（８月１３日〜１５日）、冬季休業（１２月３０日〜１月３日）","capacity":10,"id":"2357700562"},{"name":"コペルプラス　春日井教室","nameKana":"こぺるぷらすかすがいきょうしつ","corp":"株式会社クラ・ゼミ","serviceTypes":["児童発達支援"],"ward":"春日井市","address":"愛知県春日井市浅山町1310番地４８７マルヨシビル２０２号室","tel":"0568-29-4535","url":"","lat":35.25626475,"lng":136.98026107,"weekday":"10:00-18:00","saturday":"10:00-18:00","sunday":"","holiday":"10:00-18:00","closed":"日曜日、8月13日から15日、12月30日から翌年1月3日","capacity":10,"id":"2357501531"},{"name":"こどもサポート教室「きらり」清須校","nameKana":"こどもさぽーときょうしつきらりきよすこう","corp":"株式会社クラ・ゼミ","serviceTypes":["児童発達支援","放課後等デイサービス"],"ward":"清須市","address":"愛知県清須市清洲二丁目１番地８シンメイビル１０５号","tel":"052-325-6637","url":"https://kurazemi.co.jp/","lat":35.2166198,"lng":136.83755104,"weekday":"10:00-19:00","saturday":"09:00-18:00","sunday":"","holiday":"10:00-19:00","closed":"日曜日、その他年間スケジュールに定める休日","capacity":7,"id":"2350600066"},{"name":"こどもサポート教室「きらり」刈谷校","nameKana":"こどもさぽーときょうしつきらりかりやこう","corp":"株式会社クラ・ゼミ","serviceTypes":["児童発達支援","放課後等デイサービス"],"ward":"刈谷市","address":"愛知県刈谷市原崎町2丁目505-1","tel":"050-3533-0297","url":"https://kirari-kodomo.com/around/around-320/","lat":34.99983937,"lng":137.00039286,"weekday":"10:00-19:00","saturday":"10:00-19:00","sunday":"","holiday":"10:00-19:00","closed":"日曜日","capacity":10,"id":"2353300102"},{"name":"こどもサポート教室「きらり」安城校","nameKana":"こどもさぽーときょうしつきらりあんじょうこう","corp":"株式会社クラ・ゼミ","serviceTypes":["児童発達支援","放課後等デイサービス"],"ward":"安城市","address":"愛知県安城市安城市桜町13-25イプシロン桜町W号室","tel":"050-3533-0309","url":"https://kirari-kodomo.com/around/around-319/","lat":34.96104873,"lng":137.07840529,"weekday":"09:30-18:30","saturday":"09:00-18:00","sunday":"","holiday":"09:30-18:30","closed":"日曜日／ＧＷ／夏季／年末年始","capacity":10,"id":"2353500214"},{"name":"こどもサポート教室「きらり」小坂井校","nameKana":"こどもさぽーときょうしつきらりこざかいこう","corp":"株式会社クラ・ゼミ","serviceTypes":["児童発達支援","放課後等デイサービス"],"ward":"豊川市","address":"愛知県豊川市伊奈町縫殿２６番地４０９　ドルメン小坂井２０２号","tel":"0533-95-2244","url":"","lat":34.79833242,"lng":137.35046766,"weekday":"09:30-17:30","saturday":"09:30-17:30","sunday":"","holiday":"09:30-17:30","closed":"ＧＷ、お盆、年末年始等年間スケジュール表に定める日","capacity":10,"id":"2355200292"},{"name":"こどもサポート教室「きらり」桃花台校","nameKana":"こどもさぽーときょうしつきらりとうかだいこう","corp":"株式会社クラ・ゼミ","serviceTypes":["児童発達支援","放課後等デイサービス"],"ward":"小牧市","address":"愛知県小牧市古雅三丁目８４番地","tel":"0568-78-4976","url":"http://kirari@kurazemi.co.jp","lat":35.30513822,"lng":136.97868911,"weekday":"10:00-19:00","saturday":"10:00-19:00","sunday":"","holiday":"10:00-19:00","closed":"日曜日及び、ＧＷ、お盆、年末年始等年間スケジュール表に定める日","capacity":20,"id":"2357700257"},{"name":"こどもサポート教室「きらり」豊明校","nameKana":"こどもさぽーときょうしつきらりとよあけこう","corp":"株式会社クラ・ゼミ","serviceTypes":["児童発達支援","放課後等デイサービス"],"ward":"豊明市","address":"愛知県豊明市新田町錦１番地１　貸店舗Ｅ号室","tel":"0562-38-6686","url":"https://kurazemi.co.jp/","lat":35.05755739,"lng":137.01765498,"weekday":"10:00-19:00","saturday":"09:00-18:00","sunday":"","holiday":"10:00-19:00","closed":"日曜日及びGW、お盆、年末年始等年間スケジュール表に定める日","capacity":10,"id":"2359000102"},{"name":"こどもサポート教室「きらり」東茶屋校","nameKana":"こどもさぽーときょうしつきらりひがしちゃやこう","corp":"株式会社クラ・ゼミ","serviceTypes":["児童発達支援","放課後等デイサービス"],"ward":"名古屋市","address":"愛知県名古屋市港区東茶屋二丁目348番地の2","tel":"052-303-5228","url":"https://kirari-kodomo.com/around/around-326/","lat":35.10629561,"lng":136.83034819,"weekday":"10:00-14:00","saturday":"09:00-18:00","sunday":"","holiday":"10:00-14:00","closed":"日曜日、お盆、年末年始もお休みいたします。","capacity":10,"id":"2351200247"},{"name":"こどもサポート教室「きらり」名東校","nameKana":"こどもさぽーときょうしつきらりめいとうこう","corp":"株式会社クラ・ゼミ","serviceTypes":["児童発達支援","放課後等デイサービス"],"ward":"名古屋市","address":"愛知県名古屋市名東区猪子石二丁目111番地ＬＡＴＯＵＲ店舗2号室","tel":"052-737-8002","url":"https://kirari-kodomo.com/around/around-330/","lat":35.18666772,"lng":137.00164437,"weekday":"10:00-19:00","saturday":"10:00-19:00","sunday":"","holiday":"10:00-19:00","closed":"GW・年末年始は定休日とする。","capacity":10,"id":"2358000350"},{"name":"こどもサポート教室「きらり」名古屋駅前校","nameKana":"こどもさぽーときょうしつきらりなごやえきまえこう","corp":"株式会社クラ・ゼミ","serviceTypes":["児童発達支援","放課後等デイサービス"],"ward":"名古屋市","address":"愛知県名古屋市中村区竹橋町５番１０号オイセタウンビル３階","tel":"052-756-2367","url":"","lat":35.16771601,"lng":136.87833122,"weekday":"10:00-19:00","saturday":"10:00-19:00","sunday":"","holiday":"10:00-19:00","closed":"日曜日、年間スケジュールに定めたGW、お盆、年末年始","capacity":10,"id":"2350100240"},{"name":"コペルプラス神宮前教室","nameKana":"こぺるぷらすじんぐうまえきょうしつ","corp":"株式会社クラ・ゼミ","serviceTypes":["児童発達支援","放課後等デイサービス"],"ward":"名古屋市","address":"愛知県名古屋市熱田区三本松町１７番１号ＡＭＢＥＲ　ＨＯＵＳＥ　Ｊｉｎｇｕ　２階","tel":"0526028912","url":"","lat":35.12615062,"lng":136.91339637,"weekday":"10:00-18:00","saturday":"10:00-18:00","sunday":"","holiday":"","closed":"日曜日、国民の祝日、8月13日から8月15日、12月30日から翌年1月3日まで","capacity":10,"id":"2351100371"},{"name":"コペルプラス上前津教室","nameKana":"こぺるぷらすかみまえづきょうしつ","corp":"株式会社クラ・ゼミ","serviceTypes":["児童発達支援"],"ward":"名古屋市","address":"愛知県名古屋市中区上前津二丁目3番11号長崎屋ビル　2階B号室","tel":"0526847673","url":"https://copelplus.copel.co.jp/school/kamimaezu/","lat":35.15669366,"lng":136.90750124,"weekday":"10:00-18:00","saturday":"10:00-18:00","sunday":"","holiday":"10:00-18:00","closed":"営業日はコペルプラス教室・コペルプラスジュニア教室の年間スケジュール表に準ずる","capacity":10,"id":"2356100319"},{"name":"コペルプラス平安通教室","nameKana":"こぺるぷらすへいあんどおりきょうしつ","corp":"株式会社クラ・ゼミ","serviceTypes":["児童発達支援"],"ward":"名古屋市","address":"愛知県名古屋市北区平安一丁目３番２５号　アスペン上田ビル201","tel":"052-938-6556","url":"https://copelplus.copel.co.jp/school/heiandori/","lat":35.19539758,"lng":136.93012517,"weekday":"10:00-18:00","saturday":"10:00-18:00","sunday":"","holiday":"","closed":"日曜日、月曜日、８月１３日〜１５日、１２月３０日〜１月３日","capacity":10,"id":"2357300546"},{"name":"コペルプラス神沢教室","nameKana":"こぺるぷらすかみさわきょうしつ","corp":"株式会社クラ・ゼミ","serviceTypes":["児童発達支援"],"ward":"名古屋市","address":"愛知県名古屋市緑区神沢三丁目９１１番地の１緑区神沢３丁目店舗","tel":"052-838-9241","url":"https://copelplus.copel.co.jp/","lat":35.09348523,"lng":136.98205977,"weekday":"10:00-18:00","saturday":"10:00-18:00","sunday":"","holiday":"","closed":"日月、８月１３日から８月１５日、１２月３０日から１月３日まで","capacity":10,"id":"2358500680"},{"name":"コペルプラス藤が丘教室","nameKana":"こぺるぷらすふじがおかきょうしつ","corp":"株式会社クラ・ゼミ","serviceTypes":["児童発達支援"],"ward":"名古屋市","address":"愛知県名古屋市名東区明が丘124番2号ami ami annex5階事務室","tel":"052-799-4189","url":"https://copelplus.copel.co.jp/school/fujigaoka/","lat":35.18229381,"lng":137.01991198,"weekday":"10:00-18:00","saturday":"10:00-18:00","sunday":"","holiday":"","closed":"日・月曜日、8月13日〜15日、12月30日〜1月3日","capacity":10,"id":"2358000871"},{"name":"こどもサポート教室「きらり」名古屋校","nameKana":"こどもさぽーときょうしつきらりなごやこう","corp":"株式会社クラ・ゼミ","serviceTypes":["児童発達支援","放課後等デイサービス"],"ward":"名古屋市","address":"愛知県名古屋市西区比良一丁目５７番地","tel":"050-3533-0253","url":"https://kirari-kodomo.com/around/around-322/","lat":35.22573193,"lng":136.89664988,"weekday":"10:00-19:00","saturday":"09:00-18:00","sunday":"","holiday":"10:00-19:00","closed":"日曜","capacity":10,"id":"2350200198"},{"name":"こどもサポート教室「きらり」浄心校","nameKana":"こどもさぽーときょうしつきらりじょうしんこう","corp":"株式会社クラ・ゼミ","serviceTypes":["児童発達支援","放課後等デイサービス"],"ward":"名古屋市","address":"愛知県名古屋市西区浄心二丁目10番6号","tel":"052-528-1575","url":"","lat":35.19265168,"lng":136.8883159,"weekday":"10:00-19:00","saturday":"10:00-19:00","sunday":"","holiday":"10:00-19:00","closed":"日曜日","capacity":10,"id":"2350200289"},{"name":"こどもサポート教室「きらり」名西校","nameKana":"こどもさぽーときょうしつきらりめいせいこう","corp":"株式会社クラ・ゼミ","serviceTypes":["児童発達支援","放課後等デイサービス"],"ward":"名古屋市","address":"愛知県名古屋市西区上小田井1−3−1グリーンパークビル２０１号","tel":"052-325-8387","url":"http://kirari-kodomo.com/","lat":35.21590476,"lng":136.88605418,"weekday":"10:00-19:00","saturday":"10:00-19:00","sunday":"","holiday":"10:00-19:00","closed":"日曜日　","capacity":10,"id":"2350200362"},{"name":"こどもサポート教室「きらり」港第1校","nameKana":"こどもさぽーときょうしつきらりみなとだいいちこう","corp":"株式会社クラ・ゼミ","serviceTypes":["児童発達支援","放課後等デイサービス"],"ward":"名古屋市","address":"愛知県名古屋市港区港楽三丁目13番22号","tel":"052-387-8625","url":"","lat":35.1017697,"lng":136.8840281,"weekday":"09:00-13:00","saturday":"09:00-13:00","sunday":"","holiday":"09:00-13:00","closed":"土・日曜日、ＧＷ、海の日、お盆、年末年始、","capacity":10,"id":"2351200163"},{"name":"こどもサポート教室「きらり」天白校","nameKana":"こどもさぽーときょうしつきらりてんぱくこう","corp":"株式会社クラ・ゼミ","serviceTypes":["児童発達支援","放課後等デイサービス"],"ward":"名古屋市","address":"愛知県名古屋市天白区島田二丁目106番地","tel":"052-838-5878","url":"https://kirari-kodomo.com","lat":35.12196491,"lng":136.97415442,"weekday":"10:00-19:00","saturday":"10:00-19:00","sunday":"","holiday":"10:00-19:00","closed":"日曜","capacity":10,"id":"2356400305"},{"name":"こどもサポート教室「きらり」小幡校","nameKana":"こどもさぽーときょうしつきらりおばたこう","corp":"株式会社クラ・ゼミ","serviceTypes":["児童発達支援","放課後等デイサービス"],"ward":"名古屋市","address":"愛知県名古屋市守山区小幡太田16番22号　ライム・ヴィラ202号","tel":"052-799-9750","url":"http://kirari-kodomo.com/","lat":35.19609381,"lng":136.97754675,"weekday":"10:00-19:00","saturday":"10:00-19:00","sunday":"","holiday":"10:00-19:00","closed":"日","capacity":10,"id":"2357600341"},{"name":"こどもサポート教室「きらり」四軒家校","nameKana":"こどもさぽーときょうしつきらりしけんやこう","corp":"株式会社クラ・ゼミ","serviceTypes":["児童発達支援","放課後等デイサービス"],"ward":"名古屋市","address":"愛知県名古屋市守山区四軒家一丁目1567番地　ラポール長谷川201号室","tel":"052-715-3145","url":"https://kirari-kodomo.com/around/around-327/","lat":35.19346723,"lng":137.01875342,"weekday":"10:00-19:00","saturday":"10:00-19:00","sunday":"","holiday":"10:00-19:00","closed":"日曜日、月曜日、ＧＷ、お盆、年末年始","capacity":10,"id":"2357600374"},{"name":"こどもサポート教室「きらり」豊橋駅前校","nameKana":"こどもさぽーときょうしつきらりとよはしえきまえこう","corp":"株式会社クラ・ゼミ","serviceTypes":["児童発達支援","放課後等デイサービス"],"ward":"豊橋市","address":"愛知県豊橋市駅前大通一丁目80番地","tel":"0532-35-6030","url":"https://kirari-kodomo.com/around/around-315/","lat":34.76247197,"lng":137.384986,"weekday":"09:00-18:00","saturday":"09:00-18:00","sunday":"","holiday":"09:00-18:00","closed":"事業所カレンダーによる","capacity":10,"id":"2355100401"},{"name":"CDK","nameKana":"しーでぃーけー","corp":"株式会社クラ・ゼミ","serviceTypes":["児童発達支援","放課後等デイサービス"],"ward":"豊橋市","address":"愛知県豊橋市多米中町２丁目　6−26","tel":"0532-39-7147","url":"https://kirari-kodomo.com/around/around-313/","lat":34.7613,"lng":137.446598,"weekday":"09:30-13:30","saturday":"09:30-17:30","sunday":"","holiday":"09:30-13:30","closed":"事業所カレンダーによる","capacity":10,"id":"2355100559"},{"name":"こどもサポート教室「きらり」北山校","nameKana":"こどもさぽーときょうしつきらりきたやまこう","corp":"株式会社クラ・ゼミ","serviceTypes":["児童発達支援","放課後等デイサービス"],"ward":"豊橋市","address":"愛知県豊橋市佐藤3丁目2番地1","tel":"050-3533-0248","url":"https://kirari-kodomo.com/","lat":34.74542235,"lng":137.41013413,"weekday":"10:30-18:30","saturday":"09:30-17:30","sunday":"","holiday":"10:30-18:30","closed":"日曜　","capacity":10,"id":"2355100583"},{"name":"こどもサポート教室「きらり」岡崎校","nameKana":"こどもさぽーときょうしつきらりおかざきこう","corp":"株式会社クラ・ゼミ","serviceTypes":["児童発達支援","放課後等デイサービス"],"ward":"岡崎市","address":"愛知県岡崎市稲熊町５丁目７４ー３ヴィヴィビル　１階","tel":"050-3533-0243","url":"https://kurazemi.co.jp/","lat":34.96493051,"lng":137.17612574,"weekday":"10:00-19:00","saturday":"10:00-19:00","sunday":"","holiday":"10:00-19:00","closed":"日曜日及びGW、お盆、年末年始等年間スケジュール表に定める日","capacity":10,"id":"2353100643"},{"name":"こどもサポート教室「きらり」岡崎庄司田校","nameKana":"こどもさぽーときょうしつきらりおかざきしょうじだこう","corp":"株式会社クラ・ゼミ","serviceTypes":["児童発達支援","放課後等デイサービス"],"ward":"岡崎市","address":"愛知県岡崎市庄司田1丁目12番地15庄司田1丁目事務所1階","tel":"0564-53-5856","url":"https://kirari-kodomo.com/around/around-318/","lat":34.92197788,"lng":137.16711989,"weekday":"10:00-19:00","saturday":"10:00-19:00","sunday":"","holiday":"10:00-19:00","closed":"基本的に日曜日　会社の定める年間カレンダーによる","capacity":10,"id":"2353100700"},{"name":"こどもサポート教室「きらり」岡崎羽根校","nameKana":"こどもさぽーときょうしつきらりおかざきはねこう","corp":"株式会社クラ・ゼミ","serviceTypes":["児童発達支援","放課後等デイサービス"],"ward":"岡崎市","address":"愛知県岡崎市羽根町字貴登野32番地１丸五ビル103号室","tel":"0564-53-7655","url":"https://kurazemi.co.jp/","lat":34.95437056,"lng":137.17433173,"weekday":"10:30-18:30","saturday":"10:30-18:30","sunday":"","holiday":"10:30-18:30","closed":"日曜日","capacity":10,"id":"2353101120"},{"name":"こどもサポート教室「きらり」豊田美山校","nameKana":"こどもさぽーときょうしつきらりとよたみやまこう","corp":"株式会社クラ・ゼミ","serviceTypes":["児童発達支援","放課後等デイサービス"],"ward":"豊田市","address":"愛知県豊田市美山町4丁目12-1カーサジオ1-D","tel":"0565-47-5121","url":"https://kurazemi.co.jp/","lat":35.06782186,"lng":137.12063381,"weekday":"10:00-19:00","saturday":"10:00-19:00","sunday":"","holiday":"10:00-19:00","closed":"日曜日、長期休暇（GW、お盆、年末年始)","capacity":6,"id":"2353400464"},{"name":"コペルプラス梅坪教室","nameKana":"こぺるぷらすうめつぼきょうしつ","corp":"株式会社クラ・ゼミ","serviceTypes":["児童発達支援"],"ward":"豊田市","address":"愛知県豊田市東梅坪町八丁目8番地18イーストテラスu　4階","tel":"0565-85-1097","url":"https://copelplus.copel.co.jp/school/umetsubo/","lat":35.10222043,"lng":137.16266875,"weekday":"10:00-18:00","saturday":"10:00-18:00","sunday":"","holiday":"","closed":"コペルプラス教室・コペルプラスジュニア教室の年間スケジュール表に準ずることとする","capacity":10,"id":"2353400860"},{"name":"こどもサポート教室「きらり」豊田校","nameKana":"こどもさぽーときょうしつきらりとよたこう","corp":"株式会社クラ・ゼミ","serviceTypes":["児童発達支援","放課後等デイサービス"],"ward":"豊田市","address":"愛知県豊田市小坂本町6丁目10-1／2F","tel":"050-3533-0247","url":"https://kirari-kodomo.com/roominfo/%e6%84%9b%e7%9f%a5-%e8%b1%8a%e7%94%b0%e6%a0%a1","lat":35.08300233,"lng":137.14912451,"weekday":"10:00-18:00","saturday":"","sunday":"","holiday":"10:00-18:00","closed":"日曜日","capacity":10,"id":"2353400308"},{"name":"こどもサポート教室「きらり」新豊田校","nameKana":"こどもさぽーときょうしつきらりしんとよたこう","corp":"株式会社クラ・ゼミ","serviceTypes":["児童発達支援","放課後等デイサービス"],"ward":"豊田市","address":"愛知県豊田市朝日町３丁目５８番地１　ファミール朝日１０２号","tel":"0565-35-6155","url":"https://kirari-kodomo.com/","lat":35.09290664,"lng":137.14570212,"weekday":"10:00-19:00","saturday":"10:00-19:00","sunday":"","holiday":"10:00-19:00","closed":"日曜日。ＧＷ、お盆、年末年始の期間は休み。","capacity":10,"id":"2353400399"},{"name":"からふる","nameKana":"からふる","corp":"医療法人社団春彩","serviceTypes":["児童発達支援"],"ward":"豊橋市","address":"愛知県豊橋市西幸町字浜池16番2","tel":"0532-26-8000","url":"http://www.harusika.com/jido_colorful/","lat":34.72331055,"lng":137.40358807,"weekday":"09:00-15:00","saturday":"","sunday":"","holiday":"09:00-15:00","closed":"土曜・日曜・法人が定める祝日・夏季休暇・年末年始休暇","capacity":10,"id":"2355101144"},{"name":"発達サポートＹＭＣＡかみさわ","nameKana":"はったつさぽおとわいえむしいえいかみさわ","corp":"名古屋ＹＭＣＡ","serviceTypes":["児童発達支援","放課後等デイサービス"],"ward":"名古屋市","address":"愛知県名古屋市緑区神沢2丁目831番地","tel":"0528796300","url":"https://nagoyaymca.org","lat":35.09405486,"lng":136.98753973,"weekday":"10:30-17:00","saturday":"","sunday":"","holiday":"","closed":"土日、祝日","capacity":10,"id":"2358100317"},{"name":"まなサポ","nameKana":"まなさぽ","corp":"株式会社SmallStepSupport","serviceTypes":["児童発達支援","放課後等デイサービス"],"ward":"名古屋市","address":"愛知県名古屋市千種区観月町二丁目６２番地グリュック覚王山２０２号","tel":"052-753-6739","url":"https://www.manasapo-sss.com/","lat":35.16337544,"lng":136.95503865,"weekday":"12:00-18:00","saturday":"09:30-15:30","sunday":"","holiday":"","closed":"日曜日、祝日、お盆（8月１３日〜８月１5日）、年末年始（12月29日〜１月4日）","capacity":10,"id":"2357100342"},{"name":"まなサポJr.","nameKana":"まなさぽじゅにあ","corp":"株式会社SmallStepSupport","serviceTypes":["児童発達支援","放課後等デイサービス"],"ward":"名古屋市","address":"愛知県名古屋市千種区田代本通4丁目2番地ルネ田代1F","tel":"0527848737","url":"https://www.manasapo-sss.com/","lat":35.16026198,"lng":136.95389162,"weekday":"","saturday":"","sunday":"","holiday":"","closed":"土日祝　、　8月13日〜15日　、　12月29日〜1月5日","capacity":10,"id":"2357100417"},{"name":"児童発達支援・放課後等デイサービスくすのき広場","nameKana":"じどうはったつしえんほうかごとうでいさーびすくすのきひろば","corp":"株式会社Happia","serviceTypes":["児童発達支援","放課後等デイサービス"],"ward":"名古屋市","address":"愛知県名古屋市千種区光が丘二丁目8番22号","tel":"052-887-8752","url":"https://www.kusunokihrb.com","lat":35.18217601,"lng":136.97626693,"weekday":"14:00-18:00","saturday":"10:00-17:00","sunday":"10:00-17:00","holiday":"10:00-17:00","closed":"年末年始","capacity":10,"id":"2357100359"},{"name":"フォレストキッズ千種教室","nameKana":"ふぉれすときっずちくさきょうしつ","corp":"合同会社EverGreen","serviceTypes":["児童発達支援"],"ward":"名古屋市","address":"愛知県名古屋市東区葵三丁目4番4号サミクラウス車道７階","tel":"052-908-4717","url":"https://www.forestkids.info/","lat":35.17317027,"lng":136.92947636,"weekday":"10:00-17:40","saturday":"09:20-17:00","sunday":"09:20-17:00","holiday":"09:20-17:00","closed":"年末年始","capacity":10,"id":"2357200142"},{"name":"児童発達支援まのまの","nameKana":"じどうはったつしえんまのまの","corp":"株式会社ｓｏｒａ","serviceTypes":["児童発達支援","放課後等デイサービス"],"ward":"名古屋市","address":"愛知県名古屋市守山区大森五丁目1112番　1階","tel":"052-798-3800","url":"https://manomano2021.com","lat":35.20752035,"lng":137.00342977,"weekday":"10:00-17:30","saturday":"09:30-16:30","sunday":"","holiday":"","closed":"日曜・祝日","capacity":10,"id":"2357600598"},{"name":"Wing上前津","nameKana":"ういんぐかみまえづ","corp":"スマイルピース株式会社","serviceTypes":["児童発達支援"],"ward":"名古屋市","address":"愛知県名古屋市中区千代田一丁目12番17号サンチヨダ1階","tel":"052-265-8245","url":"http://smil-wing.com","lat":35.15960181,"lng":136.91115917,"weekday":"09:30-17:30","saturday":"09:30-17:30","sunday":"","holiday":"","closed":"日曜・祝日","capacity":10,"id":"2356100210"},{"name":"Wing山王","nameKana":"ういんぐさんのう","corp":"スマイルピース株式会社","serviceTypes":["児童発達支援"],"ward":"名古屋市","address":"愛知県名古屋市中川区西日置一丁目３番８号　西一ビル２階","tel":"0522125902","url":"","lat":35.15725115,"lng":136.89167476,"weekday":"09:30-17:30","saturday":"09:30-17:00","sunday":"","holiday":"","closed":"日曜・祝日・年末年始(12/29〜1/3)","capacity":10,"id":"2351300799"},{"name":"Ｙくまーず未来　春日井","nameKana":"わいくまーずみらいかすがい","corp":"有限会社栄スタジオ","serviceTypes":["児童発達支援","放課後等デイサービス"],"ward":"春日井市","address":"愛知県春日井市白山町１丁目６１−６第１８オーシャンプラザ１階","tel":"0568-27-6255","url":"https://www.ykuma-mirai.com/","lat":35.27291861,"lng":137.03374212,"weekday":"11:30-17:30","saturday":"10:00-16:00","sunday":"00:00-00:00","holiday":"10:00-16:00","closed":"日曜日、お盆、年末年始","capacity":10,"id":"2357501168"},{"name":"Ｙくまーず未来　Ｙベアーズ刈谷","nameKana":"わいくまーずみらいわいべあーずかりや","corp":"有限会社栄スタジオ","serviceTypes":["児童発達支援","放課後等デイサービス"],"ward":"刈谷市","address":"愛知県刈谷市今川町田地池１２６番地１","tel":"0566-26-2655","url":"","lat":35.02935937,"lng":137.01326697,"weekday":"11:00-17:00","saturday":"10:00-16:00","sunday":"10:00-16:00","holiday":"10:00-16:00","closed":"お盆、年末年始、日曜日は不定期","capacity":10,"id":"2353300375"},{"name":"Ｙくまーず未来　春日井ぷち","nameKana":"わいくまーずみらいかすがいぷち","corp":"有限会社栄スタジオ","serviceTypes":["児童発達支援"],"ward":"春日井市","address":"愛知県春日井市白山町１丁目６１−６第１８オーシャンプラザ１Ｆ","tel":"0568-27-6617","url":"http://www.ykuma-mirai.com/","lat":35.27006652,"lng":137.03969705,"weekday":"10:00-17:00","saturday":"10:00-16:00","sunday":"","holiday":"10:00-16:00","closed":"日曜日、お盆、年末年始","capacity":10,"id":"2357501424"},{"name":"ミラカチ・ジョイSPORTS清須校　","nameKana":"みらかちじょいすぽーつきよすこう","corp":"有限会社ミラカチ","serviceTypes":["児童発達支援"],"ward":"清須市","address":"愛知県清須市西枇杷島町古城一丁目６番地１６","tel":"052-982-6205","url":"https://mirakachi.com","lat":35.2062244,"lng":136.86677053,"weekday":"12:45-18:45","saturday":"10:00-16:00","sunday":"10:00-16:00","holiday":"10:00-16:00","closed":"無し","capacity":10,"id":"2350600215"},{"name":"児童発達支援・放課後等デイサービスかのん","nameKana":"じどうはったつしえんほうかごとうでいさーびすかのん","corp":"株式会社カノンラボ","serviceTypes":["児童発達支援","放課後等デイサービス"],"ward":"名古屋市","address":"愛知県名古屋市千種区東山通4丁目21番地の1荘苑東山通り８階","tel":"052-753-8633","url":"https://kanonlabo.co.jp","lat":35.1611454,"lng":136.97030396,"weekday":"","saturday":"","sunday":"","holiday":"","closed":"","capacity":null,"id":"2357100458"},{"name":"きっずサポート えみ","nameKana":"きっずさぽーとえみ","corp":"株式会社 ウェルシアス","serviceTypes":["児童発達支援","放課後等デイサービス"],"ward":"名古屋市","address":"愛知県名古屋市名東区八前二丁目１６０８番地幸和マンション１C","tel":"052-737-8331","url":"https://kids-support-emi.com/","lat":35.17590552,"lng":137.00994387,"weekday":"11:00-17:30","saturday":"10:30-17:00","sunday":"","holiday":"10:30-17:00","closed":"日曜日・お盆・年始年末","capacity":10,"id":"2358000673"},{"name":"ココノハーツ　刈谷小垣江教室","nameKana":"ここのはーつかりやおがきえきょうしつ","corp":"株式会社スターシャル教育研究所","serviceTypes":["児童発達支援","放課後等デイサービス"],"ward":"刈谷市","address":"愛知県刈谷市小垣江町本郷下２３−１６第７タツミﾋﾞﾙ２Ａ・２Ｂ","tel":"0566-27-1201","url":"https://h-navi.jp/support_facility/facilities/162723","lat":34.96682446,"lng":136.99095241,"weekday":"10:00-17:00","saturday":"10:00-16:00","sunday":"10:00-16:00","holiday":"10:00-16:00","closed":"12月29日から1月3日まで","capacity":7,"id":"2353300367"},{"name":"ミラカチ・ジョイ","nameKana":"みらかちじょい","corp":"有限会社ミラカチ","serviceTypes":["児童発達支援"],"ward":"名古屋市","address":"愛知県名古屋市中村区畑江通2丁目15番地板倉屋第2ビル　2階南","tel":"0528903305","url":"https://www.instagram.com/mirakachi.joy/","lat":35.16874907,"lng":136.87301502,"weekday":"09:30-16:30","saturday":"09:30-16:30","sunday":"","holiday":"","closed":"第4.5土曜日、日曜日、祝日、年末年始（12月29日から1月3日）","capacity":10,"id":"2350100448"},{"name":"ココノハーツ名古屋鳴海教室","nameKana":"ここのはーつなごやなるみきょうしつ","corp":"明日にきらめけキッズ株式会社","serviceTypes":["児童発達支援","放課後等デイサービス"],"ward":"名古屋市","address":"愛知県名古屋市緑区潮見が丘二丁目203番地2階","tel":"0528963115","url":"https://h-navi.jp/support_facility/facilities/163420","lat":35.08347933,"lng":136.96105358,"weekday":"10:00-17:00","saturday":"10:00-16:00","sunday":"10:00-16:00","holiday":"10:00-16:00","closed":"12月29日から1月3日までの年末年始","capacity":10,"id":"2358500581"},{"name":"パズル","nameKana":"ぱずる","corp":"特定非営利活動法人名古屋ろう国際センター","serviceTypes":["児童発達支援","放課後等デイサービス"],"ward":"半田市","address":"愛知県半田市新居町１丁目４１番７アーバンハイツ　テナント１B","tel":"0569-47-9210","url":"https://deaf-ic.org/dayservice.html","lat":34.91059741,"lng":136.95715228,"weekday":"10:30-16:30","saturday":"10:30-16:30","sunday":"","holiday":"10:30-16:30","closed":"第１、２、４日曜日、お盆、年末年始","capacity":10,"id":"2358200497"},{"name":"magnet","nameKana":"まぐねっと","corp":"株式会社magnet","serviceTypes":["児童発達支援"],"ward":"名古屋市","address":"愛知県名古屋市千種区池園町2丁目4番地の２プラスパア四ツ谷","tel":"052-715-6270","url":"","lat":35.15953444,"lng":136.96441286,"weekday":"","saturday":"","sunday":"","holiday":"","closed":"","capacity":null,"id":"2357100557"},{"name":"児童発達支援　医療訪問療育みちしるべ","nameKana":"じどうはったつしえんいりょうほうもんりょういくみちしるべ","corp":"株式会社報広社","serviceTypes":["児童発達支援","放課後等デイサービス"],"ward":"安城市","address":"愛知県安城市篠目町四丁目２番地１１","tel":"0566-95-8552","url":"https://www.ykuma-mirai.com/","lat":34.97848209,"lng":137.07399162,"weekday":"11:30-17:30","saturday":"10:00-16:00","sunday":"","holiday":"10:00-16:00","closed":"日曜日、祝日、お盆、年末年始","capacity":10,"id":"2353500719"},{"name":"放課後等ディサービス　ウィズ・ユー千種","nameKana":"ほうかごとうでぃさーびすうぃずゆーちくさ","corp":"合同会社イクスプローラ","serviceTypes":["児童発達支援","放課後等デイサービス"],"ward":"名古屋市","address":"愛知県名古屋市千種区田代本通３丁目１６番地TASHIRO７１　２F　7102号室","tel":"052-784-5157","url":"https://www.with-ac.com/shisetu/chikusa/","lat":35.16099244,"lng":136.95491095,"weekday":"10:00-17:00","saturday":"10:00-17:00","sunday":"","holiday":"10:00-17:00","closed":"日曜日","capacity":10,"id":"2357100581"},{"name":"このき愛西校","nameKana":"このきあいさいこう","corp":"合同会社日野","serviceTypes":["児童発達支援","放課後等デイサービス"],"ward":"愛西市","address":"愛知県愛西市渕高町二ノ割６４−２　","tel":"0567-69-5021","url":"http://www.konoki.net/","lat":35.218162,"lng":136.72788306,"weekday":"12:00-18:00","saturday":"10:00-16:00","sunday":"","holiday":"10:00-16:00","closed":"日曜日","capacity":10,"id":"2350700064"},{"name":"このき尾張旭校","nameKana":"このきおわりあさひこう","corp":"合同会社日野","serviceTypes":["児童発達支援","放課後等デイサービス"],"ward":"尾張旭市","address":"愛知県尾張旭市瀬戸川町２丁目８３番　ドリームイン３５　１A　","tel":"0561-69-2610","url":"http://www.konoki.net/","lat":35.21017214,"lng":137.05618491,"weekday":"12:00-18:00","saturday":"10:00-16:00","sunday":"","holiday":"10:00-16:00","closed":"日曜日","capacity":10,"id":"2358600084"},{"name":"こどもプラス日岡教室","nameKana":"こどもぷらすひおかきょうしつ","corp":"J Wealth 株式会社","serviceTypes":["児童発達支援","放課後等デイサービス"],"ward":"名古屋市","address":"愛知県名古屋市千種区日岡町2丁目55番地","tel":"052-751-5558","url":"http://kp-nagoya.com/","lat":35.15907598,"lng":136.9495754,"weekday":"10:00-16:00","saturday":"10:00-16:00","sunday":"","holiday":"10:00-16:00","closed":"(日)(月)","capacity":15,"id":"2357100227"},{"name":"い〜まＣｒｅａ中川Ⅰ","nameKana":"いーまくれあなかがわいち","corp":"エム・オーヒューマンサービス株式会社","serviceTypes":["児童発達支援","放課後等デイサービス"],"ward":"名古屋市","address":"愛知県名古屋市中川区花池町一丁目３９番地ＭＯＤＳ中川ビル１階","tel":"052-363-8383","url":"http://www.mohs.co.jp/","lat":35.14730702,"lng":136.84805708,"weekday":"10:00-14:00","saturday":"10:00-16:00","sunday":"","holiday":"","closed":"土曜日、日曜日、祝日、お盆、年末年始、あらかじめ定めた職員研修日","capacity":10,"id":"2351300039"},{"name":"子どもの広場今池","nameKana":"こどものひろばいまいけ","corp":"一般社団法人チャレンジ","serviceTypes":["児童発達支援","放課後等デイサービス"],"ward":"名古屋市","address":"愛知県名古屋市千種区内山3-10-22YAMATOビル６階","tel":"052-734-7704","url":"","lat":35.17029057,"lng":136.93606493,"weekday":"10:30-17:45","saturday":"09:30-16:45","sunday":"","holiday":"","closed":"日曜日・国民の祝日","capacity":10,"id":"2357100169"},{"name":"ステラ高畑校","nameKana":"すてらたかばたこう","corp":"株式会社GUTS","serviceTypes":["児童発達支援"],"ward":"名古屋市","address":"愛知県名古屋市中川区高畑三丁目40番地ブラザービル高畑１０１号","tel":"052-364-7602","url":"https://www.stella-edu.com","lat":35.14019935,"lng":136.8513932,"weekday":"11:00-17:00","saturday":"10:00-16:00","sunday":"","holiday":"11:00-17:00","closed":"日曜日","capacity":10,"id":"2351300344"},{"name":"ステラ港校","nameKana":"すてらみなとこう","corp":"株式会社GUTS","serviceTypes":["児童発達支援"],"ward":"名古屋市","address":"愛知県名古屋市港区港栄三丁目1番７号","tel":"0523876768","url":"https://www.stella-edu.com","lat":35.10248348,"lng":136.88338924,"weekday":"11:00-17:00","saturday":"10:00-16:00","sunday":"","holiday":"11:00-17:00","closed":"日曜日","capacity":10,"id":"2351200288"},{"name":"ステラ御器所校","nameKana":"すてらごきそこう","corp":"株式会社GUTS","serviceTypes":["児童発達支援"],"ward":"名古屋市","address":"愛知県名古屋市昭和区東畑町2丁目30番地の1アームス東畑1階","tel":"052-734-3433","url":"","lat":35.15003774,"lng":136.9319329,"weekday":"","saturday":"","sunday":"","holiday":"","closed":"GW、お盆、年末年始","capacity":10,"id":"2356200424"},{"name":"ステラ名駅東校","nameKana":"すてらめいえきひがしこう","corp":"株式会社GUTS","serviceTypes":["児童発達支援"],"ward":"名古屋市","address":"愛知県名古屋市西区名駅二丁目２８番１号ナゴヤフェニックスビル２階","tel":"052-462-1889","url":"https://www.stella-edu.com","lat":35.17526509,"lng":136.88552765,"weekday":"11:00-17:00","saturday":"10:00-16:00","sunday":"","holiday":"11:00-17:00","closed":"日曜日","capacity":10,"id":"2350200347"},{"name":"ステラ新瑞橋校","nameKana":"すてらあわたまばしこう","corp":"株式会社GUTS","serviceTypes":["児童発達支援"],"ward":"名古屋市","address":"愛知県名古屋市瑞穂区瑞穂通8丁目9番地の1　新瑞センタービル5階","tel":"052-842-8400","url":"https://www.stella-edu.com","lat":35.11822755,"lng":136.93625575,"weekday":"11:00-17:00","saturday":"10:00-16:00","sunday":"","holiday":"11:00-17:00","closed":"日曜日","capacity":10,"id":"2351400169"},{"name":"ステラ上飯田校","nameKana":"すてらかみいいだこう","corp":"株式会社GUTS","serviceTypes":["児童発達支援"],"ward":"名古屋市","address":"愛知県名古屋市北区上飯田通1-8-3","tel":"052-325-3280","url":"https://www.stella-edu.com","lat":35.20293004,"lng":136.92938347,"weekday":"11:00-17:00","saturday":"10:00-16:00","sunday":"","holiday":"11:00-17:00","closed":"日曜日","capacity":10,"id":"2357300264"},{"name":"ステラキッズ一社校","nameKana":"すてらきっずいっしゃこう","corp":"株式会社GUTS","serviceTypes":["児童発達支援"],"ward":"名古屋市","address":"愛知県名古屋市名東区高社一丁目８９番地　第２東昭ビル５−Ａ","tel":"052-775-9001","url":"https://www.stella-edu.com","lat":35.16800606,"lng":136.99322101,"weekday":"11:00-17:20","saturday":"10:00-16:00","sunday":"","holiday":"11:00-17:20","closed":"日曜日","capacity":10,"id":"2358000178"},{"name":"ほほえみの街　児童デイサービスチャオ","nameKana":"ほほえみのまちじどうでいさーびすちゃお","corp":"株式会社クレモナ","serviceTypes":["児童発達支援","放課後等デイサービス"],"ward":"名古屋市","address":"愛知県名古屋市西区城西町148番地","tel":"052-508-9361","url":"https://ciao-c.jp/","lat":35.229422,"lng":136.86268931,"weekday":"","saturday":"","sunday":"","holiday":"","closed":"","capacity":null,"id":"2350200263"},{"name":"ほほえみの街　児童デイサービスチャオlargo","nameKana":"ほほえみのまちじどうでいさあびすちゃおらるご","corp":"株式会社クレモナ","serviceTypes":["児童発達支援","放課後等デイサービス"],"ward":"名古屋市","address":"愛知県名古屋市西区城西町１９７番地","tel":"0525069477","url":"","lat":35.22992193,"lng":136.862131,"weekday":"","saturday":"","sunday":"","holiday":"","closed":"","capacity":null,"id":"2350200396"},{"name":"ほほえみの街児童デイサービスチャオAmalfi","nameKana":"ほほえみのまちじどうでいさーびすちゃおあまるふぃ","corp":"株式会社クレモナ","serviceTypes":["児童発達支援","放課後等デイサービス"],"ward":"名古屋市","address":"愛知県名古屋市西区上橋町300番地","tel":"052-508-7751","url":"https://ciao-c.jp/","lat":35.22530294,"lng":136.86214513,"weekday":"","saturday":"","sunday":"","holiday":"","closed":"","capacity":10,"id":"2350200461"},{"name":"Study*Cafe 千種","nameKana":"すたでぃかふぇちくさ","corp":"株式会社スターシャル教育研究所","serviceTypes":["児童発達支援","放課後等デイサービス"],"ward":"名古屋市","address":"愛知県名古屋市千種区吹上二丁目４番２５号　トラフィック吹上５階","tel":"052-745-9088","url":"http://studycafe.jp","lat":35.15937797,"lng":136.92758573,"weekday":"13:00-19:00","saturday":"13:00-19:00","sunday":"","holiday":"","closed":"日曜・祝日","capacity":10,"id":"2356200150"},{"name":"児童デイサービス元気　名東","nameKana":"じどうでいさーびすげんきめいとう","corp":"株式会社ぜによ","serviceTypes":["児童発達支援","放課後等デイサービス"],"ward":"名古屋市","address":"愛知県名古屋市名東区高間町３５番地の１","tel":"052-702-1400","url":"","lat":35.16116821,"lng":136.99470999,"weekday":"","saturday":"","sunday":"","holiday":"","closed":"","capacity":null,"id":"2358000459"},{"name":"児童デイサービス元気","nameKana":"じどうでいさーびすげんき","corp":"株式会社ぜによ","serviceTypes":["児童発達支援"],"ward":"名古屋市","address":"愛知県名古屋市千種区今池南23番20号青柳ハイツ102号","tel":"052-753-4809","url":"","lat":35.16326688,"lng":136.93881797,"weekday":"11:00-17:00","saturday":"11:00-17:00","sunday":"","holiday":"","closed":"日曜　祝日 イベント日を除く土曜日","capacity":null,"id":"2357100086"},{"name":"児童デイサービス元気　今池南","nameKana":"じどうでいさあびすげんきいまいけみなみ","corp":"株式会社ぜによ","serviceTypes":["児童発達支援","放課後等デイサービス"],"ward":"名古屋市","address":"愛知県名古屋市千種区今池南27番12号　レインボー青柳1Ｆ","tel":"052-753-7145","url":"","lat":35.16279752,"lng":136.93916519,"weekday":"","saturday":"","sunday":"","holiday":"","closed":"","capacity":10,"id":"2357100235"},{"name":"SunRise","nameKana":"さんらいず","corp":"株式会社リハピネス","serviceTypes":["児童発達支援","放課後等デイサービス"],"ward":"名古屋市","address":"愛知県名古屋市名東区山の手一丁目601番地コーポ花屋敷201","tel":"052-737-9577","url":"https://rehappiness-rise.com/","lat":35.18530642,"lng":136.98739333,"weekday":"08:30-17:30","saturday":"08:30-16:30","sunday":"","holiday":"08:30-17:30","closed":"土曜、日曜","capacity":10,"id":"2358000608"},{"name":"activeＲise","nameKana":"あくてぃぶらいず","corp":"株式会社リハピネス","serviceTypes":["児童発達支援","放課後等デイサービス"],"ward":"名古屋市","address":"愛知県名古屋市千種区汁谷町136番地養心館ビル2F","tel":"052-737-7550","url":"https://rehappiness-rise.com/activerise_info/","lat":35.18551444,"lng":136.97250051,"weekday":"10:30-17:30","saturday":"09:00-16:00","sunday":"","holiday":"09:00-16:00","closed":"日曜日","capacity":10,"id":"2357100482"},{"name":"Rise","nameKana":"らいず","corp":"株式会社リハピネス","serviceTypes":["児童発達支援","放課後等デイサービス"],"ward":"名古屋市","address":"愛知県名古屋市名東区香流一丁目1113番地フラット香流102号","tel":"052-726-8612","url":"http://rehappiness-rise.com/","lat":35.18649246,"lng":136.99045682,"weekday":"12:30-18:30","saturday":"10:00-16:00","sunday":"","holiday":"10:00-16:00","closed":"日曜、年末年始","capacity":10,"id":"2358000269"},{"name":"学習支援塾/放課後等ディサービス/児童発達支援　ロシAcademy","nameKana":"がくしゅうしえんじゅくほうかごとうでいさーびすじどうはったつしえんろしあかでみー","corp":"合同会社ロシナンテ","serviceTypes":["児童発達支援","放課後等デイサービス"],"ward":"名古屋市","address":"愛知県名古屋市千種区仲田二丁目17番21号　BB池下ビル２F","tel":"052-734-4888","url":"","lat":35.16866326,"lng":136.94204232,"weekday":"14:00-18:00","saturday":"10:30-18:00","sunday":"","holiday":"","closed":"日祝","capacity":10,"id":"2357100623"},{"name":"８ｋｉｄｓ一社南","nameKana":"えいときっずいっしゃみなみ","corp":"合同会社日野","serviceTypes":["児童発達支援","放課後等デイサービス"],"ward":"名古屋市","address":"愛知県名古屋市名東区一社二丁目７８番地エクスクリエ一社２階","tel":"052-753-4030","url":"","lat":35.16762295,"lng":136.99779833,"weekday":"12:30-18:30","saturday":"09:30-16:30","sunday":"09:30-16:30","holiday":"09:30-16:30","closed":"なし","capacity":10,"id":"2358000400"},{"name":"８kids植田","nameKana":"えいときっずうえだ","corp":"合同会社日野","serviceTypes":["児童発達支援","放課後等デイサービス"],"ward":"名古屋市","address":"愛知県名古屋市天白区植田南1-106キャナル1986　1階1号室","tel":"052-890-3100","url":"http://www.konoki.net/","lat":35.12913916,"lng":136.98077025,"weekday":"12:30-18:30","saturday":"09:30-16:30","sunday":"09:30-16:30","holiday":"09:30-16:30","closed":"なし","capacity":10,"id":"2358000293"},{"name":"児童発達支援センターさわらび園","nameKana":"じどうはったつしえんせんたーさわらびえん","corp":"社会福祉法人あさみどりの会","serviceTypes":["児童発達支援"],"ward":"名古屋市","address":"愛知県名古屋市千種区新池町1丁目18番地の2さわらび園","tel":"052-782-2777","url":"http://www.asamidori.net","lat":35.16384232,"lng":136.97545622,"weekday":"09:00-15:00","saturday":"09:00-13:00","sunday":"","holiday":"","closed":"日曜日・祝日","capacity":30,"id":"2357100144"},{"name":"パステル","nameKana":"ぱすてる","corp":"特定非営利活動法人 名古屋ろう国際センター","serviceTypes":["児童発達支援","放課後等デイサービス"],"ward":"名古屋市","address":"愛知県名古屋市千種区若水三丁目10番1号","tel":"0527687333","url":"https://deaf-ic.org/index.html","lat":35.17659554,"lng":136.94757198,"weekday":"10:30-16:30","saturday":"10:30-16:30","sunday":"","holiday":"10:30-16:30","closed":"第２、４、５日曜日、お盆、年末年始","capacity":10,"id":"2357100383"},{"name":"パレット","nameKana":"ぱれっと","corp":"特定非営利活動法人 名古屋ろう国際センター","serviceTypes":["児童発達支援","放課後等デイサービス"],"ward":"名古屋市","address":"愛知県名古屋市千種区振甫町２丁目６４番地１","tel":"052-726-6233","url":"http://deaf-ic.org","lat":35.17411822,"lng":136.95088578,"weekday":"10:30-17:00","saturday":"10:30-16:30","sunday":"","holiday":"10:30-16:30","closed":"日曜日、お盆、年末年始","capacity":10,"id":"2357100300"},{"name":"児童デイサービスネバーランド","nameKana":"じどうでいさーびすねばーらんど","corp":"福祉総合研究所株式会社","serviceTypes":["児童発達支援","放課後等デイサービス"],"ward":"名古屋市","address":"愛知県名古屋市昭和区御器所二丁目１番３号　御器所2丁目パークマンション1階","tel":"052-884-7881","url":"https://fukushi-soken.jp/facility/land.html","lat":35.14981759,"lng":136.92015607,"weekday":"12:00-18:00","saturday":"09:00-17:00","sunday":"09:00-17:00","holiday":"09:00-17:00","closed":"年末年始","capacity":10,"id":"2356200044"},{"name":"児童デイサービスネバーランドイースト","nameKana":"じどうでいさーびすねばーらんどいーすと","corp":"福祉総合研究所株式会社","serviceTypes":["児童発達支援","放課後等デイサービス"],"ward":"名古屋市","address":"愛知県名古屋市東区出来町二丁目２番２０号","tel":"052-932-8164","url":"https://fukushi-soken.jp/facility/east.html","lat":35.18129699,"lng":136.93601404,"weekday":"12:00-18:00","saturday":"09:00-17:00","sunday":"09:00-17:00","holiday":"09:00-17:00","closed":"年中無休(ただし１２月30日から１月４日を除く)","capacity":10,"id":"2357200050"},{"name":"児童デイサービスレスト","nameKana":"じどうでいさーびすれすと","corp":"有限会社越知総合研究所","serviceTypes":["児童発達支援","放課後等デイサービス"],"ward":"名古屋市","address":"愛知県名古屋市千種区井上町３８番地星ヶ丘第一ビル　１F","tel":"052-788-7782","url":"http://restnagoya.web.fc2.com/","lat":35.16185108,"lng":136.98263055,"weekday":"10:00-17:00","saturday":"","sunday":"","holiday":"","closed":"土・日曜日、祝日","capacity":10,"id":"2357100136"},{"name":"放課後等デイサービス　北風と太陽　岡崎百々","nameKana":"ほうかごとうでいさーびすきたかぜとたいようおかざきどうど","corp":"株式会社エフォート","serviceTypes":["児童発達支援","放課後等デイサービス"],"ward":"岡崎市","address":"愛知県岡崎市岡崎市","tel":"0564-79-9400","url":"https://www.kittakun.jp","lat":34.9543705,"lng":137.1743317,"weekday":"13:30-17:30","saturday":"10:30-16:30","sunday":"","holiday":"10:30-16:30","closed":"日曜　年末年始","capacity":7,"id":"2353100825"},{"name":"子ども発達教室　にじのたね","nameKana":"こどもはったつきょうしつにじのたね","corp":"株式会社虹","serviceTypes":["児童発達支援","放課後等デイサービス"],"ward":"北名古屋市","address":"愛知県北名古屋市鹿田東蒲屋敷５７７番地９フェニックスビル１０１号室","tel":"0568-39-6425","url":"https://machino-hokenshitsu.info/nijinotane/","lat":35.2473151,"lng":136.88304447,"weekday":"13:00-19:00","saturday":"10:00-19:00","sunday":"","holiday":"10:00-19:00","closed":"日曜日・月曜日（祝日を含む）","capacity":8,"id":"2350800146"},{"name":"子ども発達教室　にじのたね　ふたば","nameKana":"こどもはったつきょうしつにじのたねふたば","corp":"株式会社虹","serviceTypes":["児童発達支援","放課後等デイサービス"],"ward":"北名古屋市","address":"愛知県北名古屋市熊之庄屋形３３９１番地１","tel":"0568-48-0749","url":"https://machino-hokenshitsu.info/nijinotane/","lat":35.25093422,"lng":136.88693271,"weekday":"13:00-19:00","saturday":"10:00-19:00","sunday":"","holiday":"10:00-19:00","closed":"日曜、月曜","capacity":8,"id":"2350800179"},{"name":"療育室リミー小牧教室","nameKana":"りょういくしつりみーこまききょうしつ","corp":"株式会社フラットヴィレッジ","serviceTypes":["児童発達支援"],"ward":"小牧市","address":"愛知県小牧市小牧二丁目４１番地サンシャイン小牧１階西店舗","tel":"0586-75-2233","url":"https://re-me.jimdosite.com/","lat":35.2878329,"lng":136.92176714,"weekday":"10:00-17:00","saturday":"10:00-16:00","sunday":"","holiday":"10:00-16:00","closed":"日曜日","capacity":2,"id":"2357700406"},{"name":"りらキッズスタディ東片端","nameKana":"りらきっずすたでぃひがしかたは","corp":"株式会社リライズ","serviceTypes":["児童発達支援","放課後等デイサービス"],"ward":"名古屋市","address":"愛知県名古屋市東区東片端町27番地の1第二戸嶋屋ビル1階","tel":"052-526-1575","url":"http://rerise-ngo.com/kids/","lat":35.17885729,"lng":136.91278868,"weekday":"","saturday":"","sunday":"","holiday":"","closed":"日曜日","capacity":10,"id":"2357200233"},{"name":"りらキッズスポーツ東片端","nameKana":"りらきっずすぽーつひがしかたは","corp":"株式会社リライズ","serviceTypes":["児童発達支援","放課後等デイサービス"],"ward":"名古屋市","address":"愛知県名古屋市東区東片端町23番地東片端サンコービル1階","tel":"052-325-7515","url":"http://rerise-ngo.com/kids/","lat":35.17882672,"lng":136.91248594,"weekday":"","saturday":"","sunday":"","holiday":"","closed":"月曜日、日曜日","capacity":10,"id":"2357200225"},{"name":"Ｓ.Ｉ.Ｃ.ＫＩＤＳ尾張旭校","nameKana":"えすあいしーきっずおわりあさひこう","corp":"株式会社ＡＳＫサービス","serviceTypes":["児童発達支援","放課後等デイサービス"],"ward":"尾張旭市","address":"愛知県尾張旭市三郷町陶栄11","tel":"0561-52-1135","url":"https://sic-kids-owariasahi.jp","lat":35.21569924,"lng":137.05633504,"weekday":"12:45-18:45","saturday":"10:00-16:00","sunday":"10:00-16:00","holiday":"10:00-16:00","closed":"なし","capacity":10,"id":"2357900246"},{"name":"キッズエール小牧","nameKana":"きっずえーるこまき","corp":"株式会社ハンズオン","serviceTypes":["児童発達支援","放課後等デイサービス"],"ward":"小牧市","address":"愛知県小牧市新町一丁目１４７番地","tel":"0568-54-8845","url":"","lat":35.29788728,"lng":136.91969463,"weekday":"11:30-17:30","saturday":"10:00-16:00","sunday":"","holiday":"10:00-16:00","closed":"日、GW、お盆、年末年始＊会社が定めた日","capacity":10,"id":"2357700521"},{"name":"キッズエール犬山Ⅰ・Ⅱ","nameKana":"きっずえーるいぬやま","corp":"株式会社ハンズオン","serviceTypes":["児童発達支援","放課後等デイサービス"],"ward":"犬山市","address":"愛知県犬山市大字犬山字南笠屋４番地１","tel":"0568-48-8766","url":"","lat":35.38664011,"lng":136.95478448,"weekday":"11:00-17:00","saturday":"10:00-16:00","sunday":"","holiday":"10:00-16:00","closed":"日曜日、GW、お盆、年末年始","capacity":20,"id":"2352300228"},{"name":"キッズエール刈谷","nameKana":"きっずえーるかりや","corp":"株式会社ハンズオン","serviceTypes":["児童発達支援","放課後等デイサービス"],"ward":"刈谷市","address":"愛知県刈谷市高須町艮６２番地","tel":"0566-95-5870","url":"","lat":34.97700653,"lng":137.01061165,"weekday":"11:30-17:30","saturday":"10:00-16:00","sunday":"","holiday":"10:00-16:00","closed":"日曜日、年末年始、GW、お盆休み","capacity":10,"id":"2353300391"},{"name":"Linkファミリー","nameKana":"りんくふぁみりー","corp":"株式会社Linkコミュニティ","serviceTypes":["児童発達支援"],"ward":"名古屋市","address":"愛知県名古屋市東区葵二丁目1503番地フリービル3階3F号室","tel":"052-935-5957","url":"https://link-community.link/","lat":35.17257855,"lng":136.92685718,"weekday":"11:00-17:00","saturday":"10:00-16:00","sunday":"","holiday":"10:00-16:00","closed":"日曜","capacity":10,"id":"2357200258"},{"name":"多機能型児童デイ　バインド","nameKana":"たきのうがたじどうでいばいんど","corp":"株式会社BIND","serviceTypes":["児童発達支援","放課後等デイサービス"],"ward":"名古屋市","address":"愛知県名古屋市西区栄生一丁目32番25号マルベリー上更101号","tel":"052-446-6470","url":"https://www.1118bind.com","lat":35.1891188,"lng":136.8900352,"weekday":"09:30-17:00","saturday":"","sunday":"","holiday":"09:30-17:00","closed":"土曜、日曜","capacity":7,"id":"2350200552"},{"name":"デイルームてでぃ","nameKana":"でいるーむてでぃ","corp":"株式会社ミクロ","serviceTypes":["児童発達支援","放課後等デイサービス"],"ward":"名古屋市","address":"愛知県名古屋市守山区川上町１２９番地","tel":"052-768-6262","url":"http://www.dayroom-teddy.com/","lat":35.21541332,"lng":136.97402135,"weekday":"13:00-18:00","saturday":"10:00-16:00","sunday":"","holiday":"10:00-16:00","closed":"","capacity":10,"id":"2357600192"},{"name":"やっさん家","nameKana":"やっさんち","corp":"株式会社協明建工","serviceTypes":["児童発達支援","放課後等デイサービス"],"ward":"北名古屋市","address":"愛知県北名古屋市沖村西ノ郷38","tel":"0568-48-0700","url":"http://83chi.com/","lat":35.23810977,"lng":136.85706729,"weekday":"11:30-17:30","saturday":"10:00-16:00","sunday":"","holiday":"","closed":"日曜、祝日、お盆、年末年始、その他事業所の定める日","capacity":10,"id":"2350800120"},{"name":"多機能型児童デイかくれんぼ","nameKana":"たきのうがたじどうでいかくれんぼ","corp":"等生会","serviceTypes":["児童発達支援","放課後等デイサービス"],"ward":"名古屋市","address":"愛知県名古屋市北区金城町4丁目47番地の31F","tel":"052-919-6056","url":"https://touseikai-nagoya.or.jp/","lat":35.20987279,"lng":136.90608573,"weekday":"10:30-17:00","saturday":"10:30-17:00","sunday":"10:30-17:00","holiday":"10:30-17:00","closed":"年末年始（12月29日〜1月3日まで）","capacity":10,"id":"2357300322"},{"name":"児童発達支援（重症心身）ブレーメン西枇杷島","nameKana":"じどうはったつしえんじゅうしょうしんしんぶれーめんにしびわじま","corp":"株式会社オフィスＨＡＰ","serviceTypes":["児童発達支援"],"ward":"清須市","address":"愛知県清須市西枇杷島町地領１丁目１３番１５−Ａ","tel":"052-888-3359","url":"https://www.bremeen.jp/bremen-nishibiwajima","lat":35.20533546,"lng":136.861235,"weekday":"09:00-15:00","saturday":"","sunday":"","holiday":"09:00-15:00","closed":"土曜日・日曜日　１２月３０日〜１月３日は定休日","capacity":5,"id":"2350600132"},{"name":"多機能型事業所重症児デイサービス実のり","nameKana":"たきのうがたじぎょうしょじゅうしょうじでいさーびすみのり","corp":"株式会社実のり","serviceTypes":["児童発達支援","放課後等デイサービス"],"ward":"名古屋市","address":"愛知県名古屋市西区城西二丁目19番30号城西ビル１階","tel":"052-532-6422","url":"https://minori2022.com/","lat":35.18911886,"lng":136.89003523,"weekday":"10:00-16:00","saturday":"10:00-16:00","sunday":"","holiday":"10:00-16:00","closed":"日曜日、12/30〜1/3","capacity":5,"id":"2350200586"},{"name":"多機能型事業所　重症児デイサービス実さき","nameKana":"たきのうがたじぎょうしょじゅうしょうじでいさーびすみさき","corp":"株式会社実のり","serviceTypes":["児童発達支援","放課後等デイサービス"],"ward":"名古屋市","address":"愛知県名古屋市北区柳原二丁目16番11号","tel":"0529145071","url":"https://minori2022.com/","lat":35.19080263,"lng":136.90828871,"weekday":"10:00-16:00","saturday":"10:00-16:00","sunday":"","holiday":"10:00-16:00","closed":"12月30日〜1月3日","capacity":5,"id":"2357300488"},{"name":"放課後等デイサービス　マンマミーヤ","nameKana":"ほうかごとうでいさーびすまんまみーや","corp":"株式会社マンマミーヤ","serviceTypes":["児童発達支援","放課後等デイサービス"],"ward":"刈谷市","address":"愛知県刈谷市司町一丁目２３番地","tel":"0566-93-3700","url":"http://manmamiya822.com/index.html","lat":34.98517696,"lng":136.98754111,"weekday":"11:30-17:45","saturday":"","sunday":"","holiday":"10:30-16:30","closed":"土曜・日曜","capacity":8,"id":"2353300359"},{"name":"放課後等デイサービス　マンマミーヤ天王","nameKana":"ほうかごとうでいさーびすまんまみーやてんのう","corp":"株式会社マンマミーヤ","serviceTypes":["児童発達支援","放課後等デイサービス"],"ward":"刈谷市","address":"愛知県刈谷市天王町１丁目３５番地","tel":"0566-91-9860","url":"","lat":34.9799612,"lng":136.99059654,"weekday":"11:30-17:45","saturday":"","sunday":"","holiday":"10:30-16:30","closed":"土曜・日曜","capacity":8,"id":"2353300425"},{"name":"放課後等デイサービス　Ｌｉｅｂｅ　上条","nameKana":"ほうかごとうでいさーびすりーべじょうじょう","corp":"リノースプラス株式会社","serviceTypes":["児童発達支援"],"ward":"春日井市","address":"愛知県春日井市上条町１０丁目２７６５−１シティ・オークⅢ　A号室","tel":"0568-29-6881","url":"","lat":35.23212425,"lng":136.9810924,"weekday":"12:00-18:00","saturday":"10:00-16:00","sunday":"10:00-16:00","holiday":"10:00-16:00","closed":"第二、第四、第五日曜日、年末年始12月30日〜1月3日","capacity":10,"id":"2357501358"},{"name":"重心児デイサービスohana","nameKana":"じゅしんじでいさーびすおはな","corp":"株式会社ダイトーメディア","serviceTypes":["児童発達支援","放課後等デイサービス"],"ward":"名古屋市","address":"愛知県名古屋市守山区廿軒家11番10号","tel":"0527686829","url":"https://dayservice-ohana.com/","lat":35.19597132,"lng":136.95902886,"weekday":"10:00-16:00","saturday":"","sunday":"","holiday":"10:00-16:00","closed":"土曜日曜","capacity":10,"id":"2357600713"},{"name":"おおぞらハウス","nameKana":"おおぞらはうす","corp":"合同会社Cocoro","serviceTypes":["児童発達支援","放課後等デイサービス"],"ward":"名古屋市","address":"愛知県名古屋市北区西味鋺五丁目804番地の１","tel":"090-7859-6618","url":"","lat":35.21861954,"lng":136.91879806,"weekday":"11:00-18:00","saturday":"10:00-16:00","sunday":"","holiday":"10:00-16:00","closed":"日曜日、年末年始12月３０日から１月３日まで","capacity":10,"id":"2357300504"},{"name":"児童発達支援・放課後等ディサービスそらいろ","nameKana":"じどうはったつしえんほうかごとうでぃさーびすそらいろ","corp":"合同会社Cocoro","serviceTypes":["児童発達支援","放課後等デイサービス"],"ward":"名古屋市","address":"愛知県名古屋市北区中味鋺三丁目434番地+","tel":"090-7859-6618","url":"","lat":35.22204142,"lng":136.92100047,"weekday":"","saturday":"","sunday":"","holiday":"","closed":"","capacity":10,"id":"2357300579"},{"name":"児童発達支援・放課後等デイサービス　ジョイス","nameKana":"じどうはったつしえんほうかごとうでいさーびすじょいす","corp":"株式会社メドグロース","serviceTypes":["児童発達支援","放課後等デイサービス"],"ward":"瀬戸市","address":"愛知県瀬戸市元町三丁目１番地３　２階","tel":"0561-76-1943","url":"https://jois07.com/","lat":35.22490757,"lng":137.09326692,"weekday":"11:15-17:30","saturday":"10:00-16:00","sunday":"","holiday":"","closed":"日曜日・祝日（土曜日が祝日の場合は休み）","capacity":10,"id":"2357400346"},{"name":"あいあいひろば名古屋北","nameKana":"あいあいひろばなごやきた","corp":"ケンソニック合同会社","serviceTypes":["児童発達支援","放課後等デイサービス"],"ward":"名古屋市","address":"愛知県名古屋市北区三軒町246番地アネックスI−１F","tel":"0529095777","url":"","lat":35.19420518,"lng":136.91151883,"weekday":"","saturday":"","sunday":"","holiday":"","closed":"","capacity":10,"id":"2357300439"},{"name":"Liebe おおがま","nameKana":"りーべおおがま","corp":"株式会社VALOC","serviceTypes":["児童発達支援","放課後等デイサービス"],"ward":"名古屋市","address":"愛知県名古屋市北区大我麻町67番地の1第2三鈴ビル2階","tel":"0529829252","url":"https://liebe-ogama.valocliebe.net/","lat":35.23541728,"lng":136.90922321,"weekday":"11:00-17:00","saturday":"09:15-15:15","sunday":"","holiday":"09:15-15:15","closed":"日曜、GW、お盆休み、年末年始など会社の定める定休日による","capacity":10,"id":"2357300462"},{"name":"放課後等デイサービス　ウィズ・ユー黒川","nameKana":"ほうかごとうでいさーびすういずゆーくろかわ","corp":"株式会社三和","serviceTypes":["児童発達支援","放課後等デイサービス"],"ward":"名古屋市","address":"愛知県名古屋市北区黒川本通1丁目22番地の1　橋本ビル１F","tel":"052-508-8615","url":"https://www.with-ac.com/shisetu/kurokawa/","lat":35.19607725,"lng":136.91258256,"weekday":"11:00-17:00","saturday":"10:00-16:00","sunday":"","holiday":"10:00-16:00","closed":"日曜日、８月13日〜15日、１２月29日〜１月5日","capacity":10,"id":"2357300470"},{"name":"児童デイサービスショコラ","nameKana":"じどうでいさーびすしょこら","corp":"株式会社ラヴィン","serviceTypes":["児童発達支援","放課後等デイサービス"],"ward":"名古屋市","address":"愛知県名古屋市北区中切町3丁目80番地の４","tel":"052-938-4546","url":"","lat":35.21542509,"lng":136.90833537,"weekday":"12:00-18:00","saturday":"11:00-17:00","sunday":"","holiday":"11:00-17:00","closed":"日","capacity":10,"id":"2357300389"},{"name":"ここあ","nameKana":"ここあ","corp":"株式会社ラヴィン","serviceTypes":["児童発達支援","放課後等デイサービス"],"ward":"名古屋市","address":"愛知県名古屋市北区西味鋺二丁目１４０番地　１Ｆ","tel":"052-909-5039","url":"https://www.lavin.co.jp","lat":35.22391314,"lng":136.91099034,"weekday":"11:00-17:00","saturday":"11:00-17:00","sunday":"","holiday":"11:00-17:00","closed":"日曜日","capacity":10,"id":"2357300173"},{"name":"のびっこ","nameKana":"のびっこ","corp":"社会福祉法人名北福祉会","serviceTypes":["児童発達支援","放課後等デイサービス"],"ward":"名古屋市","address":"愛知県名古屋市守山区町北5−2","tel":"0527153680","url":"","lat":35.1974875,"lng":136.95314303,"weekday":"","saturday":"","sunday":"","holiday":"","closed":"","capacity":null,"id":"2357600812"},{"name":"のびのびクラブ","nameKana":"のびのびくらぶ","corp":"社会福祉法人名北福祉会","serviceTypes":["児童発達支援","放課後等デイサービス"],"ward":"名古屋市","address":"愛知県名古屋市守山区町北5番21号","tel":"052-791-7011","url":"","lat":35.19756804,"lng":136.95305414,"weekday":"12:00-18:00","saturday":"11:00-17:30","sunday":"11:00-17:30","holiday":"","closed":"","capacity":10,"id":"2357600028"},{"name":"わいわいきっずクラブ","nameKana":"わいわいきっずくらぶ","corp":"ワイスタイル株式会社","serviceTypes":["児童発達支援","放課後等デイサービス"],"ward":"名古屋市","address":"愛知県名古屋市北区辻町5丁目63番地河野第一マンション1階","tel":"0529827687","url":"","lat":35.20792102,"lng":136.9268725,"weekday":"10:00-17:00","saturday":"10:00-16:00","sunday":"10:00-16:00","holiday":"10:00-16:00","closed":"","capacity":10,"id":"2357300454"},{"name":"わいわいハウス","nameKana":"わいわいはうす","corp":"ワイスタイル株式会社","serviceTypes":["児童発達支援","放課後等デイサービス"],"ward":"名古屋市","address":"愛知県名古屋市西区上名古屋1丁目6番9号","tel":"0525085369","url":"","lat":35.19327424,"lng":136.89891192,"weekday":"10:00-17:00","saturday":"10:00-16:00","sunday":"","holiday":"10:00-16:00","closed":"","capacity":10,"id":"2350200651"},{"name":"個別サポート教室わいわいプラス","nameKana":"こべつさぽーときょうしつわいわいぷらす","corp":"ワイスタイル株式会社","serviceTypes":["児童発達支援","放課後等デイサービス"],"ward":"名古屋市","address":"愛知県名古屋市北区楠味鋺５丁目214番地の１GLAMB3楠味鋺B1号室","tel":"090-9914-6555","url":"","lat":35.21717567,"lng":136.93178567,"weekday":"10:00-19:00","saturday":"10:00-19:00","sunday":"","holiday":"","closed":"日","capacity":null,"id":"2357300553"},{"name":"重症児デイサービスmini","nameKana":"じゅうしょうじでいさーびすみに","corp":"特定非営利活動法人まいゆめ","serviceTypes":["児童発達支援"],"ward":"名古屋市","address":"愛知県名古屋市西区上小田井二丁目207番地","tel":"052-606-7227","url":"http://www.myyume.jp/","lat":35.21761257,"lng":136.87682173,"weekday":"","saturday":"","sunday":"","holiday":"","closed":"","capacity":null,"id":"2350200321"},{"name":"児童発達支援・放課後等デイサービスノルト","nameKana":"じどうはったつしえんほうかごとうでいさーびすのると","corp":"株式会社ソリッチ","serviceTypes":["児童発達支援","放課後等デイサービス"],"ward":"名古屋市","address":"愛知県名古屋市中村区稲葉地町7丁目7番地の１NTT稲葉地ビル１階","tel":"052-411-3773","url":"https://nolte-sorich.net/wp/","lat":35.16414369,"lng":136.84478716,"weekday":"09:00-18:00","saturday":"","sunday":"","holiday":"","closed":"土曜日、日曜日、祝日、夏季休暇(お盆）、年末年始","capacity":10,"id":"2350100299"},{"name":"児童発達支援・放課後等デイサービスノルトくさなぎ","nameKana":"じどうはったつしえんほうかごとうでいさーびすのるとくさなぎ","corp":"株式会社ソリッチ","serviceTypes":["児童発達支援","放課後等デイサービス"],"ward":"名古屋市","address":"愛知県名古屋市中村区草薙町3丁目74番地の8　１階","tel":"052-462-8345","url":"https://nolte-sorich.net/wp/","lat":35.17103992,"lng":136.847595,"weekday":"09:00-18:00","saturday":"","sunday":"","holiday":"","closed":"土曜日、日曜日、祝日、夏季休暇(お盆）、年末年始","capacity":10,"id":"2350100349"},{"name":"児童発達支援施設　ざくろの樹","nameKana":"じどうはったつしえんしせつざくろのき","corp":"社会福祉法人　叡徳福祉会","serviceTypes":["児童発達支援"],"ward":"名古屋市","address":"愛知県名古屋市西区上名古屋三丁目18番1６号","tel":"0525284101","url":"http://www.akebonohoikuen.com/zakuronoki/","lat":35.19640698,"lng":136.89298194,"weekday":"","saturday":"","sunday":"","holiday":"","closed":"日曜日、国民の祝日、12月29日〜翌年1月3日","capacity":10,"id":"2350200453"},{"name":"放課後等デイサービス夢中","nameKana":"ほうかごとうでいさーびすむちゅう","corp":"株式会社トライアングル","serviceTypes":["児童発達支援"],"ward":"名古屋市","address":"愛知県名古屋市西区山木一丁目１７３番地","tel":"052-938-8990","url":"https://mutyuu.com","lat":35.22310337,"lng":136.86853066,"weekday":"12:00-18:00","saturday":"11:00-17:00","sunday":"","holiday":"11:00-17:00","closed":"","capacity":10,"id":"2350200602"},{"name":"ママ＆キッズ音楽園おとのわ","nameKana":"ままあんどきっずおんがくえんおとのわ","corp":"株式会社CHCKａ　Ｉｎｃ.","serviceTypes":["児童発達支援"],"ward":"名古屋市","address":"愛知県名古屋市西区歌里町372番地","tel":"052-502-8835","url":"https://cc-nursery.com","lat":35.22144623,"lng":136.89561965,"weekday":"10:00-17:00","saturday":"10:00-16:00","sunday":"10:00-16:00","holiday":"","closed":"祝日　年末年始等","capacity":10,"id":"2350200628"},{"name":"こどもデイサービス　くくあ","nameKana":"こどもでいさーびすくくあ","corp":"一般社団法人　くくあ","serviceTypes":["児童発達支援","放課後等デイサービス"],"ward":"名古屋市","address":"愛知県名古屋市西区比良四丁目295番地檜物ビル","tel":"052-990-3167","url":"","lat":35.23158701,"lng":136.90266012,"weekday":"11:30-17:30","saturday":"10:00-16:00","sunday":"","holiday":"10:00-16:00","closed":"日曜　とお盆と年末年始休み","capacity":10,"id":"2350200636"},{"name":"すくすくランド","nameKana":"すくすくらんど","corp":"学校法人国風学園","serviceTypes":["児童発達支援"],"ward":"名古屋市","address":"愛知県名古屋市西区宝地町378番地","tel":"0525020070","url":"https://kokufu.ed.jp/","lat":35.22330993,"lng":136.89590008,"weekday":"11:30-17:30","saturday":"","sunday":"","holiday":"","closed":"日曜日・祝日・年末年始（12/29〜1/3）","capacity":10,"id":"2350200685"},{"name":"すくすくキッズ","nameKana":"すくすくきっず","corp":"学校法人国風学園","serviceTypes":["児童発達支援"],"ward":"名古屋市","address":"愛知県名古屋市西区宝地町345番地","tel":"0525020070","url":"","lat":35.22302382,"lng":136.89488075,"weekday":"11:30-17:30","saturday":"","sunday":"","holiday":"","closed":"日曜日・祝日・年末年始（12/29〜1/3）","capacity":10,"id":"2350200750"},{"name":"こぱんはうすさくら名古屋西さこう教室","nameKana":"こぱんはうすさくらなごやにしさこうきょうしつ","corp":"株式会社テレゾンクリエート","serviceTypes":["児童発達支援","放課後等デイサービス"],"ward":"名古屋市","address":"愛知県名古屋市西区栄生一丁目7番4号","tel":"0525332225","url":"","lat":35.18426633,"lng":136.87866154,"weekday":"10:00-17:00","saturday":"10:00-16:00","sunday":"","holiday":"10:00-16:00","closed":"日・火","capacity":10,"id":"2350200701"},{"name":"あおい","nameKana":"あおい","corp":"合同会社あおい","serviceTypes":["児童発達支援","放課後等デイサービス"],"ward":"清須市","address":"愛知県清須市阿原池之表４４","tel":"052-408-5077","url":"https://www.aoi-co.jp/","lat":35.21451214,"lng":136.85493532,"weekday":"11:00-17:00","saturday":"10:00-16:00","sunday":"","holiday":"10:00-16:00","closed":"日曜日","capacity":10,"id":"2350600272"},{"name":"キッズステーションアイリスびわじま","nameKana":"きっずすてーしょんあいりすびわじま","corp":"株式会社セイバ","serviceTypes":["児童発達支援","放課後等デイサービス"],"ward":"名古屋市","address":"愛知県名古屋市西区枇杷島五丁目１３番７号びわざとマンション１F","tel":"052-908-0695","url":"http://kids-station-airis.com","lat":35.19455937,"lng":136.87976407,"weekday":"10:00-18:00","saturday":"10:00-18:00","sunday":"","holiday":"","closed":"日曜日、祝日、年末年始","capacity":10,"id":"2350200420"},{"name":"キッズステーション　アイリス大金","nameKana":"きっずすてーしょんあいりすおおがね","corp":"株式会社セイバ","serviceTypes":["児童発達支援","放課後等デイサービス"],"ward":"名古屋市","address":"愛知県名古屋市西区大金町2丁目44番地グランディール大金1F C号室","tel":"0529826612","url":"http://kids-station-airis.comsie","lat":35.18911886,"lng":136.89003523,"weekday":"10:00-18:00","saturday":"10:00-18:00","sunday":"","holiday":"","closed":"日曜、祝日、年末年始","capacity":10,"id":"2350200529"},{"name":"キッズステーション　アイリス","nameKana":"きっずすてーしょんあいりす","corp":"株式会社セイバ","serviceTypes":["児童発達支援","放課後等デイサービス"],"ward":"名古屋市","address":"愛知県名古屋市西区幅下1丁目3番１３号　平野ビル2F","tel":"052-325-4825","url":"http://kids-station-siris.com/","lat":35.18232545,"lng":136.89333781,"weekday":"10:00-18:00","saturday":"10:00-18:00","sunday":"","holiday":"","closed":"日曜、祝日、年末年始","capacity":10,"id":"2350200222"},{"name":"児童デイサービスくうちゃんのリハビリ","nameKana":"じどうでいさーびすくうちゃんのりはびり","corp":"株式会社セントバーナード","serviceTypes":["児童発達支援","放課後等デイサービス"],"ward":"名古屋市","address":"愛知県名古屋市西区上小田井二丁目４１番地","tel":"052-509-1866","url":"https://www.saintbernard121.com/","lat":35.21925138,"lng":136.87881589,"weekday":"09:30-17:30","saturday":"","sunday":"","holiday":"09:30-17:30","closed":"","capacity":10,"id":"2350200404"},{"name":"重症心身障がい児デイサービス　くぅちゃん","nameKana":"じゅうしょうしんしんしょうがいじでいさーびすくぅちゃん","corp":"株式会社セントバーナード","serviceTypes":["児童発達支援","放課後等デイサービス"],"ward":"名古屋市","address":"愛知県名古屋市西区五才美町２８２番地","tel":"0525084950","url":"https://www.saintbernard121.com/","lat":35.221696,"lng":136.88974521,"weekday":"10:00-16:00","saturday":"10:00-16:00","sunday":"","holiday":"09:00-16:00","closed":"毎週日曜日、年末年始","capacity":5,"id":"2350200479"},{"name":"重症心身障がい児デイサービスくぅちゃんのなかま","nameKana":"じゅうしょうしんしんしょうがいじでいさーびすくぅちゃんのなかま","corp":"株式会社セントバーナード","serviceTypes":["児童発達支援","放課後等デイサービス"],"ward":"名古屋市","address":"愛知県名古屋市西区五才美町95番地","tel":"0529082866","url":"https://www.saintbernard121.com/","lat":35.22144594,"lng":136.88713715,"weekday":"10:30-16:30","saturday":"10:30-16:30","sunday":"","holiday":"10:30-16:30","closed":"日曜日、年末年始","capacity":7,"id":"2350200503"},{"name":"児童デイサービス　くぅちゃんのともだち","nameKana":"じどうでいさーびすくぅちゃんのともだち","corp":"株式会社セントバーナード","serviceTypes":["児童発達支援","放課後等デイサービス"],"ward":"名古屋市","address":"愛知県名古屋市千種区菊坂町1丁目10番地東和覚王山ヒルズ1階","tel":"0527845626","url":"","lat":35.16648595,"lng":136.94643373,"weekday":"09:30-17:30","saturday":"09:30-17:30","sunday":"","holiday":"09:30-17:30","closed":"日曜日、年末年始","capacity":10,"id":"2357100391"},{"name":"児童デイサービス　くぅちゃん","nameKana":"じどうでいさーびすくぅちゃん","corp":"株式会社セントバーナード","serviceTypes":["児童発達支援","放課後等デイサービス"],"ward":"名古屋市","address":"愛知県名古屋市西区赤城町１３番地の１","tel":"052-325-8588","url":"","lat":35.2220404,"lng":136.88935078,"weekday":"10:00-16:00","saturday":"10:00-16:00","sunday":"","holiday":"10:00-16:00","closed":"毎週日曜日、年末年始","capacity":5,"id":"2350200230"},{"name":"児童デイサービス　くぅちゃんのおうち","nameKana":"じどうでいさーびすくぅちゃんのおうち","corp":"株式会社セントバーナード","serviceTypes":["児童発達支援","放課後等デイサービス"],"ward":"名古屋市","address":"愛知県名古屋市西区八筋町132番地の2","tel":"052-509-1075","url":"https://www.saintbernard121.com/","lat":35.22200687,"lng":136.88365968,"weekday":"09:30-17:30","saturday":"09:30-17:30","sunday":"","holiday":"09:30-17:30","closed":"毎週日曜日、年末年始","capacity":10,"id":"2350200297"},{"name":"児童デイサービスサンゴ","nameKana":"じどうでいさーびすさんご","corp":"株式会社ハートシップ","serviceTypes":["児童発達支援","放課後等デイサービス"],"ward":"名古屋市","address":"愛知県名古屋市西区上名古屋3丁目11番12号","tel":"052-325-3303","url":"","lat":35.19541267,"lng":136.89355135,"weekday":"10:00-17:30","saturday":"10:00-17:00","sunday":"00:00-00:00","holiday":"10:00-17:00","closed":"日曜日・祝日・12月29日から1月3日まで","capacity":10,"id":"2350200446"},{"name":"児童デイサービスイルカ","nameKana":"じどうでいさーびすいるか","corp":"株式会社ハートシップ","serviceTypes":["児童発達支援","放課後等デイサービス"],"ward":"名古屋市","address":"愛知県名古屋市西区城西四丁目１１番１８号セイコウビル１階","tel":"052-982-6305","url":"https://www.kaigo-heart-ship.com","lat":35.19071882,"lng":136.89416806,"weekday":"10:00-17:30","saturday":"10:00-17:00","sunday":"00:00-00:00","holiday":"10:00-17:00","closed":"日曜日・ＧＷ・12月30日から1月3日まで","capacity":10,"id":"2350200115"},{"name":"こども発達サポートえくぼ","nameKana":"こどもはったつさぽーとえくぼ","corp":"合資会社ウェルフェア綜合開発","serviceTypes":["児童発達支援","放課後等デイサービス"],"ward":"名古屋市","address":"愛知県名古屋市西区浄心１丁目８番３４号","tel":"052-875-5712","url":"https://758pwc.com","lat":35.19635132,"lng":136.89029335,"weekday":"10:00-17:00","saturday":"10:00-17:00","sunday":"","holiday":"10:00-17:00","closed":"","capacity":10,"id":"2357300082"},{"name":"こども発達サポートえくぼ上飯田教室","nameKana":"こどもはったつさぽーとえくぼかみいいだきょうしつ","corp":"合資会社ウェルフェア綜合開発","serviceTypes":["児童発達支援"],"ward":"名古屋市","address":"愛知県名古屋市北区上飯田南町5-20レグノアレッタ107","tel":"052-908-9011","url":"https://758pwc.com","lat":35.19840577,"lng":136.93437471,"weekday":"10:00-17:00","saturday":"10:00-17:00","sunday":"","holiday":"","closed":"日曜日","capacity":10,"id":"2357600259"},{"name":"発達サポート　わんすてっぷ","nameKana":"はったつさぽーとわんすてっぷ","corp":"合資会社ベイシック","serviceTypes":["児童発達支援","放課後等デイサービス"],"ward":"名古屋市","address":"愛知県名古屋市西区比良一丁目１３６番地の１アサイビル１Ｆ","tel":"052-505-3540","url":"","lat":35.22529318,"lng":136.8995663,"weekday":"11:00-17:00","saturday":"11:00-17:00","sunday":"","holiday":"11:00-17:00","closed":"日曜日、12月30日〜1月3日、及び事業所の都合による休業の場合を除く。","capacity":10,"id":"2350200248"},{"name":"発達サポート　ループ","nameKana":"はったつさぽーとるーぷ","corp":"合資会社ベイシック","serviceTypes":["児童発達支援","放課後等デイサービス"],"ward":"名古屋市","address":"愛知県名古屋市西区あし原町305番地ハイツ歎美１階","tel":"052-325-2928","url":"","lat":35.18911886,"lng":136.89003523,"weekday":"11:00-17:00","saturday":"11:00-17:00","sunday":"","holiday":"11:00-17:00","closed":"日曜日","capacity":7,"id":"2357600176"},{"name":"キッズ・パレット","nameKana":"きっずてんぱれっと","corp":"山田指定居宅介護支援有限会社","serviceTypes":["児童発達支援","放課後等デイサービス"],"ward":"名古屋市","address":"愛知県名古屋市西区上小田井二丁目148番地","tel":"052-982-7363","url":"","lat":35.21691546,"lng":136.87824384,"weekday":"14:30-17:30","saturday":"10:00-16:00","sunday":"","holiday":"","closed":"日曜日、祝日、12/29〜1/3","capacity":10,"id":"2350200560"},{"name":"北部地域療育センターよつば","nameKana":"ほくぶちいきりょういくせんたーよつば","corp":"社会福祉法人よつ葉の会","serviceTypes":["児童発達支援"],"ward":"名古屋市","address":"愛知県名古屋市西区新福寺町2丁目6番地の5","tel":"052-522-5277","url":"https://yotsuba-kai.jp/pages/507/","lat":35.20697497,"lng":136.88422144,"weekday":"09:00-15:00","saturday":"","sunday":"","holiday":"","closed":"月曜日から金曜日までとする。ただし、国民の祝日、１２月２９日から１月３日は休み","capacity":42,"id":"2350200610"},{"name":"子育て応援ひまわりサポートPlus","nameKana":"こそだておうえんひまわりさぽーとぷらす","corp":"株式会社ひまわり","serviceTypes":["児童発達支援","放課後等デイサービス"],"ward":"名古屋市","address":"愛知県名古屋市中村区本陣通五丁目107番地","tel":"052-990-7131","url":"https://www.childcaresupport-himawari.jp/","lat":35.17750016,"lng":136.85398607,"weekday":"12:30-18:30","saturday":"10:00-16:00","sunday":"10:00-16:00","holiday":"10:00-16:00","closed":"なし","capacity":10,"id":"2350100265"},{"name":"子育て応援　ひまわりサポート","nameKana":"こそだておうえんひまわりさぽーと","corp":"株式会社ひまわり","serviceTypes":["児童発達支援","放課後等デイサービス"],"ward":"名古屋市","address":"愛知県名古屋市中村区本陣通五丁目104番地イジマビル3階","tel":"052-990-8188","url":"https://www.childcaresupport-himawari.jp","lat":35.17751959,"lng":136.85378886,"weekday":"12:30-18:30","saturday":"10:00-16:00","sunday":"10:00-16:00","holiday":"10:00-16:00","closed":"なし","capacity":10,"id":"2350100224"},{"name":"子育て応援ひまわりサポートMax","nameKana":"こそだておうえんひまわりさぽーとまっくす","corp":"株式会社ひまわり","serviceTypes":["児童発達支援","放課後等デイサービス"],"ward":"名古屋市","address":"愛知県名古屋市名東区社が丘三丁目905番地","tel":"052-888-9184","url":"https://www.childcaresupport-himawari.jp","lat":35.16740965,"lng":137.01663518,"weekday":"","saturday":"","sunday":"","holiday":"","closed":"","capacity":null,"id":"2358000749"},{"name":"COCOきらめき","nameKana":"ここきらめき","corp":"株式会社COCOドリーム","serviceTypes":["児童発達支援","放課後等デイサービス"],"ward":"名古屋市","address":"愛知県名古屋市中村区宿跡町一丁目124番地Cfbldg 2F","tel":"0528703509","url":"","lat":35.17695847,"lng":136.84747275,"weekday":"12:00-18:00","saturday":"10:00-16:00","sunday":"","holiday":"10:00-16:00","closed":"日曜日・年末年始・その他会社指定日","capacity":5,"id":"2350100257"},{"name":"北風と太陽春日井","nameKana":"きたかぜとたいようかすがい","corp":"株式会社輝真","serviceTypes":["児童発達支援","放課後等デイサービス"],"ward":"春日井市","address":"愛知県春日井市味美白山町二丁目１１番地１４Ｕコーポ白山１Ｆ東号室","tel":"0568-90-8787","url":"https://www.kittakun.jp/kasugai","lat":35.2331845,"lng":136.9338988,"weekday":"14:00-17:30","saturday":"10:00-16:00","sunday":"","holiday":"10:00-16:00","closed":"","capacity":10,"id":"2357501028"},{"name":"北風と太陽　豊山","nameKana":"きたかぜとたいようとよやま","corp":"株式会社輝真","serviceTypes":["児童発達支援","放課後等デイサービス"],"ward":"西春日井郡豊山町","address":"愛知県西春日井郡豊山町大字豊場字若宮９６","tel":"0568-90-1313","url":"https://www.kittakun.jp/toyoyama","lat":35.2456438,"lng":136.92050238,"weekday":"","saturday":"","sunday":"","holiday":"","closed":"","capacity":null,"id":"2350400053"},{"name":"北風と太陽　小牧","nameKana":"きたかぜとたいようこまき","corp":"株式会社輝真","serviceTypes":["児童発達支援","放課後等デイサービス"],"ward":"小牧市","address":"愛知県小牧市久保一色南２丁目８９番地","tel":"0568-90-6611","url":"https://www.kittakun.jp/%E8%A4%87%E8%A3%BD-%E5%8C%97%E9%A2%A8%E3%81%A8%E5%A4%AA%E9%99%BD-%E5%B2%A1%E5%B4%8E","lat":35.31756619,"lng":136.93712279,"weekday":"","saturday":"","sunday":"","holiday":"","closed":"","capacity":null,"id":"2357700497"},{"name":"ユリシス・キッズ","nameKana":"ゆりしすきっず","corp":"ユリシス合同会社","serviceTypes":["児童発達支援","放課後等デイサービス"],"ward":"名古屋市","address":"愛知県名古屋市中村区烏森町4丁目61番地","tel":"052-526-7158","url":"","lat":35.15588937,"lng":136.85768064,"weekday":"12:00-18:00","saturday":"","sunday":"10:00-16:00","holiday":"10:00-16:00","closed":"土曜日","capacity":10,"id":"2350100364"},{"name":"ユリシス・キッズTakabata","nameKana":"ゆりしすきっずたかばた","corp":"ユリシス合同会社","serviceTypes":["児童発達支援","放課後等デイサービス"],"ward":"名古屋市","address":"愛知県名古屋市中川区荒子四丁目317番地","tel":"052-398-5188","url":"","lat":35.135147,"lng":136.85413474,"weekday":"","saturday":"","sunday":"","holiday":"","closed":"","capacity":null,"id":"2351300682"},{"name":"ユリシス・キッズHaruta","nameKana":"ゆりしすきっずはるた","corp":"ユリシス合同会社","serviceTypes":["児童発達支援","放課後等デイサービス"],"ward":"名古屋市","address":"愛知県名古屋市中川区春田三丁目４５番地の１","tel":"052-665-6278","url":"","lat":35.14304085,"lng":136.81445288,"weekday":"12:00-18:00","saturday":"10:00-16:00","sunday":"","holiday":"10:00-16:00","closed":"日曜日","capacity":10,"id":"2351300807"},{"name":"てらぴぁぽけっと名古屋名城公園教室","nameKana":"てらぴぁぽけっとなごやめいじょうこうえんきょうしつ","corp":"株式会社GROW","serviceTypes":["児童発達支援"],"ward":"名古屋市","address":"愛知県名古屋市西区城西五丁目21番15号","tel":"052-531-0030","url":"https://h-navi.jp/support_facility/facilities/160691","lat":35.19228543,"lng":136.89755931,"weekday":"10:00-17:00","saturday":"10:00-17:00","sunday":"","holiday":"10:00-17:00","closed":"日曜日・年末年始","capacity":10,"id":"2350200578"},{"name":"フォレストキッズ熱田教室","nameKana":"ふぉれすときっずあつたきょうしつ","corp":"株式会社常勝","serviceTypes":["児童発達支援"],"ward":"名古屋市","address":"愛知県名古屋市熱田区木之免町301番地4エクセレント山房１階西","tel":"052-253-7133","url":"https://forestkids.info/atsuta/","lat":35.12294776,"lng":136.90431116,"weekday":"12:00-18:00","saturday":"10:00-16:00","sunday":"","holiday":"10:00-16:00","closed":"日曜日","capacity":10,"id":"2351100322"},{"name":"Koco","nameKana":"ここ","corp":"株式会社ユニバース","serviceTypes":["児童発達支援","放課後等デイサービス"],"ward":"名古屋市","address":"愛知県名古屋市中村区中島町1丁目16番地セントラルアイル1階","tel":"0523556319","url":"","lat":35.17199301,"lng":136.87208173,"weekday":"09:00-18:00","saturday":"09:00-18:00","sunday":"","holiday":"09:00-18:00","closed":"日・月曜日","capacity":10,"id":"2350100489"},{"name":"児童発達支援放課後等デイサービスぽっぽ","nameKana":"じどうはったしえんほうかごとうでいさーびすぽっぽ","corp":"株式会社カーキ","serviceTypes":["児童発達支援","放課後等デイサービス"],"ward":"名古屋市","address":"愛知県名古屋市西区枇杷島三丁目19番21号‐3","tel":"0528887080","url":"https://b-poppo.com/","lat":35.19190942,"lng":136.87322874,"weekday":"10:00-17:00","saturday":"10:00-17:00","sunday":"","holiday":"","closed":"日曜日・祝日・年末年始（12月29日〜1月3日）","capacity":10,"id":"2350200644"},{"name":"ＣＯＣＯにこ","nameKana":"ここにこ","corp":"株式会社ＣＯＣＯドリーム","serviceTypes":["児童発達支援","放課後等デイサービス"],"ward":"名古屋市","address":"愛知県名古屋市中村区稲西町１１２番地","tel":"052-890-4928","url":"http://www.coco-kirameki.com/","lat":35.16582668,"lng":136.83700733,"weekday":"10:00-18:00","saturday":"10:00-16:00","sunday":"","holiday":"10:00-16:00","closed":"日曜日・年末年始・その他会社指定日","capacity":5,"id":"2350100547"},{"name":"アートキッズ療育名古屋丸の内","nameKana":"あーときっずりょういくなごやまるのうち","corp":"株式会社ヴィーナスソリューション","serviceTypes":["児童発達支援"],"ward":"名古屋市","address":"愛知県名古屋市中区丸の内一丁目12番25号フジキンビル７F","tel":"0523857975","url":"http://www.v-sol.jp","lat":35.17393499,"lng":136.89329358,"weekday":"10:00-18:00","saturday":"10:00-18:00","sunday":"","holiday":"10:00-18:00","closed":"日曜日、月曜日","capacity":10,"id":"2356100301"},{"name":"ハピネス中村校","nameKana":"はぴねすなかむらこう","corp":"株式会社ハピネス","serviceTypes":["児童発達支援","放課後等デイサービス"],"ward":"名古屋市","address":"愛知県名古屋市中村区宿跡町一丁目124番地Cfbldg 1F","tel":"0528801508","url":"http://www.happiness-aichi.com","lat":35.17695847,"lng":136.84747275,"weekday":"11:30-17:30","saturday":"09:30-15:30","sunday":"","holiday":"09:30-15:30","closed":"日・年末年始・その他会社指定日","capacity":5,"id":"2350100521"},{"name":"てくてくぷらすかにえ","nameKana":"てくてくぷらすかにえ","corp":"株式会社中央商事","serviceTypes":["児童発達支援"],"ward":"海部郡蟹江町","address":"愛知県海部郡蟹江町平安二丁目８１番地","tel":"0567-69-9010","url":"http://tekuteku-plus.com","lat":35.13694609,"lng":136.77976755,"weekday":"12:00-18:00","saturday":"10:00-16:00","sunday":"10:00-16:00","holiday":"10:00-16:00","closed":"日曜","capacity":10,"id":"2350500399"},{"name":"にじのひかり教室森田校","nameKana":"にじのひかりきょうしつもりたこう","corp":"一般社団法人にじのひかり教室","serviceTypes":["児童発達支援","放課後等デイサービス"],"ward":"名古屋市","address":"愛知県名古屋市中村区森田町三丁目6番6号","tel":"052-471-0028","url":"https://www.nizinohikari.net","lat":35.17821402,"lng":136.85936893,"weekday":"13:00-19:00","saturday":"10:00-16:00","sunday":"10:00-16:00","holiday":"10:00-16:00","closed":"","capacity":10,"id":"2350100315"},{"name":"にじのひかり教室十王校","nameKana":"にじのひかりきょうしつじゅうおうこう","corp":"一般社団法人にじのひかり教室","serviceTypes":["児童発達支援","放課後等デイサービス"],"ward":"名古屋市","address":"愛知県名古屋市中村区十王町12番2号グリーズ本陣１Ｃ号室","tel":"052-482-5085","url":"https://www.nijino-hikari.com","lat":35.17991114,"lng":136.86777095,"weekday":"13:00-19:00","saturday":"10:00-16:00","sunday":"10:00-16:00","holiday":"10:00-16:00","closed":"","capacity":10,"id":"2350100158"},{"name":"まっくびーカレッジ太閤通校","nameKana":"まっくびーかれっじたいこうどおりこう","corp":"株式会社マックビーヒル就労支援機構","serviceTypes":["児童発達支援","放課後等デイサービス"],"ward":"名古屋市","address":"愛知県名古屋市中村区太閤通５丁目１９番地の３本社ビル1階","tel":"052-461-3900","url":"http://macbh.jp","lat":35.1680796,"lng":136.86711557,"weekday":"12:00-17:00","saturday":"10:00-17:00","sunday":"","holiday":"10:00-17:00","closed":"日曜、祝日の内月曜と金曜、GW、お盆、年末年始","capacity":10,"id":"2350100182"},{"name":"児童デイサービスさんご","nameKana":"じどうでいさーびすさんご","corp":"有限会社のぞみ","serviceTypes":["児童発達支援","放課後等デイサービス"],"ward":"名古屋市","address":"愛知県名古屋市中村区剣町146番地","tel":"0524854209","url":"","lat":35.15987211,"lng":136.84657603,"weekday":"12:00-18:00","saturday":"10:00-16:00","sunday":"","holiday":"10:00-16:00","closed":"日曜日","capacity":10,"id":"2350100513"},{"name":"らもーれこども教室","nameKana":"らもーれこどもきょうしつ","corp":"株式会社キート","serviceTypes":["児童発達支援","放課後等デイサービス"],"ward":"名古屋市","address":"愛知県名古屋市守山区森宮町１７３番地","tel":"052-715-5034","url":"https://www.lamore-kyoushitsu.com/","lat":35.2033206,"lng":136.9763133,"weekday":"11:00-17:00","saturday":"11:00-17:00","sunday":"","holiday":"11:00-17:00","closed":"日曜　年末年始","capacity":10,"id":"2357600572"},{"name":"らもーれこども教室　元八事","nameKana":"らもーれこどもきょうしつもとやごと","corp":"株式会社キート","serviceTypes":["児童発達支援","放課後等デイサービス"],"ward":"名古屋市","address":"愛知県名古屋市瑞穂区茨木町90番地","tel":"052-835-7239","url":"","lat":35.12378088,"lng":136.95935592,"weekday":"","saturday":"","sunday":"","holiday":"","closed":"","capacity":null,"id":"2351400334"},{"name":"らもーれこども教室　徳重","nameKana":"らもーれこどもきょうしつとくしげ","corp":"株式会社キート","serviceTypes":["児童発達支援","放課後等デイサービス"],"ward":"名古屋市","address":"愛知県名古屋市緑区乗鞍3丁目１４３番地１","tel":"052-846-7472","url":"","lat":35.09006108,"lng":136.99294483,"weekday":"","saturday":"","sunday":"","holiday":"","closed":"","capacity":null,"id":"2358500722"},{"name":"児童発達支援glee尾張旭教室","nameKana":"じどうはったつしえんぐりーおわりあさひきょうしつ","corp":"株式会社　ケアベルデ","serviceTypes":["児童発達支援"],"ward":"尾張旭市","address":"愛知県尾張旭市北本地ケ原町４丁目２９番地","tel":"0561-56-1500","url":"https://cv-glee.com/","lat":35.19905339,"lng":137.04123964,"weekday":"09:30-16:30","saturday":"09:30-16:30","sunday":"","holiday":"09:30-16:30","closed":"日曜日、月曜日","capacity":10,"id":"2357900204"},{"name":"あぽろキッズ","nameKana":"あぽろきっず","corp":"株式会社あぽろ","serviceTypes":["児童発達支援"],"ward":"名古屋市","address":"愛知県名古屋市西区児玉2-25児玉2丁目貸店舗","tel":"0528872075","url":"https://apollokids.co.jp/","lat":35.19665944,"lng":136.88589106,"weekday":"","saturday":"","sunday":"","holiday":"","closed":"","capacity":null,"id":"2350200511"},{"name":"あぽろキッズ上名古屋","nameKana":"あぽろきっずかみなごや","corp":"株式会社あぽろ","serviceTypes":["児童発達支援","放課後等デイサービス"],"ward":"名古屋市","address":"愛知県名古屋市西区上名古屋四丁目17番23号キャッスルビレッジ２階","tel":"052-855-2559","url":"","lat":35.19689601,"lng":136.89765362,"weekday":"","saturday":"","sunday":"","holiday":"","closed":"日曜日、年末年始","capacity":10,"id":"2350200594"},{"name":"キッズサポート","nameKana":"きっずさぽーと","corp":"株式会社TRYサポート","serviceTypes":["児童発達支援","放課後等デイサービス"],"ward":"名古屋市","address":"愛知県名古屋市中川区澄池町21番22号サクラテラス201","tel":"052-335-9928","url":"https://kids-nagoya.jp/","lat":35.1414353,"lng":136.8550288,"weekday":"12:00-18:00","saturday":"10:00-16:00","sunday":"","holiday":"10:00-16:00","closed":"日曜日、年末年始","capacity":10,"id":"2351300534"},{"name":"キッズサポートてんぱく","nameKana":"きっずさぽーとてんぱく","corp":"株式会社TRYサポート","serviceTypes":["児童発達支援"],"ward":"名古屋市","address":"愛知県名古屋市天白区土原五丁目426番地","tel":"052-846-3181","url":"","lat":35.11284421,"lng":136.98409526,"weekday":"12:00-18:00","saturday":"10:00-16:00","sunday":"","holiday":"10:00-16:00","closed":"日曜日、年末年始","capacity":10,"id":"2356400560"},{"name":"キッズサポートみずほ","nameKana":"きっずさぽーとみずほ","corp":"株式会社TRYサポート","serviceTypes":["児童発達支援","放課後等デイサービス"],"ward":"名古屋市","address":"愛知県名古屋市瑞穂区堀田通3丁目13番地アベニュービル2Ｆ号室","tel":"0523559928","url":"","lat":35.13210857,"lng":136.91955952,"weekday":"12:00-18:00","saturday":"10:00-16:00","sunday":"","holiday":"10:00-16:00","closed":"日曜日、年末年始","capacity":10,"id":"2351400342"},{"name":"てらぴぁぽけっと名古屋今池教室","nameKana":"てらぴぁぽけっとなごやいまいけきょうしつ","corp":"特定非営利活動法人中日法律支援協会","serviceTypes":["児童発達支援","放課後等デイサービス"],"ward":"名古屋市","address":"愛知県名古屋市千種区今池4-4-1玉置ビル2階","tel":"052-439-6198","url":"","lat":35.17063787,"lng":136.9401368,"weekday":"10:00-17:00","saturday":"10:00-17:00","sunday":"","holiday":"10:00-17:00","closed":"日曜日","capacity":10,"id":"2357100433"},{"name":"児童発達支援glee八事教室","nameKana":"じどうはったつしえんぐりーやごときょうしつ","corp":"株式会社ケアベルデ","serviceTypes":["児童発達支援"],"ward":"名古屋市","address":"愛知県名古屋市昭和区広路町字石坂３０番地３プリンスビル２階","tel":"052-838-7558","url":"https://cv-glee.com","lat":35.13746529,"lng":136.9630301,"weekday":"09:30-16:30","saturday":"09:30-16:30","sunday":"09:30-16:30","holiday":"09:30-16:30","closed":"月曜日","capacity":10,"id":"2356200523"},{"name":"サムエル　チルドレンズ　ガーデン","nameKana":"さむえるちるどれんずがーでん","corp":"株式会社グローバルベース","serviceTypes":["児童発達支援","放課後等デイサービス"],"ward":"名古屋市","address":"愛知県名古屋市中川区吉津1丁目605番地の1","tel":"052-746-9938","url":"https://samuel-cg.org/","lat":35.1562557,"lng":136.82429237,"weekday":"11:00-17:00","saturday":"11:00-17:00","sunday":"","holiday":"11:00-17:00","closed":"日曜日　年末年始（12/29〜1/3）　","capacity":10,"id":"2351300674"},{"name":"サムエルガーデンⅡNAKAGAWA","nameKana":"さむえるがーでんつーなかがわ","corp":"株式会社グローバルベース","serviceTypes":["児童発達支援"],"ward":"名古屋市","address":"愛知県名古屋市中川区昭和橋通６丁目１５番地","tel":"052-746-9938","url":"","lat":35.12389787,"lng":136.85675975,"weekday":"","saturday":"","sunday":"","holiday":"","closed":"","capacity":null,"id":"2351300815"},{"name":"サムエルガーデンⅢ　NAKAMURA","nameKana":"さむえるがーでんすりーなかむら","corp":"株式会社グローバルベース","serviceTypes":["児童発達支援","放課後等デイサービス"],"ward":"名古屋市","address":"愛知県名古屋市中村区荒輪井町１丁目１４番地の１２","tel":"052-746-9938","url":"https://samuel-cg.org/","lat":35.16563508,"lng":136.84051809,"weekday":"12:00-18:00","saturday":"","sunday":"","holiday":"10:00-16:00","closed":"日曜日","capacity":10,"id":"2350100554"},{"name":"サムエルガーデンⅣ　ＭＩＮＡＴＯ","nameKana":"さむえるがーでんふぁいぶみなと","corp":"株式会社グローバルベース","serviceTypes":["児童発達支援","放課後等デイサービス"],"ward":"名古屋市","address":"愛知県名古屋市港区七番町1丁目1番地の12階","tel":"052-746-9938","url":"https://samuel-cg.org/","lat":35.11807264,"lng":136.88892378,"weekday":"","saturday":"","sunday":"","holiday":"","closed":"","capacity":null,"id":"2351200460"},{"name":"児童発達支援　オレンジキッズ","nameKana":"じどうはったつしえんおれんじきっず","corp":"株式会社ファズム","serviceTypes":["児童発達支援"],"ward":"名古屋市","address":"愛知県名古屋市熱田区一番一丁目20番34号エスポアN棟１F","tel":"052-990-2890","url":"https://www.orangekids.jp/","lat":35.12536932,"lng":136.89763381,"weekday":"","saturday":"","sunday":"","holiday":"","closed":"","capacity":null,"id":"2351100330"},{"name":"児童発達支援・放課後等デイサービス　あびーちた","nameKana":"じどうはったつしえんほうかごとうでいさーびすあびーちた","corp":"Sevendots合同会社","serviceTypes":["児童発達支援"],"ward":"知多市","address":"愛知県知多市新知台二丁目９番地の２１","tel":"0562-57-7257","url":"https://www.abbeychita.com/","lat":34.98200391,"lng":136.86748858,"weekday":"","saturday":"","sunday":"","holiday":"","closed":"","capacity":null,"id":"2358900187"},{"name":"チャイルドウイッシュ三崎","nameKana":"ちゃいるどういっしゅみさき","corp":"合同会社ジー・アイ","serviceTypes":["児童発達支援","放課後等デイサービス"],"ward":"豊明市","address":"愛知県豊明市三崎町高鴨7番地１セブンワンビル１B","tel":"0562-85-6680","url":"","lat":35.05294072,"lng":137.00772815,"weekday":"12:00-18:00","saturday":"10:00-16:00","sunday":"","holiday":"10:00-18:00","closed":"日曜日","capacity":10,"id":"2359000235"},{"name":"ブロッサムジュニア　長久手藤が丘教室","nameKana":"ぶろっさむじゅにあながくてふじがおかきょうしつ","corp":"株式会社アイムファイン","serviceTypes":["児童発達支援","放課後等デイサービス"],"ward":"長久手市","address":"愛知県長久手市作田一丁目９０５番地１階　１０４","tel":"0561-64-5123","url":"","lat":35.17581715,"lng":137.02767247,"weekday":"","saturday":"","sunday":"","holiday":"","closed":"","capacity":null,"id":"2358600225"},{"name":"キッズエール安城","nameKana":"きっずえーるあんじょう","corp":"株式会社デイライト","serviceTypes":["児童発達支援","放課後等デイサービス"],"ward":"安城市","address":"愛知県安城市三河安城町二丁目２８番地２７ビレッジ２FーA","tel":"0566-93-8895","url":"","lat":34.97152732,"lng":137.06323993,"weekday":"","saturday":"","sunday":"","holiday":"","closed":"","capacity":null,"id":"2353500677"},{"name":"みらいベース名古屋高畑駅前","nameKana":"みらいべーすなごやたかばたえきまえ","corp":"株式会社B’ｓサービス","serviceTypes":["児童発達支援"],"ward":"名古屋市","address":"愛知県名古屋市中川区高畑二丁目１５１番地プラザ高畑２階南号室","tel":"052-304-8306","url":"https://mirai-base.com/","lat":35.13979935,"lng":136.85372902,"weekday":"14:15-17:15","saturday":"","sunday":"","holiday":"","closed":"土日祝日・お盆休み・年末年始休み","capacity":10,"id":"2351300831"},{"name":"ラフィン","nameKana":"らふぃん","corp":"Gemz株式会社","serviceTypes":["児童発達支援","放課後等デイサービス"],"ward":"名古屋市","address":"愛知県名古屋市西区大金町3丁目22番1号レジデンスT・L大金1階","tel":"0525238077","url":"https://laughing-kids.com/","lat":35.20444479,"lng":136.88746563,"weekday":"","saturday":"","sunday":"","holiday":"","closed":"","capacity":null,"id":"2350200735"},{"name":"ラウレア　ａｍａ","nameKana":"らうれああま","corp":"株式会社ラウレア","serviceTypes":["児童発達支援","放課後等デイサービス"],"ward":"あま市","address":"愛知県あま市下萱津坪井１７番地","tel":"052-526-3397","url":"https://laulea-aas.com","lat":35.18289915,"lng":136.83917069,"weekday":"12:00-18:00","saturday":"10:00-16:00","sunday":"","holiday":"10:00-16:00","closed":"日曜日、年末年始（30日〜3日）","capacity":10,"id":"2350500597"},{"name":"からふるふれんず楠","nameKana":"からふるふれんずくすのき","corp":"日本ライフケアソリューションズ株式会社","serviceTypes":["児童発達支援","放課後等デイサービス"],"ward":"名古屋市","address":"愛知県名古屋市北区大我麻町161番地エステート楠1階東","tel":"052-903-7791","url":"http://colorfulgarden.jp","lat":35.1942052,"lng":136.9115188,"weekday":"12:30-17:00","saturday":"10:00-16:00","sunday":"","holiday":"10:00-16:00","closed":"日曜日、各月最初の祝日、年末年始（12月29日から1月3日）","capacity":10,"id":"2357300397"},{"name":"からふるふれんず如意","nameKana":"からふるふれんずにょい","corp":"日本ライフケアソリューションズ株式会社","serviceTypes":["児童発達支援","放課後等デイサービス"],"ward":"名古屋市","address":"愛知県名古屋市北区桐畑町185番地FLEX北7番館１F","tel":"052-902-0588","url":"https://colorfulgarden.jp/","lat":35.1942052,"lng":136.9115188,"weekday":"11:00-17:00","saturday":"10:00-16:00","sunday":"","holiday":"10:00-16:00","closed":"日曜日、各月最初の祝日、年末年始（12月29日から1月3日）","capacity":10,"id":"2357300405"},{"name":"こども発達支援　リ・ハビリ　はつね","nameKana":"こどもはったつしえんりはびりはつね","corp":"株式会社ジェネラス","serviceTypes":["児童発達支援","放課後等デイサービス","居宅訪問型児童発達支援"],"ward":"清須市","address":"愛知県清須市阿原神門９５番地１","tel":"052-401-7281","url":"","lat":35.21018484,"lng":136.85635756,"weekday":"08:30-17:30","saturday":"","sunday":"","holiday":"","closed":"土曜日、日曜日、祝日、12月30日〜１月４日","capacity":10,"id":"2350600082"},{"name":"アフタースクールＰＦＳ","nameKana":"あふたーすくーるぴーえふえす","corp":"一般社団法人愛知ＰＦＳ協会","serviceTypes":["児童発達支援","放課後等デイサービス"],"ward":"名古屋市","address":"愛知県名古屋市中区大須一丁目２１番３５号","tel":"052-228-0281","url":"https://aichi-pfs.org/%e4%ba%8b%e6%a5%ad%e6%a1%88%e5%86%85/%e3%82%a2%e3%83%95%e3%82%bf%e3%83%bc%e3%82%b9%e3%82%af%e3%83%bc%e3%83%ab%ef%bd%90%ef%bd%86%ef%bd%93/","lat":35.16044265,"lng":136.89761027,"weekday":"10:00-16:00","saturday":"","sunday":"","holiday":"","closed":"土、日、祝日、お盆休み、年末年始","capacity":10,"id":"2356100053"},{"name":"児童デイサービスぽけっと瑞穂店","nameKana":"じどうでいさあびすぽけっとみずほてん","corp":"一般社団法人全日本福祉協会","serviceTypes":["児童発達支援","放課後等デイサービス"],"ward":"名古屋市","address":"愛知県名古屋市瑞穂区弥富通三丁目54番地ハートイン弥富通2B","tel":"052-838-8927","url":"","lat":35.11756721,"lng":136.94754625,"weekday":"10:00-17:30","saturday":"10:00-17:30","sunday":"00:00-00:00","holiday":"10:00-17:30","closed":"12月29日〜1月3日","capacity":10,"id":"2351400219"},{"name":"児童デイサービスぽけっと　熱田店","nameKana":"じどうでいさーびすぽけっとあつたてん","corp":"一般社団法人全日本福祉協会","serviceTypes":["児童発達支援","放課後等デイサービス"],"ward":"名古屋市","address":"愛知県名古屋市熱田区一番二丁目３番１８号一番町ハウスS棟A号","tel":"052-364-6085","url":"","lat":35.12186988,"lng":136.89948662,"weekday":"10:00-17:30","saturday":"10:00-17:30","sunday":"10:00-17:30","holiday":"10:00-17:30","closed":"日曜日（年末年始のみ休業）","capacity":10,"id":"2351100280"},{"name":"児童デイサービス　ぽけっと","nameKana":"じどう","corp":"一般社団法人全日本福祉協会","serviceTypes":["児童発達支援","放課後等デイサービス"],"ward":"名古屋市","address":"愛知県名古屋市中区金山五丁目18番29号１階","tel":"052-889-7811","url":"http://zennihonfukushi.com/","lat":35.14336229,"lng":136.91142642,"weekday":"10:00-17:30","saturday":"10:00-17:30","sunday":"10:00-17:30","holiday":"10:00-17:30","closed":"日曜日（年末年始のみ休業）","capacity":10,"id":"2356100087"},{"name":"児童デイサービス　ぱれっと","nameKana":"じどう","corp":"株式会社ＳＵＲＭ","serviceTypes":["児童発達支援","放課後等デイサービス"],"ward":"名古屋市","address":"愛知県名古屋市中区金山五丁目１８番２９号２階金山五丁目１８番２９号２階","tel":"052-627-0100","url":"","lat":35.14336229,"lng":136.91142642,"weekday":"10:00-17:30","saturday":"10:00-17:30","sunday":"00:00-00:00","holiday":"10:00-17:30","closed":"日曜日、年末年始","capacity":10,"id":"2356100103"},{"name":"KーY’s  Style 鶴舞校","nameKana":"けいわいずすたいるつるまいこう","corp":"株式会社丸進工業","serviceTypes":["児童発達支援","放課後等デイサービス"],"ward":"名古屋市","address":"愛知県名古屋市昭和区鶴舞三丁目16番33号","tel":"052-753-8112","url":"http://kysstle.com/","lat":35.15124795,"lng":136.91992549,"weekday":"11:00-18:00","saturday":"10:00-16:00","sunday":"","holiday":"","closed":"日曜・祝日・年末年始","capacity":10,"id":"2356200374"},{"name":"KｰY’s Style東別院校","nameKana":"けいわいずすたいるひがしべついんこう","corp":"株式会社丸進工業","serviceTypes":["児童発達支援","放課後等デイサービス"],"ward":"名古屋市","address":"愛知県名古屋市中区富士見町11番1号","tel":"052-228-2120","url":"","lat":35.15217745,"lng":136.90501549,"weekday":"11:00-18:30","saturday":"10:00-16:00","sunday":"","holiday":"","closed":"","capacity":10,"id":"2356100228"},{"name":"K-Ys Style","nameKana":"けいわいずすたいる","corp":"株式会社丸進工業","serviceTypes":["児童発達支援","放課後等デイサービス"],"ward":"名古屋市","address":"愛知県名古屋市中区大須１丁目９番３４号２階京屋ビル201","tel":"052-265-5183","url":"http://kysstyle.com/","lat":35.16107864,"lng":136.89671866,"weekday":"11:00-18:00","saturday":"10:00-16:00","sunday":"","holiday":"","closed":"日曜日・祝日","capacity":10,"id":"2356100137"},{"name":"リオフレンド","nameKana":"りおふれんど","corp":"特定非営利活動法人エコスマイル研究所","serviceTypes":["児童発達支援","放課後等デイサービス"],"ward":"名古屋市","address":"愛知県名古屋市中区平和一丁目15番27号","tel":"0522117245","url":"https://ecosmile.or.jp/friend/","lat":35.14846674,"lng":136.90372128,"weekday":"11:30-18:00","saturday":"10:30-17:00","sunday":"","holiday":"","closed":"日曜　祝日","capacity":10,"id":"2356100285"},{"name":"リオカラフル・クラス","nameKana":"りおからふるくらす","corp":"特定非営利活動法人シンプルライフスタイル研究所","serviceTypes":["児童発達支援","放課後等デイサービス"],"ward":"名古屋市","address":"愛知県名古屋市中区平和一丁目１番20号東別院３番出口ビル７階","tel":"052-339-3939","url":"http://simple.or.jp/","lat":35.14961384,"lng":136.903999,"weekday":"11:30-18:00","saturday":"10:30-17:00","sunday":"","holiday":"","closed":"日曜　祝日","capacity":10,"id":"2356100152"},{"name":"リオカラフル","nameKana":"りおからふる","corp":"特定非営利活動法人シンプルライフスタイル研究所","serviceTypes":["児童発達支援","放課後等デイサービス"],"ward":"名古屋市","address":"愛知県名古屋市中区平和一丁目15番27号","tel":"052-211-7245","url":"https://simple.or.jp","lat":35.1484612,"lng":136.90372129,"weekday":"11:30-18:00","saturday":"10:30-17:00","sunday":"","holiday":"","closed":"日曜 祝日","capacity":10,"id":"2356100251"},{"name":"つばさ吃音相談室　久屋","nameKana":"つばさきつおんそうだんしつひさや","corp":"特定非営利活動法人つばさ吃音相談室","serviceTypes":["児童発達支援"],"ward":"名古屋市","address":"愛知県名古屋市東区泉一丁目22番29号　ストーク久屋ビル5階","tel":"052-228-2990","url":"http://tsubasa-kitsuon.com","lat":35.17428011,"lng":136.910603,"weekday":"10:30-19:00","saturday":"09:00-17:00","sunday":"09:00-17:00","holiday":"10:30-19:00","closed":"年末年始、その他当事業所が定める日","capacity":10,"id":"2357200191"},{"name":"つばさ吃音相談室","nameKana":"つばさきつおんそうだんしつ","corp":"特定非営利活動法人つばさ吃音相談室","serviceTypes":["児童発達支援","放課後等デイサービス"],"ward":"名古屋市","address":"愛知県名古屋市中区栄３丁目３２番２４号コジマテントビル５階","tel":"052-414-6920","url":"http://tsubasa-kitsuon.com","lat":35.16278451,"lng":136.9078232,"weekday":"10:30-19:00","saturday":"09:00-17:00","sunday":"09:00-17:00","holiday":"10:30-19:00","closed":"年末年始、その他当事業所が定める日","capacity":10,"id":"2350100117"},{"name":"名古屋市中央療育センター（みどり学園）","nameKana":"なごやしちゅうおうりょういくせんたーみどりがくえん","corp":"名古屋市","serviceTypes":["児童発達支援"],"ward":"名古屋市","address":"愛知県名古屋市昭和区折戸町４丁目１６番地","tel":"052-757-6131","url":"","lat":35.15510703,"lng":136.94574534,"weekday":"10:00-15:00","saturday":"","sunday":"","holiday":"","closed":"土日、祝日","capacity":30,"id":"2356200093"},{"name":"こども発達支援　リ・ハビリ初音","nameKana":"こどもはったつしえんりはびりはつね","corp":"株式会社ジェネラス","serviceTypes":["児童発達支援","放課後等デイサービス"],"ward":"大府市","address":"愛知県大府市森岡町二丁目386番地","tel":"0562-48-6371","url":"http://www.generous.co.jp/hatsune.php","lat":35.00578368,"lng":136.94412802,"weekday":"12:30-18:00","saturday":"","sunday":"","holiday":"12:30-18:00","closed":"土、日、一部祝日","capacity":5,"id":"2358800023"},{"name":"Ｙくまーず未来　三河安城","nameKana":"わいくまーずみらいみかわあんじょう","corp":"株式会社 Ystyle","serviceTypes":["児童発達支援","放課後等デイサービス"],"ward":"安城市","address":"愛知県安城市三河安城東町１−１−１５デイリーヤマザキ安城箕輪店２F","tel":"0566-91-2172","url":"https://www.ykuma-mirai.com/","lat":34.96627258,"lng":137.06543978,"weekday":"11:30-17:30","saturday":"10:00-16:00","sunday":"00:00-00:00","holiday":"10:00-16:00","closed":"日曜日、夏季休暇（１３〜１６）、冬季休暇（３０〜３）","capacity":10,"id":"2353500453"},{"name":"Ｙくまーず未来　刈谷","nameKana":"わいくまーずみらいかりや","corp":"株式会社 Ystyle","serviceTypes":["児童発達支援","放課後等デイサービス"],"ward":"刈谷市","address":"愛知県刈谷市中手町二丁目５１２番地　　　　　　","tel":"0566-91-9920","url":"https://www.ykuma-mirai.com/","lat":35.0041524,"lng":136.99250443,"weekday":"11:30-17:30","saturday":"10:00-16:00","sunday":"00:00-00:00","holiday":"10:00-18:00","closed":"日曜日、夏季休暇（１３〜１６）、冬季休暇（３０〜３）","capacity":10,"id":"2353300292"},{"name":"Ｙくまーず未来西尾","nameKana":"わいくまーずみらいにしお","corp":"株式会社 Ystyle","serviceTypes":["児童発達支援","放課後等デイサービス"],"ward":"西尾市","address":"愛知県西尾市緑町三丁目２番地　　　　　　","tel":"0563-79-5302","url":"https://www.ykuma-mirai.com/","lat":34.87981447,"lng":137.05825174,"weekday":"11:30-17:30","saturday":"10:00-16:00","sunday":"00:00-00:00","holiday":"10:00-16:00","closed":"日曜日、お盆、年末年始","capacity":10,"id":"2353600378"},{"name":"Ｙくまーず未来　春日井ｎｅｘｔ","nameKana":"わいくまーずみらいかすがいねくすと","corp":"株式会社 Ystyle","serviceTypes":["児童発達支援","放課後等デイサービス"],"ward":"春日井市","address":"愛知県春日井市白山町１丁目６１−６４Ａ","tel":"0568-53-0701","url":"https://www.ykuma-mirai.com/","lat":35.27018868,"lng":137.03904436,"weekday":"10:00-17:30","saturday":"09:00-18:00","sunday":"00:00-00:00","holiday":"10:00-16:00","closed":"日曜日、夏季休暇（１３〜１６）、冬季休暇（３０〜３）","capacity":10,"id":"2357501242"},