[{"name":"アートチャイルドケアSEDスクール学研奈良登美ヶ丘","nameKana":"あーとちゃいるどけあせっどすくーるがっけんならとみがおか","corp":"アートチャイルドケア株式会社","serviceTypes":["児童発達支援"],"ward":"生駒市","address":"奈良県生駒市鹿畑町16-2学研奈良登美ヶ丘駅構内1階南区画","tel":"0742-93-5707","url":"","lat":34.6919626,"lng":135.7005362,"weekday":"","saturday":"","sunday":"","holiday":"","closed":"日曜日・月曜日および年末年始（12/29〜1/3），GW（5/3〜5）","capacity":10,"id":"2950361689"},{"name":"アートチャイルドケアSEDスクールJR大和郡山","nameKana":"あーとちゃいるどけあせっどすくーるじぇいあーるやまとこおりやま","corp":"アートチャイルドケア株式会社","serviceTypes":["児童発達支援"],"ward":"大和郡山市","address":"奈良県大和郡山市高田町92番14ハーベス大和郡山2F","tel":"0743-87-9503","url":"https://www.the0123child.com/","lat":34.64765129,"lng":135.79120182,"weekday":"09:00-17:00","saturday":"09:00-17:00","sunday":"","holiday":"09:00-17:00","closed":"日・月　GW5/3~5/5および年末年始12/29~1/3","capacity":10,"id":"2950200010"},{"name":"アートチャイルドケアＳＥＤスクール奈良香芝","nameKana":"あーとちゃいるどけあえすいーでぃすくーるならかしば","corp":"アートチャイルドケア株式会社","serviceTypes":["児童発達支援"],"ward":"香芝市","address":"奈良県香芝市磯壁三丁目５３番１号　２階","tel":"0745-51-3338","url":"https://www.the0123child.com/","lat":34.53833928,"lng":135.70281105,"weekday":"","saturday":"","sunday":"","holiday":"","closed":"日・月およびGW5/3〜5/5、年末年始12/29〜1/3","capacity":10,"id":"2951861521"},{"name":"アートチャイルドケアＳＥＤスクール近鉄学園前","nameKana":"あーとちゃいるどけあえすいーでぃーすくーるきんてつがくえんまえ","corp":"アートチャイルドケア株式会社","serviceTypes":["児童発達支援"],"ward":"奈良市","address":"奈良県奈良市学園北一丁目１１番１０号森田ビル４階","tel":"0742-93-3218","url":"https://www.the0123child.com/","lat":34.69904258,"lng":135.75019312,"weekday":"","saturday":"","sunday":"","holiday":"","closed":"日・月およびGW5/3〜5/5、年末年始12/29〜1/3","capacity":null,"id":"2950161469"},{"name":"LITALICOジュニア奈良王寺教室","nameKana":"りたりこじゅにあならおうじきょうしつ","corp":"株式会社LITALICOパートナーズ","serviceTypes":["児童発達支援"],"ward":"北葛城郡王寺町","address":"奈良県北葛城郡王寺町王寺2-7-1王寺ピアザビル4階","tel":"0745-34-0673","url":"https://junior.litalico.jp/school/nara/naraoji/","lat":34.5958962,"lng":135.70596475,"weekday":"10:00-17:30","saturday":"10:00-17:30","sunday":"10:00-17:30","holiday":"10:00-17:30","closed":"会社休業日（法人が定める日及び12/29〜1/3）","capacity":10,"id":"2951500236"},{"name":"LITALICOジュニア新大宮教室","nameKana":"りたりこじゅにあしんおおみやきょうしつ","corp":"株式会社LITALICOパートナーズ","serviceTypes":["児童発達支援","放課後等デイサービス"],"ward":"奈良市","address":"奈良県奈良市大宮町4丁目266−1三和大宮ビル201","tel":"0742-32-5863","url":"https://junior.litalico.jp/school/nara/shinomiya/","lat":34.68230083,"lng":135.80924954,"weekday":"10:30-18:30","saturday":"10:00-18:00","sunday":"10:00-18:00","holiday":"10:30-18:30","closed":"法人が定める日及び12/29~1/3","capacity":10,"id":"2950100319"},{"name":"奈良地域福祉事業所あ・うん　児童デイサービス　ビーンズ","nameKana":"ならちいきふくしじぎょうしょあうんじどうでいさーびすびーんず","corp":"労働者協同組合労協センター事業団","serviceTypes":["児童発達支援","放課後等デイサービス"],"ward":"大和郡山市","address":"奈良県大和郡山市北郡山町87-3","tel":"0743-58-5161","url":"https://workers-coop.com/honbu/kansai/","lat":34.65749187,"lng":135.78437991,"weekday":"13:30-17:00","saturday":"","sunday":"","holiday":"","closed":"土曜日・日曜日・祝日 　年末年始・お盆休み","capacity":10,"id":"2950260451"},{"name":"コペルプラス王寺教室","nameKana":"こぺるぷらすおうじきょうしつ","corp":"株式会社クラゼミ","serviceTypes":["児童発達支援"],"ward":"北葛城郡王寺町","address":"奈良県北葛城郡王寺町北葛城郡王寺町王寺栄和ビル201号室","tel":"0745490983","url":"https://copelplus.copel.co.jp/school/oji/","lat":34.59472411,"lng":135.70655363,"weekday":"10:00-18:00","saturday":"10:00-18:00","sunday":"","holiday":"","closed":"月曜、日曜、祝日","capacity":10,"id":"2951500269"},{"name":"コぺルプラス五位堂教室","nameKana":"こぺるぷらすごいどうきょうしつ","corp":"株式会社クラゼミ","serviceTypes":["児童発達支援"],"ward":"香芝市","address":"奈良県香芝市瓦口2288セイワビル1階A号室","tel":"0745439284","url":"","lat":34.5355955,"lng":135.71862365,"weekday":"10:00-18:00","saturday":"10:00-18:00","sunday":"","holiday":"","closed":"月曜、日曜、祝日","capacity":10,"id":"2951800164"},{"name":"コペルプラス志都美教室","nameKana":"こぺるぷらすしずみきょうしつ","corp":"株式会社クラゼミ","serviceTypes":["児童発達支援"],"ward":"香芝市","address":"奈良県香芝市今泉439-1今泉事務所102号室","tel":"0745-43-9184","url":"https://copelplus.copel.co.jp/school/shizumi/","lat":34.5412555,"lng":135.69893907,"weekday":"10:00-18:00","saturday":"10:00-18:00","sunday":"","holiday":"","closed":"月曜、日曜、祝日","capacity":10,"id":"2951800180"},{"name":"コペルプラス大和高田教室","nameKana":"こぺるぷらすやまとたかだきょうしつ","corp":"株式会社クラゼミ","serviceTypes":["児童発達支援"],"ward":"大和高田市","address":"奈良県大和高田市幸町2-18-212大和高田アーバンコンフォート2階","tel":"0745-44-3264","url":"https://copelplus.copel.co.jp/school/yamatotakada/","lat":34.51575128,"lng":135.73740282,"weekday":"10:00-18:00","saturday":"10:00-18:00","sunday":"00:00-00:00","holiday":"00:00-00:00","closed":"日曜日・月曜日・祝日","capacity":10,"id":"2950800082"},{"name":"コペルプラス王寺教室","nameKana":"こぺるぷらすおうじきょうしつ","corp":"株式会社クラ・ゼミ","serviceTypes":["児童発達支援"],"ward":"北葛城郡王寺町","address":"奈良県北葛城郡王寺町王寺2-2-1栄和ﾋﾞﾙ201号室","tel":"0745-49-0983","url":"https://copelplus.copel.co.jp/school/oji/","lat":34.59526016,"lng":135.70680081,"weekday":"10:00-18:00","saturday":"10:00-18:00","sunday":"","holiday":"","closed":"日曜日、月曜日、年間スケジュールに準ずる。教室の都合により、定休日は変更になる。","capacity":10,"id":"2951500343"},{"name":"コペルプラス五位堂教室","nameKana":"こぺるぷらすごいどうきょうしつ","corp":"株式会社クラ・ゼミ","serviceTypes":["児童発達支援","放課後等デイサービス"],"ward":"香芝市","address":"奈良県香芝市瓦口2288ｾｲﾜビル1階A号室","tel":"0745-43-9284","url":"https://kirari-kodomo.com/around/around-229/","lat":34.53555106,"lng":135.71864309,"weekday":"10:00-18:00","saturday":"10:00-18:00","sunday":"","holiday":"","closed":"日　月　祝","capacity":10,"id":"2951800222"},{"name":"こどもサポート教室「きらり」近鉄郡山駅前校","nameKana":"こどもさぽーときょうしつきらりきんてつこおりやまえきまえこう","corp":"株式会社クラ・ゼミ","serviceTypes":["児童発達支援","放課後等デイサービス"],"ward":"大和郡山市","address":"奈良県大和郡山市朝日町1−9にし茂とビル202","tel":"0743-85-7275","url":"http://kirari-kodomo.com/","lat":34.64719002,"lng":135.78071647,"weekday":"10:00-19:00","saturday":"10:00-19:00","sunday":"","holiday":"10:00-19:00","closed":"日","capacity":10,"id":"2950270732"},{"name":"Tonina“トニナ”","nameKana":"とにな","corp":"Tonina株式会社","serviceTypes":["児童発達支援","放課後等デイサービス"],"ward":"大和高田市","address":"奈良県大和高田市東雲町15-34","tel":"050-8881-5692","url":"https://tonina-support.com/","lat":34.51951216,"lng":135.75344848,"weekday":"10:00-19:00","saturday":"09:00-18:00","sunday":"","holiday":"","closed":"日曜、祝日","capacity":9,"id":"2950800041"},{"name":"スワールキッズ奈良教室","nameKana":"すわーるきっずならきょうしつ","corp":"スワール合同会社","serviceTypes":["児童発達支援","放課後等デイサービス"],"ward":"奈良市","address":"奈良県奈良市帝塚山南五丁目１−３３","tel":"070-8962-5537","url":"","lat":34.68350516,"lng":135.73606138,"weekday":"","saturday":"","sunday":"","holiday":"","closed":"","capacity":null,"id":"2950100459"},{"name":"リーチ","nameKana":"りーち","corp":"株式会社コンソナンス","serviceTypes":["児童発達支援","放課後等デイサービス"],"ward":"北葛城郡河合町","address":"奈良県北葛城郡河合町星和台2丁目5-5藤ビル1F中","tel":"0745-44-9935","url":"https://reach-nara.com/","lat":34.58393112,"lng":135.71660316,"weekday":"12:00-18:30","saturday":"10:00-16:30","sunday":"","holiday":"10:00-16:30","closed":"第2.4土曜日、日曜日","capacity":10,"id":"2951500251"},{"name":"ファミリー","nameKana":"ふぁみりー","corp":"株式会社コンソナンス","serviceTypes":["児童発達支援","放課後等デイサービス"],"ward":"北葛城郡河合町","address":"奈良県北葛城郡河合町星和台2-5-7ｽﾍﾟｰｽﾜﾝﾋﾞﾙ1F南","tel":"0745-44-8441","url":"http://family-nara.com","lat":34.58361448,"lng":135.7165004,"weekday":"10:00-17:15","saturday":"10:00-16:15","sunday":"","holiday":"10:00-16:15","closed":"日曜日","capacity":10,"id":"2951571237"},{"name":"月とおひさま南","nameKana":"つきとおひさまみなみ","corp":"株式会社ナッセ","serviceTypes":["児童発達支援","放課後等デイサービス"],"ward":"大和郡山市","address":"奈良県大和郡山市泉原町６３６９番地１","tel":"0743-58-6044","url":"http://www.necess.jp/","lat":34.6493732,"lng":135.782758,"weekday":"09:00-18:00","saturday":"09:00-18:00","sunday":"09:00-18:00","holiday":"09:00-18:00","closed":"361日営業（12月31日〜1月3日のみ休み）","capacity":10,"id":"2950270567"},{"name":"月とおひさま東","nameKana":"つきとおひさまひがし","corp":"株式会社ナッセ","serviceTypes":["児童発達支援","放課後等デイサービス"],"ward":"大和郡山市","address":"奈良県大和郡山市高田口町32-2","tel":"0743-85-6881","url":"https://www.necess.jp/facility/3475/","lat":34.64723464,"lng":135.78949084,"weekday":"09:00-17:00","saturday":"","sunday":"","holiday":"","closed":"土曜日、日曜日","capacity":10,"id":"2950200093"},{"name":"きららkids奈良","nameKana":"きららきっずなら","corp":"一般社団法人芳縁会","serviceTypes":["児童発達支援"],"ward":"奈良市","address":"奈良県奈良市芝辻町二丁目11-1MLビル3F","tel":"0742342601","url":"https://kirara-nara.com","lat":34.68551441,"lng":135.81218254,"weekday":"09:30-17:00","saturday":"","sunday":"","holiday":"09:30-17:00","closed":"日曜日","capacity":10,"id":"2950100053"},{"name":"のんたん","nameKana":"のんたん","corp":"特定非営利活動法人ザ・ホープフル","serviceTypes":["児童発達支援","放課後等デイサービス"],"ward":"奈良市","address":"奈良県奈良市あやめ池南1-1-14","tel":"0742-93-9816","url":"http://www.the-hopeful.net/nontan/index.html","lat":34.69755394,"lng":135.75774518,"weekday":"09:30-19:00","saturday":"10:00-18:00","sunday":"","holiday":"","closed":"日・祝日・年末年始・お盆","capacity":10,"id":"2950161311"},{"name":"どすこい王寺町部屋","nameKana":"どすこいおうじちょうべや","corp":"株式会社どすこい","serviceTypes":["児童発達支援","放課後等デイサービス"],"ward":"北葛城郡王寺町","address":"奈良県北葛城郡王寺町本町2-31-25","tel":"0745-34-2277","url":"https://www.yoshikawa-group.jp/dosukoi/index.html","lat":34.58599182,"lng":135.70683445,"weekday":"12:00-17:00","saturday":"10:00-16:00","sunday":"10:00-16:00","holiday":"10:00-16:00","closed":"毎週木曜日、8/13〜15、12/30〜1/3","capacity":10,"id":"2951500244"},{"name":"いき生きデイセンターわが家","nameKana":"いきいきでいせんたーわがや","corp":"オフィス・援有限会社","serviceTypes":["児童発達支援","放課後等デイサービス"],"ward":"吉野郡大淀町","address":"奈良県吉野郡大淀町桧垣本1010-153","tel":"0747-52-5789","url":"","lat":34.39650255,"lng":135.78970653,"weekday":"13:00-18:00","saturday":"09:00-18:00","sunday":"00:00-00:00","holiday":"00:00-00:00","closed":"","capacity":10,"id":"2951770292"},{"name":"てらすワン","nameKana":"てらすわん","corp":"株式会社PAL GLAD","serviceTypes":["児童発達支援","放課後等デイサービス"],"ward":"奈良市","address":"奈良県奈良市学園大和町一丁目１−２３","tel":"0742-37-3701","url":"https://terasuone.com","lat":34.68787988,"lng":135.74674083,"weekday":"","saturday":"","sunday":"","holiday":"","closed":"","capacity":null,"id":"2950100400"},{"name":"Foster","nameKana":"ふぉすたー","corp":"株式会社Ｔ’Ｓコーポレーション","serviceTypes":["児童発達支援"],"ward":"奈良市","address":"奈良県奈良市杉ヶ町32番2大谷第5ビル4階","tel":"0742-81-7272","url":"","lat":34.67835701,"lng":135.82004321,"weekday":"","saturday":"","sunday":"","holiday":"","closed":"","capacity":null,"id":"2950100418"},{"name":"ピュアの樹とみお","nameKana":"ぴゅあのきとみお","corp":"社会福祉法人香久山会","serviceTypes":["児童発達支援","放課後等デイサービス"],"ward":"奈良市","address":"奈良県奈良市三松４丁目８８２−１０２","tel":"0742-93-6900","url":"https://www.kaguyamakai.com/pure-gakkennara/purenoki","lat":34.68510599,"lng":135.80500813,"weekday":"09:00-18:00","saturday":"","sunday":"","holiday":"","closed":"土曜日・日曜日・祝日・国民の休日・年末年始","capacity":10,"id":"2950100111"},{"name":"ピュアの樹がっけん","nameKana":"ぴゅあのきがっけん","corp":"社会福祉法人香久山会","serviceTypes":["児童発達支援"],"ward":"奈良市","address":"奈良県奈良市中登美ケ丘６−１５−１","tel":"0742-93-3015","url":"https://www.kaguyamakai.com/pure-gakkennara/purenoki","lat":34.7230815,"lng":135.74752885,"weekday":"08:30-17:30","saturday":"","sunday":"","holiday":"","closed":"土・日・祝日　年末年始","capacity":10,"id":"2950100228"},{"name":"森の人","nameKana":"もりのひと","corp":"株式会社ワークコスモ","serviceTypes":["児童発達支援","放課後等デイサービス"],"ward":"桜井市","address":"奈良県桜井市生田１０１５−１−１０３","tel":"0744-49-2062","url":"","lat":34.49954401,"lng":135.8422104,"weekday":"","saturday":"","sunday":"","holiday":"","closed":"","capacity":null,"id":"2950470936"},{"name":"こぎつねくらぶ","nameKana":"こぎつねくらぶ","corp":"株式会社ＳＵＳ","serviceTypes":["児童発達支援","放課後等デイサービス"],"ward":"香芝市","address":"奈良県香芝市真美ケ丘2丁目13-5　2Ｆ","tel":"0745-49-0076","url":"https://www.kogitsuneclub.link/","lat":34.54001716,"lng":135.7184708,"weekday":"11:00-17:30","saturday":"10:00-16:30","sunday":"10:00-16:30","holiday":"10:00-16:30","closed":"12月30日〜1月3日","capacity":10,"id":"2951800131"},{"name":"こぎつねくらぶｆａｒｔｌｅｋ","nameKana":"こぎつねくらぶふぁるとれく","corp":"株式会社ＳＵＳ","serviceTypes":["児童発達支援","放課後等デイサービス"],"ward":"香芝市","address":"奈良県香芝市西真美2丁目1番地30","tel":"0745-71-5590","url":"https://www.kogitsuneclub.link/","lat":34.54608291,"lng":135.7108769,"weekday":"11:00-17:30","saturday":"10:00-16:30","sunday":"10:00-16:30","holiday":"10:00-16:30","closed":"12月30日〜1月3日","capacity":10,"id":"2951800156"},{"name":"SORATO（UMIE）てんり","nameKana":"そらとてんり","corp":"医療法人社団ＥＭＩＦＵＬＬ","serviceTypes":["児童発達支援","放課後等デイサービス"],"ward":"天理市","address":"奈良県天理市川原城町812番地1（1階）今西ビル","tel":"0743-85-4172","url":"https://emifull-group.or.jp/","lat":34.60211272,"lng":135.82977643,"weekday":"09:00-16:30","saturday":"","sunday":"","holiday":"09:00-16:30","closed":"土日はお休みとなります。","capacity":10,"id":"2950900056"},{"name":"発達支援リハスタジオ　ハッピーリング西ノ京","nameKana":"はったつしえんりはすたじおはっぴーりんぐにしのきょう","corp":"株式会社ハッピーサービスグループ","serviceTypes":["児童発達支援","放課後等デイサービス"],"ward":"奈良市","address":"奈良県奈良市六条3丁目1番15号","tel":"0742-52-8882","url":"https://www.happy-service.co.jp/information/access/10.html","lat":34.66812682,"lng":135.77618858,"weekday":"09:00-17:00","saturday":"09:00-17:00","sunday":"09:00-17:00","holiday":"09:00-17:00","closed":"日曜日","capacity":10,"id":"2950161568"},{"name":"放課後等デイサービス　　ウイズ・ユー榛原","nameKana":"ほうかごとうでいさーびすういずゆーはいばら","corp":"有限会社ライズグループ","serviceTypes":["児童発達支援"],"ward":"宇陀市","address":"奈良県宇陀市榛原下井足49-1　サンクシティ3階","tel":"0745-82-2848","url":"http://www.with-ac.com/   https:/afterschool5days.wixsite.com/withyou","lat":34.5268569,"lng":135.95089455,"weekday":"11:30-18:00","saturday":"10:00-17:30","sunday":"","holiday":"10:00-17:30","closed":"日曜日・事業所の定める日","capacity":10,"id":"2950671467"},{"name":"フラーテル","nameKana":"ふらーてる","corp":"学校法人青丹学園","serviceTypes":["児童発達支援","放課後等デイサービス"],"ward":"奈良市","address":"奈良県奈良市朱雀6丁目21-8朱雀第2医療ビル","tel":"0742-70-0070","url":"https://www.seitan.ac.jp/frater/","lat":34.71315529,"lng":135.80006643,"weekday":"08:30-19:00","saturday":"","sunday":"","holiday":"","closed":"","capacity":null,"id":"2950171484"},{"name":"運動学習支援教室てまり","nameKana":"うんどうがくしゅうしえんきょうしつてまり","corp":"株式会社てまり","serviceTypes":["児童発達支援","放課後等デイサービス"],"ward":"奈良市","address":"奈良県奈良市西木辻町121-2朝日プラザ奈良プレシオ","tel":"0742-81-8738","url":"https://www.temari.link/","lat":34.67372709,"lng":135.82684,"weekday":"14:00-18:00","saturday":"10:00-17:00","sunday":"","holiday":"10:00-16:00","closed":"日曜日","capacity":10,"id":"2950171641"},{"name":"発達支援リハスタジオ ハッピーリングplus","nameKana":"はったつしえんりはすたじおはっぴーりんぐぷらす","corp":"株式会社ハッピーサービスグループ","serviceTypes":["児童発達支援","放課後等デイサービス"],"ward":"奈良市","address":"奈良県奈良市六条二丁目10番15号","tel":"0742-52-8835","url":"https://www.happy-service.co.jp/office/%e7%99%ba%e9%81%94%e6%94%af%e6%8f%b4%e3%83%aa%e3%83%8f%e3%82%b9%e3%82%bf%e3%82%b8%e3%82%aa-%e3%83%8f%e3%83%83%e3%83%94%e3%83%bc%e3%","lat":34.66857395,"lng":135.77330823,"weekday":"09:00-17:00","saturday":"09:00-17:00","sunday":"","holiday":"09:00-17:00","closed":"日曜日","capacity":10,"id":"2950100145"},{"name":"発達支援リハスタジオ　ハッピーリングwith","nameKana":"はったつしえんりはすたじおはっぴーりんぐうぃず","corp":"株式会社ハッピーサービスグループ","serviceTypes":["児童発達支援","放課後等デイサービス"],"ward":"奈良市","address":"奈良県奈良市六条2丁目6番1号","tel":"0742-52-8866","url":"","lat":34.66973776,"lng":135.77488586,"weekday":"08:30-17:30","saturday":"08:30-17:30","sunday":"","holiday":"08:30-17:30","closed":"日曜日","capacity":10,"id":"2950100376"},{"name":"フラーテル高の原","nameKana":"ふらーてるたかのはら","corp":"学校法人青丹学園","serviceTypes":["児童発達支援","放課後等デイサービス"],"ward":"奈良市","address":"奈良県奈良市朱雀六丁目21-8朱雀第2医療ビル","tel":"0742-70-0070","url":"https://www.seitan.ac.jp/frater/","lat":34.71315529,"lng":135.80012754,"weekday":"","saturday":"","sunday":"","holiday":"","closed":"","capacity":null,"id":"2950171484"},{"name":"はればれ","nameKana":"はればれ","corp":"合同会社ハートフルハート","serviceTypes":["児童発達支援"],"ward":"奈良市","address":"奈良県奈良市登美ヶ丘３丁目４ー１１","tel":"0742774337","url":"https://harebare-children.com/","lat":34.7147491,"lng":135.74802903,"weekday":"09:30-17:30","saturday":"","sunday":"","holiday":"","closed":"土曜日、日曜日、祝日、祭日","capacity":10,"id":"2950100103"},{"name":"らぶり","nameKana":"らぶり","corp":"一般社団法人L’abri","serviceTypes":["児童発達支援"],"ward":"奈良市","address":"奈良県奈良市西木辻町３３−３","tel":"0742-24-1005","url":"http://www.naralabri.com/","lat":34.67579344,"lng":135.82163482,"weekday":"09:30-11:15","saturday":"09:30-11:15","sunday":"","holiday":"","closed":"日、祝、夏季休暇、年末年始,法人が定める休日　個別のみ月曜定休","capacity":10,"id":"2950100210"},{"name":"みつばちキッズ","nameKana":"みつばちきっず","corp":"合同会社みつばち","serviceTypes":["児童発達支援","放課後等デイサービス"],"ward":"奈良市","address":"奈良県奈良市中山町1290-4","tel":"0742-93-5004","url":"","lat":34.71121632,"lng":135.76960217,"weekday":"11:30-17:30","saturday":"10:00-16:00","sunday":"","holiday":"","closed":"日曜日、月曜日、国民の祝日、12月30日から1月3日","capacity":10,"id":"2950100483"},{"name":"放課後等デイサービスkaika","nameKana":"ほうかごとうでいさーびすかいか","corp":"合同会社カイカ","serviceTypes":["児童発達支援","放課後等デイサービス"],"ward":"生駒市","address":"奈良県生駒市新生駒台2-27","tel":"080-3829-5271","url":"","lat":34.71032168,"lng":135.70109397,"weekday":"","saturday":"","sunday":"","holiday":"","closed":"","capacity":null,"id":"2950300083"},{"name":"コペルプラス生駒教室","nameKana":"こぺるぷらすいこまきょうしつ","corp":"株式会社エヌケー","serviceTypes":["児童発達支援"],"ward":"生駒市","address":"奈良県生駒市西松ケ丘1-43ナビールSANWA201号室","tel":"0743-85-5986","url":"","lat":34.69550937,"lng":135.69648351,"weekday":"","saturday":"","sunday":"","holiday":"","closed":"","capacity":null,"id":"2950300091"},{"name":"からあ","nameKana":"からあ","corp":"一般社団法人空","serviceTypes":["児童発達支援","放課後等デイサービス"],"ward":"奈良市","address":"奈良県奈良市神殿町665-3","tel":"0742-63-7300","url":"https://qu-style.org/","lat":34.65870636,"lng":135.81937981,"weekday":"","saturday":"","sunday":"","holiday":"","closed":"","capacity":null,"id":"2950100327"},{"name":"たすく","nameKana":"たすく","corp":"株式会社スリーティーズ","serviceTypes":["児童発達支援","放課後等デイサービス"],"ward":"奈良市","address":"奈良県奈良市法蓮町166-1シャトレー井田　2-B","tel":"0742-42-6846","url":"https://tsc.threets.co.jp/index.html","lat":34.68935007,"lng":135.81213523,"weekday":"13:00-17:30","saturday":"11:00-17:00","sunday":"","holiday":"","closed":"日曜日、祝日 8月11日から8月15日、12月29日から1月4日","capacity":10,"id":"2950100301"},{"name":"児童発達支援　朱雀こだま","nameKana":"じどうはったつしえんすざくこだま","corp":"社会福祉法人　希望の会","serviceTypes":["児童発達支援"],"ward":"奈良市","address":"奈良県奈良市朱雀六丁目20番地10","tel":"0742-71-0606","url":"https://sites.google.com/kibounokai.jp/suzakukodama","lat":34.71394131,"lng":135.8005636,"weekday":"09:00-17:00","saturday":"09:00-17:00","sunday":"","holiday":"","closed":"国民の祝日、年末年始休業日の他、当事業所が休業日と定めた日を除く。","capacity":10,"id":"2950100350"},{"name":"児童発達支援・放課後等デイサービスみらい","nameKana":"じどうはったつしえんほうかごとうでいさーびすみらい","corp":"株式会社ＴＯＬＥＲＡＮＣＥ","serviceTypes":["児童発達支援","放課後等デイサービス"],"ward":"生駒市","address":"奈良県生駒市中菜畑2丁目1128ｿﾚｲﾕ生駒102及び2-B","tel":"0743-83-1570","url":"https://tolerance-nara.com/","lat":34.68159684,"lng":135.70528059,"weekday":"10:00-17:00","saturday":"10:00-17:00","sunday":"","holiday":"","closed":"日、月曜日、祝日、年末年始、お盆休み","capacity":10,"id":"2950300166"},{"name":"ABAスタジオこれっと","nameKana":"えーびーえーすたじおこれっと","corp":"一般社団法人ポジティブサポート","serviceTypes":["児童発達支援","放課後等デイサービス"],"ward":"奈良市","address":"奈良県奈良市芝辻町二丁目8番12号西田ビル2階東","tel":"0742-34-1717","url":"","lat":34.68669208,"lng":135.81440178,"weekday":"09:30-17:00","saturday":"","sunday":"","holiday":"","closed":"","capacity":10,"id":"2950100368"},{"name":"児童発達支援・放課後等デイサービス　ヒトツナ西ノ京教室","nameKana":"じどうはったつしえんほうかごとうでいさーびすひとつなにしのきょうきょうしつ","corp":"Anything Is Possible合同会社","serviceTypes":["児童発達支援","放課後等デイサービス"],"ward":"奈良市","address":"奈良県奈良市七条西町２丁目1023-3","tel":"0742-81-9703","url":"","lat":34.66390209,"lng":135.76896424,"weekday":"","saturday":"","sunday":"","holiday":"","closed":"","capacity":null,"id":"2950100442"},{"name":"児童発達支援・放課後等デイサービス　ふたば","nameKana":"じどうはったつしえんほうかごとうでいさーびすふたば","corp":"合同会社ふたば","serviceTypes":["児童発達支援","放課後等デイサービス"],"ward":"奈良市","address":"奈良県奈良市東九条町17番地の1、101号フクダギフトビル１０１号","tel":"0742-93-9153","url":"https://futaba-nara.jp/","lat":34.65380388,"lng":135.80984184,"weekday":"10:20-15:50","saturday":"10:20-12:00","sunday":"","holiday":"","closed":"日、祝日","capacity":10,"id":"2950100343"},{"name":"なないろ初伝舎","nameKana":"なないろはつでんしゃ","corp":"医療法人 宗紀会","serviceTypes":["児童発達支援","放課後等デイサービス"],"ward":"奈良市","address":"奈良県奈良市三条大路1丁目10番43号FOREST SQUARE2階","tel":"0742-36-7716","url":"https://soukikai7716.com/","lat":34.68368943,"lng":135.8010807,"weekday":"09:30-17:30","saturday":"00:00-00:00","sunday":"00:00-00:00","holiday":"00:00-00:00","closed":"土曜日、日曜日、祝日","capacity":10,"id":"2950100525"},{"name":"ゆう","nameKana":"ゆう","corp":"一般社団法人ライブラリー","serviceTypes":["児童発達支援","放課後等デイサービス"],"ward":"奈良市","address":"奈良県奈良市六条西一丁目1番34号","tel":"0742-53-9101","url":"http://library.chu.jp","lat":34.67290405,"lng":135.77166659,"weekday":"11:00-17:30","saturday":"10:30-16:30","sunday":"","holiday":"","closed":"日曜・木曜・祝日・8月13〜15日・12月31日〜1月3日","capacity":10,"id":"2950100269"},{"name":"紙ヒコーキ","nameKana":"かみひこーき","corp":"株式会社MajiMi","serviceTypes":["児童発達支援","放課後等デイサービス"],"ward":"奈良市","address":"奈良県奈良市学園北一丁目15-26ニューロータリー壱番館402・403","tel":"0742-52-6388","url":"https://majimi.com","lat":34.70036465,"lng":135.75015977,"weekday":"10:30-13:00","saturday":"","sunday":"","holiday":"10:00-17:00","closed":"土曜日、日曜日、祝日、お盆休暇、年末年始（12/30〜1/3）","capacity":10,"id":"2950100251"},{"name":"太陽ジャム","nameKana":"たいようじゃむ","corp":"株式会社サンケア","serviceTypes":["児童発達支援","放課後等デイサービス"],"ward":"磯城郡田原本町","address":"奈良県磯城郡田原本町味間１９６−３","tel":"0744-47-2390","url":"http://www.suncare-group.com","lat":34.54045775,"lng":135.8047966,"weekday":"10:30-17:00","saturday":"10:30-17:00","sunday":"10:30-16:30","holiday":"10:30-16:30","closed":"火曜日。イベント・行事以外は、原則として日曜日・祝日もお休み","capacity":10,"id":"2950760328"},{"name":"放課後等デイサービス　はーとエンジェル","nameKana":"はーとえんじぇる","corp":"株式会社ＳＴＵＤＩＯはーと","serviceTypes":["児童発達支援"],"ward":"大和郡山市","address":"奈良県大和郡山市小泉町東3丁目13-13","tel":"0120-919-810","url":"https://h-navi.jp/support_facility/facilities/158135/service_evaluations","lat":34.61938677,"lng":135.76213508,"weekday":"","saturday":"","sunday":"","holiday":"","closed":"","capacity":null,"id":"2950271490"},{"name":"はーとエンジェル","nameKana":"はーとえんじぇる","corp":"株式会社ＳＴＵＤＩＯはーと","serviceTypes":["児童発達支援"],"ward":"大和郡山市","address":"奈良県大和郡山市小泉町東3丁目13-13","tel":"0743-57-1718","url":"http://web1.kcn.jp/videoheart/houkago/","lat":34.61938677,"lng":135.76213508,"weekday":"","saturday":"","sunday":"","holiday":"","closed":"土日祝","capacity":10,"id":"2950271490"},{"name":"重症心身障がい児デイサービスｍｏｒｅすまいる","nameKana":"じゅうしょうしんしんしょうがいじでいさーびすもあすまいる","corp":"特定非営利活動法人Soleil","serviceTypes":["児童発達支援","放課後等デイサービス"],"ward":"大和郡山市","address":"奈良県大和郡山市九条町１１９−１","tel":"0743-20-0017","url":"http://hp.kaipoke.biz/3dg/","lat":34.66130829,"lng":135.79074325,"weekday":"","saturday":"","sunday":"","holiday":"","closed":"","capacity":null,"id":"2950261251"},{"name":"放課後等デイサービスあさひ","nameKana":"ほうかごとうでいさーびすあさひ","corp":"特定非営利活動法人Soleil","serviceTypes":["児童発達支援","放課後等デイサービス"],"ward":"大和郡山市","address":"奈良県大和郡山市大和郡山市","tel":"0745-43-2880","url":"http://hp.kaipoke.biz/3dg/","lat":34.6493732,"lng":135.782758,"weekday":"","saturday":"","sunday":"","holiday":"","closed":"","capacity":null,"id":"2950770756"},{"name":"児童発達支援きんぎょ","nameKana":"じどうはったつしえんきんぎょ","corp":"一般社団法人大和伸進会","serviceTypes":["児童発達支援","放課後等デイサービス"],"ward":"大和郡山市","address":"奈良県大和郡山市城町1713-79","tel":"0743-58-6160","url":"https://yamatoshinshinkai.info/","lat":34.65916637,"lng":135.76714782,"weekday":"09:30-17:45","saturday":"09:00-13:00","sunday":"","holiday":"","closed":"日曜、祝日、夏季休暇、年末年始、職員研修日","capacity":10,"id":"2950261616"},{"name":"児童発達支援てんしんらんまん","nameKana":"じどうはったつしえんてんしんらんまん","corp":"一般社団法人大和伸進会","serviceTypes":["児童発達支援"],"ward":"香芝市","address":"奈良県香芝市下田西1-10-28","tel":"0745-49-0156","url":"https://yamatoshinshinkai.info/","lat":34.54399692,"lng":135.70423581,"weekday":"08:45-17:00","saturday":"","sunday":"","holiday":"","closed":"土曜日、日曜日、国民の祝日、その他、別に定める年末年始休業日、夏季休業日と研修日","capacity":10,"id":"2951861661"},{"name":"サンケア・キッズ","nameKana":"さんけあきっず","corp":"株式会社サンケア","serviceTypes":["児童発達支援"],"ward":"奈良市","address":"奈良県奈良市学園大和町1-1433-3","tel":"0742-93-6899","url":"http://www.suncare-group.com/","lat":34.69015188,"lng":135.74847675,"weekday":"11:30-17:30","saturday":"11:30-17:30","sunday":"","holiday":"","closed":"日曜日・祝日","capacity":10,"id":"2950171203"},{"name":"運動学習支援教室てまり","nameKana":"うんどうがくしゅうしえんきょうしつてまり","corp":"株式会社てまり","serviceTypes":["児童発達支援","放課後等デイサービス"],"ward":"奈良市","address":"奈良県奈良市奈良市朝日プラザ奈良プレシオ201","tel":"0742818738","url":"https://www.temari.link/","lat":34.685106,"lng":135.8050081,"weekday":"14:00-18:00","saturday":"10:00-17:00","sunday":"","holiday":"10:00-16:00","closed":"日曜","capacity":10,"id":"2950171641"},{"name":"てまりカレッジ","nameKana":"てまりかれっじ","corp":"株式会社てまり","serviceTypes":["児童発達支援","放課後等デイサービス"],"ward":"奈良市","address":"奈良県奈良市三条大路一丁目10番地の10カハシ第3ビル3F","tel":"0742-81-7284","url":"","lat":34.68347558,"lng":135.80145012,"weekday":"","saturday":"","sunday":"","holiday":"","closed":"","capacity":null,"id":"2950100426"},{"name":"運動学習支援教室てまり尼ヶ辻","nameKana":"うんどうがくしゅうしえんきょうしつてまりあまがつじきょうしつ","corp":"株式会社てまり","serviceTypes":["児童発達支援","放課後等デイサービス"],"ward":"奈良市","address":"奈良県奈良市尼辻西町6-4エスポワール尼ヶ辻201号室","tel":"0742-53-5083","url":"https://www.temari.link/","lat":34.6819449,"lng":135.78226558,"weekday":"","saturday":"","sunday":"","holiday":"","closed":"","capacity":null,"id":"2950100277"},{"name":"いろＴｏｒｉどり","nameKana":"いろとりどり","corp":"合同会社しあわせ工房","serviceTypes":["児童発達支援","放課後等デイサービス"],"ward":"奈良市","address":"奈良県奈良市杉ケ町35-2中田ビル202号","tel":"0742-81-7555","url":"https://siawase-irotoridori.amebaownd.com","lat":34.67867088,"lng":135.82088202,"weekday":"10:00-13:00","saturday":"10:00-17:00","sunday":"","holiday":"10:00-17:00","closed":"日曜日","capacity":10,"id":"2950161592"},{"name":"なかま","nameKana":"なかま","corp":"社会福祉法人ききょう会","serviceTypes":["児童発達支援","放課後等デイサービス"],"ward":"奈良市","address":"奈良県奈良市神殿町630-6ききょう神殿ビル2階201号室","tel":"0742-50-0011","url":"https://kikyokai.jp","lat":34.65660937,"lng":135.81974924,"weekday":"10:00-17:00","saturday":"09:00-16:00","sunday":"09:00-16:00","holiday":"09:00-16:00","closed":"日曜日、年末年始","capacity":10,"id":"2950100061"},{"name":"児童発達支援センターくれよん","nameKana":"じどうはったつしえんせんたーくれよん","corp":"社会福祉法人ならやま会","serviceTypes":["児童発達支援"],"ward":"奈良市","address":"奈良県奈良市中町500番地1","tel":"0742-51-6667","url":"https://narayamakai.jp/","lat":34.67834205,"lng":135.75037392,"weekday":"09:00-17:00","saturday":"09:00-17:00","sunday":"","holiday":"09:00-17:00","closed":"土曜日・日曜日・年末年始・夏季休暇・国民の祝日","capacity":40,"id":"2950121109"},{"name":"キャンディー","nameKana":"きゃんでぃー","corp":"有限会社ほのぼの","serviceTypes":["児童発達支援","放課後等デイサービス"],"ward":"奈良市","address":"奈良県奈良市東九条町125-1","tel":"0742-62-5030","url":"http://honobono-st.net/","lat":34.65524275,"lng":135.81539409,"weekday":"14:00-17:30","saturday":"10:00-15:30","sunday":"10:00-15:30","holiday":"10:00-15:30","closed":"なし","capacity":10,"id":"2950160347"},{"name":"おにぎり","nameKana":"おにぎり","corp":"有限会社ほのぼの","serviceTypes":["児童発達支援","放課後等デイサービス"],"ward":"奈良市","address":"奈良県奈良市東九条町36-1","tel":"0742-62-0023","url":"https://honobono-st.net/","lat":34.65338174,"lng":135.81164446,"weekday":"13:00-17:30","saturday":"10:00-16:00","sunday":"10:00-16:00","holiday":"10:00-16:00","closed":"なし","capacity":10,"id":"2950160461"},{"name":"東大寺福祉療育病院　華の明","nameKana":"とうだいじふくしりょういくびょういんはなのあかり","corp":"社会福祉法人東大寺福祉事業団","serviceTypes":["児童発達支援","放課後等デイサービス"],"ward":"奈良市","address":"奈良県奈良市雑司町４０６−１","tel":"0742-27-6711","url":"https://www.twf.or.jp/","lat":34.68692588,"lng":135.83924961,"weekday":"","saturday":"","sunday":"","holiday":"","closed":"","capacity":null,"id":"2950121034"},{"name":"児童発達支援センター　しおん","nameKana":"じどうはったつしえんせんたーしおん","corp":"一般社団法人大和伸進会","serviceTypes":["児童発達支援","放課後等デイサービス"],"ward":"奈良市","address":"奈良県奈良市大宮町１丁目１−３２奈良交通第３ビル２階","tel":"0742-26-3671","url":"http://yamatoshinshinkai.info/","lat":34.68408694,"lng":135.820693,"weekday":"09:10-16:00","saturday":"","sunday":"","holiday":"","closed":"土、日、祝日","capacity":16,"id":"2950121091"},{"name":"むぎわらぼうし","nameKana":"むぎわらぼうし","corp":"合同会社ｍｕｇｉ","serviceTypes":["児童発達支援","放課後等デイサービス"],"ward":"奈良市","address":"奈良県奈良市学園朝日町９番１号","tel":"0742-45-0695","url":"","lat":34.70207837,"lng":135.75274559,"weekday":"11:00-18:00","saturday":"","sunday":"","holiday":"","closed":"","capacity":10,"id":"2950161071"},{"name":"たのしい　りーふ","nameKana":"たのしいりーふ","corp":"認定NPO法人きららの木","serviceTypes":["児童発達支援"],"ward":"奈良市","address":"奈良県奈良市三碓町2250-10","tel":"0742-44-2125","url":"http://kiraranoki.or.jp/","lat":34.69338193,"lng":135.72121524,"weekday":"","saturday":"","sunday":"","holiday":"","closed":"","capacity":null,"id":"2950161121"},{"name":"もこもこ","nameKana":"もこもこ","corp":"Ｍｓねっと","serviceTypes":["児童発達支援","放課後等デイサービス"],"ward":"奈良市","address":"奈良県奈良市法蓮町４３３−１グローリー新大宮１階","tel":"0742-93-9636","url":"http://nara-ms.net/","lat":34.69090266,"lng":135.81209631,"weekday":"09:30-17:00","saturday":"","sunday":"","holiday":"","closed":"土曜日、日曜日、祝日","capacity":10,"id":"2950161204"},{"name":"独立行政法人国立病院機構奈良医療センター「ぽかぽか」","nameKana":"どくりつぎょうせいほうじんこくりつびょういんきこうならいりょうせんたーぽかぽか","corp":"独立行政法人国立病院機構奈良医療センター","serviceTypes":["児童発達支援","放課後等デイサービス","居宅訪問型児童発達支援"],"ward":"奈良市","address":"奈良県奈良市七条二丁目７８９","tel":"0742-45-4591","url":"http://www.nho-nara.jp/","lat":34.66491045,"lng":135.77581924,"weekday":"09:30-16:00","saturday":"","sunday":"","holiday":"","closed":"土日祝日　年末年始","capacity":10,"id":"2950161287"},{"name":"奈良ＹＭＣＡことりクラブ","nameKana":"ならわいえむしーえーことりくらぶ","corp":"公益財団法人奈良ＹＭＣＡ","serviceTypes":["児童発達支援"],"ward":"奈良市","address":"奈良県奈良市西大寺国見町２−１４−１","tel":"0742-44-2291","url":"","lat":34.69013287,"lng":135.78356808,"weekday":"","saturday":"","sunday":"","holiday":"","closed":"","capacity":null,"id":"2950161345"},{"name":"子育てサポート・ふれ愛　大和西大寺南校","nameKana":"こそだてさぽーとふれあいやまとさいだいじみなみこう","corp":"特定非営利活動法人子育てサポート・ふれ愛","serviceTypes":["児童発達支援","放課後等デイサービス"],"ward":"奈良市","address":"奈良県奈良市西大寺南町1-26安田ビル2F","tel":"0742-81-8079","url":"https://kosodate-fureai.com/index.html","lat":34.69399627,"lng":135.78139318,"weekday":"10:00-16:30","saturday":"10:00-13:50","sunday":"","holiday":"","closed":"火曜日、日祝","capacity":10,"id":"2950100137"},{"name":"子育てサポート・ふれ愛　大和西大寺北校","nameKana":"こそだてさぽとふれあいやまとさいだいじきたこう","corp":"特定非営利活動法人子育てサポート・ふれ愛","serviceTypes":["児童発達支援","放課後等デイサービス"],"ward":"奈良市","address":"奈良県奈良市奈良市サンローゼビル3階","tel":"0742-34-5700","url":"https://kosodate-fureai.com/","lat":34.68510599,"lng":135.80500813,"weekday":"10:00-16:30","saturday":"10:00-13:50","sunday":"","holiday":"","closed":"火曜日、日祝","capacity":10,"id":"2950161444"},{"name":"児童デイサービス　わかば園","nameKana":"じどうでいさーびすわかばえん","corp":"山栄商事合同会社","serviceTypes":["児童発達支援","放課後等デイサービス"],"ward":"奈良市","address":"奈良県奈良市北永井町３４４−１８","tel":"0742-64-0711","url":"","lat":34.65499293,"lng":135.82181296,"weekday":"","saturday":"","sunday":"","holiday":"","closed":"","capacity":10,"id":"2950170239"},{"name":"こども発達支援教室Ｇｏｏｄｙ","nameKana":"こどもはったつしえんきょうしつぐっでぃー","corp":"株式会社ＧＯＯＤＹ","serviceTypes":["児童発達支援","放課後等デイサービス"],"ward":"奈良市","address":"奈良県奈良市学園大和町３丁目２１３番地","tel":"0742-43-9636","url":"https://cdsc-goody.com/","lat":34.68538015,"lng":135.74748802,"weekday":"11:30-19:00","saturday":"09:30-15:30","sunday":"","holiday":"","closed":"日祝日（お盆休み、年末年始）","capacity":10,"id":"2950170775"},{"name":"かぶとむし","nameKana":"かぶとむし","corp":"合同会社かぶとむし","serviceTypes":["児童発達支援","放課後等デイサービス"],"ward":"奈良市","address":"奈良県奈良市中山町43-2","tel":"0742-31-5484","url":"","lat":34.70952486,"lng":135.77012439,"weekday":"13:45-17:45","saturday":"09:30-16:00","sunday":"","holiday":"09:30-16:00","closed":"日曜日","capacity":10,"id":"2950171096"},{"name":"そらはるか","nameKana":"そらはるか","corp":"合同会社芽育の里","serviceTypes":["児童発達支援","放課後等デイサービス"],"ward":"奈良市","address":"奈良県奈良市南京終町七丁目５４０−５","tel":"0742-50-2882","url":"","lat":34.66570847,"lng":135.82393765,"weekday":"09:20-11:00","saturday":"16:00-17:40","sunday":"","holiday":"","closed":"日・祝日・その他都合により休む場合あり","capacity":10,"id":"2950171385"},{"name":"ミライトジュニア高田教室","nameKana":"みらいとじゅにあたかだきょうしつ","corp":"株式会社みらいと","serviceTypes":["児童発達支援","放課後等デイサービス"],"ward":"大和高田市","address":"奈良県大和高田市片塩町11番18号廣田ビル2F","tel":"0745-43-8153","url":"https://www.mi-right.com/","lat":34.50872458,"lng":135.74373846,"weekday":"","saturday":"","sunday":"","holiday":"","closed":"","capacity":10,"id":"2950800025"},{"name":"ミライトプライム高田市駅前","nameKana":"みらいとぷらいむたかだしえきまえ","corp":"株式会社みらいと","serviceTypes":["児童発達支援","放課後等デイサービス"],"ward":"大和高田市","address":"奈良県大和高田市片塩町16-11中島ﾋﾞﾙ3F","tel":"0745-25-0028","url":"https://www.mi-right.com/","lat":34.50739973,"lng":135.74234975,"weekday":"","saturday":"","sunday":"","holiday":"","closed":"日曜日","capacity":10,"id":"2950800074"},{"name":"スタディリーフ","nameKana":"すたでぃりーふ","corp":"株式会社Ｔｒｅｅ．ｎｏｔｅ","serviceTypes":["児童発達支援","放課後等デイサービス"],"ward":"北葛城郡河合町","address":"奈良県北葛城郡河合町星和台2-1-21星和台プラザ102","tel":"0745-43-9884","url":"http://studyleaf2023.com","lat":34.58566147,"lng":135.71714749,"weekday":"14:30-21:00","saturday":"08:30-15:00","sunday":"08:30-15:00","holiday":"14:30-21:00","closed":"日曜日","capacity":10,"id":"2951500319"},{"name":"はぐっこ園","nameKana":"はぐっこえん","corp":"株式会社聖","serviceTypes":["児童発達支援","放課後等デイサービス"],"ward":"大和高田市","address":"奈良県大和高田市築山494-11","tel":"0745-60-1345","url":"","lat":34.52441107,"lng":135.73056711,"weekday":"","saturday":"","sunday":"","holiday":"","closed":"","capacity":null,"id":"2950800108"},{"name":"にじいろ城山台","nameKana":"にじいろしろやまだい","corp":"株式会社にじいろ","serviceTypes":["児童発達支援","放課後等デイサービス"],"ward":"生駒郡三郷町","address":"奈良県生駒郡三郷町城山台4-6-5","tel":"0745-47-0120","url":"","lat":34.59804873,"lng":135.6846417,"weekday":"","saturday":"","sunday":"","holiday":"","closed":"火曜日、水曜日","capacity":10,"id":"2950500054"},{"name":"こども支援センターキティ","nameKana":"こどもしえんせんたーきてぃ","corp":"一般社団法人むぎのめ会","serviceTypes":["児童発達支援","放課後等デイサービス"],"ward":"大和高田市","address":"奈良県大和高田市池尻102-2","tel":"0745-52-0766","url":"https://muginomekai.com","lat":34.52463366,"lng":135.74980719,"weekday":"","saturday":"","sunday":"","holiday":"","closed":"国民の祝日、年末年始12月29日〜年始1月4日、お盆","capacity":10,"id":"2950861589"},{"name":"介護サービスしず　放課後等デイサービスひまわり","nameKana":"かいごさーびすしずほうかごとうでいさーびすひまわり","corp":"株式会社介護サービスしず","serviceTypes":["児童発達支援","放課後等デイサービス"],"ward":"大和高田市","address":"奈良県大和高田市藤森３４７−１","tel":"0745-53-8690","url":"","lat":34.53112453,"lng":135.75116274,"weekday":"","saturday":"","sunday":"","holiday":"","closed":"","capacity":null,"id":"2950860284"},{"name":"放課後等デイサービスＺＥＲＯ","nameKana":"ほうかごとうでいさーびすぜろ","corp":"株式会社ＺＥＲＯ","serviceTypes":["児童発達支援","放課後等デイサービス"],"ward":"大和高田市","address":"奈良県大和高田市田井６５番地の１","tel":"0745-25-3023","url":"http://hp.kaipoke.biz/z9n/","lat":34.4991704,"lng":135.75371819,"weekday":"14:00-17:00","saturday":"10:00-16:30","sunday":"","holiday":"10:00-16:30","closed":"日曜日","capacity":10,"id":"2950870986"},{"name":"ミオの家児童デイサービス","nameKana":"みおのいえじどうでいさーびす","corp":"有限会社　ミオの家","serviceTypes":["児童発達支援","放課後等デイサービス"],"ward":"大和高田市","address":"奈良県大和高田市吉井１８−１","tel":"0745-25-7880","url":"","lat":34.48795235,"lng":135.75598215,"weekday":"","saturday":"","sunday":"","holiday":"","closed":"","capacity":null,"id":"2950870572"},{"name":"一般社団法人　大和健康ＣＬＵＢ","nameKana":"いっぱんしゃだんほうじんやまとけんこうくらぶ","corp":"一般社団法人大和健康ＣＬＵＢ","serviceTypes":["児童発達支援","放課後等デイサービス"],"ward":"大和高田市","address":"奈良県大和高田市市場７９２−１０","tel":"0745-47-0932","url":"http://www.eonet.ne.jp/~yonegon/yamato/index.html","lat":34.51467912,"lng":135.7328644,"weekday":"11:00-18:30","saturday":"10:30-17:30","sunday":"","holiday":"","closed":"日曜日・月曜日","capacity":10,"id":"2950861233"},{"name":"大和健康ＣＬＵＢ　ｐｕｒｅ","nameKana":"やまとけんこうくらぶぷれ","corp":"一般社団法人大和健康ＣＬＵＢ","serviceTypes":["児童発達支援","放課後等デイサービス"],"ward":"大和高田市","address":"奈良県大和高田市大字大中２２番地２３","tel":"0745-47-1397","url":"http://www.eonet.ne.jp/~yonegon/yamato/index.html","lat":34.51453753,"lng":135.7356058,"weekday":"","saturday":"","sunday":"","holiday":"","closed":"","capacity":null,"id":"2950861456"},{"name":"重症心身障がい児デイサービス　あいでるーむ","nameKana":"あいでるーむ","corp":"株式会社アイデル","serviceTypes":["児童発達支援","放課後等デイサービス"],"ward":"大和高田市","address":"奈良県大和高田市大字西坊城町５１番地２","tel":"0745-43-8227","url":"http://www.aidel.co.jp","lat":34.5157513,"lng":135.7374029,"weekday":"09:30-17:30","saturday":"","sunday":"","holiday":"","closed":"土、日、祝","capacity":5,"id":"2950870945"},{"name":"ゆいろの実","nameKana":"ゆいろのみ","corp":"合同会社田村企画","serviceTypes":["児童発達支援"],"ward":"大和郡山市","address":"奈良県大和郡山市紺屋町43-1-1","tel":"080-7222-0320","url":"","lat":34.6480817,"lng":135.78570499,"weekday":"","saturday":"","sunday":"","holiday":"","closed":"","capacity":null,"id":"2950200044"},{"name":"ゆいろ","nameKana":"ゆいろ","corp":"合同会社田村企画","serviceTypes":["児童発達支援"],"ward":"大和郡山市","address":"奈良県大和郡山市柳町81番地1中川ﾋﾞﾙ1階","tel":"080-4764-1587","url":"https://yuiro-yamatokoroyama.weebly.com/","lat":34.64464594,"lng":135.78614944,"weekday":"","saturday":"","sunday":"","holiday":"","closed":"","capacity":null,"id":"2950200085"},{"name":"ありあり","nameKana":"ありあり","corp":"一般社団法人おたがいさま","serviceTypes":["児童発達支援","放課後等デイサービス"],"ward":"大和郡山市","address":"奈良県大和郡山市城町1681-120","tel":"0743-61-5329","url":"https://otagaisama-yamatokooriyama.gift/","lat":34.65853866,"lng":135.76801999,"weekday":"10:00-17:00","saturday":"10:00-16:00","sunday":"","holiday":"","closed":"日曜日、国民の祝日及び8月13日から15日と12月29日から1月3日","capacity":10,"id":"2950271524"},{"name":"にょきにょき","nameKana":"にょきにょき","corp":"一般社団法人おたがいさま","serviceTypes":["児童発達支援","放課後等デイサービス"],"ward":"大和郡山市","address":"奈良県大和郡山市新町783-5","tel":"0743-20-5016","url":"https://otagaisama-yamatokooriyama.gift","lat":34.6376178,"lng":135.74753876,"weekday":"12:30-17:00","saturday":"10:00-16:00","sunday":"","holiday":"","closed":"日曜日、祝日、盆休み、年末年始","capacity":5,"id":"2950200077"},{"name":"ＨＵＧ　ＣＨＩＬＤ　発育サポート教室","nameKana":"はぐちゃいるどはついくさぽーときょうしつ","corp":"合同会社グランツ","serviceTypes":["児童発達支援","放課後等デイサービス"],"ward":"大和郡山市","address":"奈良県大和郡山市野垣内町72番地15","tel":"0743-85-6088","url":"https://hugc.co.jp/","lat":34.65032324,"lng":135.791599,"weekday":"09:00-18:00","saturday":"09:00-18:00","sunday":"","holiday":"","closed":"日曜、祝日","capacity":10,"id":"2950200028"},{"name":"ＨＵＧ　ＣＨＩＬＤ発育サポート教室　Ｓｍｉｌｅ","nameKana":"はぐちゃいるどはついくさぽーときょうしつすまいる","corp":"合同会社グランツ","serviceTypes":["児童発達支援","放課後等デイサービス"],"ward":"大和郡山市","address":"奈良県大和郡山市高田町245番地1","tel":"0743-84-8350","url":"https://hugc.co.jp/","lat":34.6467736,"lng":135.79097684,"weekday":"09:00-18:00","saturday":"09:00-18:00","sunday":"","holiday":"","closed":"日曜、祝日","capacity":10,"id":"2950200127"},{"name":"学習サポートscrum　kids","nameKana":"がくしゅうさぽーとすくらむきっず","corp":"合同会社クラスター・イノベーション","serviceTypes":["児童発達支援","放課後等デイサービス"],"ward":"大和郡山市","address":"奈良県大和郡山市小泉町547-7和真庵ﾋﾞﾙ102","tel":"0743-54-1185","url":"https://agao.jp","lat":34.62435288,"lng":135.76168497,"weekday":"15:00-20:00","saturday":"13:00-18:00","sunday":"","holiday":"13:00-18:00","closed":"日曜、お盆休暇、年末年始（12/29〜1/3）","capacity":10,"id":"2950200119"},{"name":"奈良こども療育学園「びりーぶ」","nameKana":"ならこどもりょういくがくえんびりーぶ","corp":"合同会社MARUO","serviceTypes":["児童発達支援","放課後等デイサービス"],"ward":"大和郡山市","address":"奈良県大和郡山市柳町198番地1辻村ビル2階","tel":"0743-25-6557","url":"","lat":34.64374322,"lng":135.78417182,"weekday":"","saturday":"","sunday":"","holiday":"","closed":"","capacity":null,"id":"2950200051"},{"name":"ＤＲＩＶＥ","nameKana":"どらいぶ","corp":"株式会社ＯＰＬＵＳ","serviceTypes":["児童発達支援","放課後等デイサービス"],"ward":"大和郡山市","address":"奈良県大和郡山市矢田町6554番地3ヨークビル1階","tel":"0743-85-4730","url":"","lat":34.63220997,"lng":135.74757492,"weekday":"","saturday":"","sunday":"","holiday":"","closed":"","capacity":null,"id":"2951500327"},{"name":"児童発達支援toiro","nameKana":"じどうはったつしえんといろ","corp":"合同会社Ｔｏｉｒｏ","serviceTypes":["児童発達支援"],"ward":"大和郡山市","address":"奈良県大和郡山市矢田町6420-17岡田テナント2･3号","tel":"0743-25-1530","url":"","lat":34.63701506,"lng":135.74717492,"weekday":"","saturday":"","sunday":"","holiday":"","closed":"","capacity":null,"id":"2950200135"},{"name":"アイリー児童発達支援・放課後等デイサービス【重症心身障害・医療的ケア】","nameKana":"あいりーじどうはったつしえんほうかごとうでいさーびすじゅうしょうしんしんしょうがいいりょうてきけあ","corp":"株式会社アイリー","serviceTypes":["児童発達支援"],"ward":"大和郡山市","address":"奈良県大和郡山市額田部北町546番地3","tel":"0743254800","url":"https://irie-kango.co.jp/","lat":34.6087109,"lng":135.78150873,"weekday":"10:00-17:00","saturday":"","sunday":"","holiday":"","closed":"土曜、日曜、国民の祝日、12月30日〜1月4日","capacity":5,"id":"2950200143"},{"name":"虹のかけはし","nameKana":"にじのかけはし","corp":"合同会社虹","serviceTypes":["児童発達支援","放課後等デイサービス"],"ward":"大和郡山市","address":"奈良県大和郡山市本庄町138番地3","tel":"0743-57-2101","url":"","lat":34.63664117,"lng":135.78353029,"weekday":"09:00-17:00","saturday":"09:00-17:00","sunday":"","holiday":"09:00-17:00","closed":"日曜日、年末年始","capacity":10,"id":"2950200176"},{"name":"FLOW上牧","nameKana":"ふろーかんまき","corp":"株式会社BASEともかな","serviceTypes":["児童発達支援","放課後等デイサービス"],"ward":"北葛城郡上牧町","address":"奈良県北葛城郡上牧町上牧4728-3","tel":"0745-27-7477","url":"http://base-tomokana.com","lat":34.56018937,"lng":135.70611033,"weekday":"","saturday":"","sunday":"","holiday":"","closed":"","capacity":null,"id":"2951561535"},{"name":"ＦＬＯＷ郡山","nameKana":"ふろーこおりやま","corp":"株式会社BASEともかな","serviceTypes":["児童発達支援","放課後等デイサービス"],"ward":"大和郡山市","address":"奈良県大和郡山市矢田町6554番地3ヨークビル202","tel":"0743-85-6014","url":"http://base-tomokana.com","lat":34.63222386,"lng":135.74755547,"weekday":"","saturday":"","sunday":"","holiday":"","closed":"","capacity":null,"id":"2950261608"},{"name":"ＦＬＯＷ香芝","nameKana":"ふろーかしば","corp":"株式会社BASEともかな","serviceTypes":["児童発達支援"],"ward":"香芝市","address":"奈良県香芝市旭ケ丘一丁目26番地の1井村ﾋﾞﾙ2階","tel":"0745770290","url":"http://base-tomokana.com","lat":34.55488992,"lng":135.69954711,"weekday":"","saturday":"","sunday":"","holiday":"","closed":"","capacity":null,"id":"2951800107"},{"name":"ＦＬＯＷ西真美","nameKana":"ふろーにしまみ","corp":"株式会社BASEともかな","serviceTypes":["児童発達支援","放課後等デイサービス"],"ward":"香芝市","address":"奈良県香芝市西真美一丁目4番地6一行ﾋﾞﾙ1階101号室","tel":"0745-44-8536","url":"","lat":34.54484701,"lng":135.71364058,"weekday":"","saturday":"","sunday":"","holiday":"","closed":"","capacity":null,"id":"2951800149"},{"name":"ＦＬＯＷ岡寺","nameKana":"ふろーおかでら","corp":"株式会社BASEともかな","serviceTypes":["児童発達支援","放課後等デイサービス"],"ward":"橿原市","address":"奈良県橿原市見瀬町617番地の3見瀬町安田ビル1階","tel":"0744-47-4828","url":"http://base-tomokana.com","lat":34.47178846,"lng":135.79787319,"weekday":"09:00-17:00","saturday":"09:00-17:00","sunday":"","holiday":"09:00-17:00","closed":"日曜日、8/15,12/29~1/4","capacity":20,"id":"2951200068"},{"name":"ＦＬＯＷ桜井","nameKana":"ふろーさくらい","corp":"株式会社BASEともかな","serviceTypes":["児童発達支援","放課後等デイサービス"],"ward":"桜井市","address":"奈良県桜井市東新堂366番地の7グリーンタウンＣ・Ｄ号室","tel":"0744-48-3478","url":"http://base-tomokana.com","lat":34.52077991,"lng":135.8330219,"weekday":"09:00-17:00","saturday":"09:00-17:00","sunday":"","holiday":"09:00-17:00","closed":"日曜日,8/15,12/29~1/4","capacity":10,"id":"2950400099"},{"name":"えがお　郡山本店","nameKana":"えがおこおりやまほんてん","corp":"株式会社　松栄会","serviceTypes":["児童発達支援","放課後等デイサービス"],"ward":"大和郡山市","address":"奈良県大和郡山市稗田町３２６−１-","tel":"0743-25-6789","url":"http://egao-shoeikai.co.jp","lat":34.63863013,"lng":135.79519044,"weekday":"13:00-17:00","saturday":"09:00-17:00","sunday":"09:00-17:00","holiday":"09:00-17:00","closed":"年末年始(年度により異なります)","capacity":20,"id":"2950270534"},{"name":"発達支援センター「めばえ」","nameKana":"はったつしえんせんたーめばえ","corp":"社会福祉法人大和郡山市社会福祉協議会","serviceTypes":["児童発達支援"],"ward":"大和郡山市","address":"奈良県大和郡山市植槻町３−８","tel":"0743-53-6534","url":"","lat":34.65347827,"lng":135.77993309,"weekday":"09:00-16:30","saturday":"09:00-12:00","sunday":"","holiday":"","closed":"日曜日・祝日・12/29~1/3","capacity":20,"id":"2950260097"},{"name":"すてっぷ","nameKana":"すてっぷ","corp":"特定非営利活動法人いっぽの会","serviceTypes":["児童発達支援","放課後等デイサービス"],"ward":"大和郡山市","address":"奈良県大和郡山市筒井町９５０−１","tel":"0743-61-5358","url":"http://ippo*step.com","lat":34.61761279,"lng":135.78608869,"weekday":"12:00-17:00","saturday":"10:00-16:00","sunday":"10:00-16:00","holiday":"10:00-16:00","closed":"土曜日・祝日･日曜日（場合により営業）","capacity":10,"id":"2950271417"},{"name":"やまと精神医療センター「ほほえみ」","nameKana":"やまとせいしんいりょうせんたーほほえみ","corp":"独立行政法人国立病院機構やまと精神医療センター","serviceTypes":["児童発達支援","放課後等デイサービス"],"ward":"大和郡山市","address":"奈良県大和郡山市小泉町２８１５番地","tel":"0743-52-3081","url":"","lat":34.63164898,"lng":135.7495303,"weekday":"","saturday":"","sunday":"","holiday":"","closed":"","capacity":null,"id":"2950261012"},{"name":"こども支援ルームここにこ","nameKana":"こどもしえんるーむここにこ","corp":"enをつくる合同会社","serviceTypes":["児童発達支援","放課後等デイサービス"],"ward":"生駒市","address":"奈良県生駒市山崎町21番24号","tel":"0743-86-4377","url":"https://coconico.cc/","lat":34.68946001,"lng":135.70810792,"weekday":"09:00-17:00","saturday":"","sunday":"","holiday":"","closed":"土曜日・日曜日・祝日・12月29日〜1月3日","capacity":10,"id":"2950300125"},{"name":"あまね","nameKana":"あまね","corp":"株式会社ＣＡＳＡ　ＤＥＬ　ＳＯＬＥ","serviceTypes":["児童発達支援","放課後等デイサービス"],"ward":"天理市","address":"奈良県天理市富堂町185番地1","tel":"0743-84-4966","url":"","lat":34.59509669,"lng":135.82177746,"weekday":"09:00-17:00","saturday":"09:00-17:00","sunday":"","holiday":"09:00-17:00","closed":"日曜日、月曜日","capacity":7,"id":"2950900031"},{"name":"わくわくホーム「風」","nameKana":"わくわくほーむかぜ","corp":"一般社団法人ｋｏｍｏｒｅｂｉ","serviceTypes":["児童発達支援","放課後等デイサービス"],"ward":"天理市","address":"奈良県天理市三島町183-1","tel":"0743-85-6801","url":"","lat":34.6023684,"lng":135.83783952,"weekday":"12:30-17:00","saturday":"12:30-17:00","sunday":"","holiday":"","closed":"","capacity":5,"id":"2950900049"},{"name":"児童発達支援・放課後等デイサービスジニア","nameKana":"じどうはったつしえんほうかごとうでいさーびすじにあ","corp":"合同会社ルリアン","serviceTypes":["児童発達支援","放課後等デイサービス"],"ward":"大和高田市","address":"奈良県大和高田市北本町13-11杉本ビル2階","tel":"090-6139-7086","url":"https://www.mylelien.com/","lat":34.51953696,"lng":135.74222729,"weekday":"15:30-17:30","saturday":"09:30-11:30","sunday":"","holiday":"","closed":"月曜・日曜・祝日","capacity":10,"id":"2950800116"},{"name":"児童発達支援・放課後等デイサービスさくら","nameKana":"じどうはったつしえんほうかごとうでいさーびすさくら","corp":"株式会社大樹会","serviceTypes":["児童発達支援","放課後等デイサービス"],"ward":"橿原市","address":"奈良県橿原市土橋町191-3","tel":"0744-37-2356","url":"https://dayservice-sakura.net","lat":34.52320645,"lng":135.77589093,"weekday":"10:00-17:00","saturday":"10:00-17:00","sunday":"","holiday":"10:00-17:00","closed":"日曜・GW・年末年始","capacity":5,"id":"2951200167"},{"name":"発達支援ルームよろこびキッズ","nameKana":"はったつしえんるーむよろこびきっず","corp":"株式会社大樹会","serviceTypes":["児童発達支援","放課後等デイサービス"],"ward":"天理市","address":"奈良県天理市三島町117","tel":"0743-25-1516","url":"https://yorokobi-hiroba.net/kids/.","lat":34.60305993,"lng":135.83470924,"weekday":"","saturday":"","sunday":"","holiday":"","closed":"","capacity":null,"id":"2950900080"},{"name":"放課後等デイサービスウィズ・ユー天理","nameKana":"ほうかごとうでいさーびすうぃずゆーてんり","corp":"Ｍ．Ｒ．Ｔ．Ｈ合同会社","serviceTypes":["児童発達支援","放課後等デイサービス"],"ward":"天理市","address":"奈良県天理市川原城町645-1シャルム１F","tel":"0743-85-5723","url":"https://www.with-ac.com","lat":34.60285155,"lng":135.83103739,"weekday":"11:00-17:00","saturday":"10:00-16:00","sunday":"","holiday":"10:00-16:00","closed":"日曜日","capacity":10,"id":"2950900098"},{"name":"おひさまはうす　きっず","nameKana":"おひさまはうすきっず","corp":"あん傘ぶる株式会社","serviceTypes":["児童発達支援","放課後等デイサービス"],"ward":"天理市","address":"奈良県天理市二階堂上ノ庄町２７９−１","tel":"0743-85-6662","url":"","lat":34.5966468,"lng":135.8373314,"weekday":"09:00-17:00","saturday":"09:00-17:00","sunday":"","holiday":"09:00-17:00","closed":"","capacity":10,"id":"2950961108"},{"name":"放課後等デイサービスおむすびやま","nameKana":"ほうかごとうでいさーびすおむすびやま","corp":"株式会社清春おむすび","serviceTypes":["児童発達支援"],"ward":"天理市","address":"奈良県天理市勾田町74-5","tel":"0743-20-2252","url":"","lat":34.58983919,"lng":135.83549295,"weekday":"","saturday":"","sunday":"","holiday":"","closed":"","capacity":null,"id":"2950971503"},{"name":"放課後等デイサービスおむすび","nameKana":"ほうかごとうでいさーびすおむすび","corp":"株式会社清春おむすび","serviceTypes":["児童発達支援","放課後等デイサービス"],"ward":"天理市","address":"奈良県天理市三島町４２５−１","tel":"0743-87-9841","url":"http://k-omusubi.com","lat":34.60038258,"lng":135.84123926,"weekday":"12:00-18:00","saturday":"09:00-17:00","sunday":"09:00-17:00","holiday":"09:00-17:00","closed":"年始1〜3","capacity":10,"id":"2950961140"},{"name":"ぐりーん岡寺支店","nameKana":"ぐりーんおかでらしてん","corp":"株式会社ぐりーん","serviceTypes":["児童発達支援","放課後等デイサービス"],"ward":"橿原市","address":"奈良県橿原市見瀬町５９５−３","tel":"0743-62-7557","url":"","lat":34.5094501,"lng":135.7926255,"weekday":"","saturday":"","sunday":"","holiday":"","closed":"","capacity":null,"id":"2951271580"},{"name":"ぐりーん田原本支店","nameKana":"ぐりーんたわらもとしてん","corp":"株式会社ぐりーん","serviceTypes":["児童発達支援","放課後等デイサービス"],"ward":"磯城郡田原本町","address":"奈良県磯城郡田原本町阪手638-1","tel":"0743-62-7557","url":"https://www.green-2017.com/","lat":34.54983435,"lng":135.7974362,"weekday":"13:00-17:00","saturday":"","sunday":"","holiday":"","closed":"12月30日〜1月5日","capacity":10,"id":"2950700027"},{"name":"ぐりーん　天理支店","nameKana":"ぐりーんてんりしてん","corp":"株式会社ぐりーん","serviceTypes":["児童発達支援","放課後等デイサービス"],"ward":"天理市","address":"奈良県天理市岩室町５７−４","tel":"0743-53-2810","url":"https://www.green-2017.com/","lat":34.59526599,"lng":135.81565583,"weekday":"13:00-17:00","saturday":"09:00-17:00","sunday":"09:00-17:00","holiday":"09:00-17:00","closed":"12月30日〜1月5日","capacity":10,"id":"2950961082"},{"name":"ぐりーん橿原支店","nameKana":"ぐりーんかしはらしてん","corp":"株式会社ぐりーん","serviceTypes":["児童発達支援","放課後等デイサービス"],"ward":"橿原市","address":"奈良県橿原市十市町８４３−２","tel":"0744-29-8073","url":"https://www.green-2017.com/","lat":34.53186135,"lng":135.79725564,"weekday":"13:00-17:00","saturday":"09:00-17:00","sunday":"09:00-17:00","holiday":"09:00-17:00","closed":"12月30日〜1月3日","capacity":10,"id":"2951261169"},{"name":"なごみ","nameKana":"なごみ","corp":"社会福祉法人天理","serviceTypes":["児童発達支援","放課後等デイサービス"],"ward":"天理市","address":"奈良県天理市別所町７１５番地３","tel":"0743-63-8220","url":"http://nagomi8220.sakura.ne.jp/7153/","lat":34.61019541,"lng":135.84066119,"weekday":"09:30-15:30","saturday":"10:00-18:00","sunday":"10:00-18:00","holiday":"10:00-18:00","closed":"土・日・祝日","capacity":10,"id":"2950960100"},{"name":"チャレンジまなびや","nameKana":"ちゃれんじまなびや","corp":"株式会社チャレンジまなびや","serviceTypes":["児童発達支援","放課後等デイサービス"],"ward":"天理市","address":"奈良県天理市田井庄町５９３","tel":"0743-85-7938","url":"https://c-manabiya.com/","lat":34.5998296,"lng":135.82757673,"weekday":"14:00-18:00","saturday":"14:00-18:00","sunday":"","holiday":"","closed":"日曜と祝日","capacity":10,"id":"2950970521"},{"name":"天理市療育教室　杉の子学級","nameKana":"てんりしりょういくきょうしつすぎのこがっきゅう","corp":"天理市","serviceTypes":["児童発達支援"],"ward":"天理市","address":"奈良県天理市丹波市町１９６番地１","tel":"0743-63-4598","url":"","lat":34.59582453,"lng":135.82961277,"weekday":"","saturday":"","sunday":"","holiday":"","closed":"","capacity":null,"id":"2950960118"},{"name":"ぐりーん菅原支店","nameKana":"ぐりーんすがわらしてん","corp":"株式会社ぐりーん","serviceTypes":["児童発達支援","放課後等デイサービス"],"ward":"奈良市","address":"奈良県奈良市西大寺国見町3丁目2番10号","tel":"0743-62-7557","url":"https://www.green-2017.com/","lat":34.68416132,"lng":135.7816489,"weekday":"13:00-17:30","saturday":"","sunday":"","holiday":"","closed":"12月30日〜1月5日","capacity":10,"id":"2950161055"},{"name":"にじいろくれよん","nameKana":"にじいろくれよん","corp":"株式会社にじいろくれよん","serviceTypes":["児童発達支援","放課後等デイサービス"],"ward":"橿原市","address":"奈良県橿原市八木町2丁目7番12号","tel":"0744-41-6257","url":"https://nijiirocrayon.com/","lat":34.51074722,"lng":135.79515026,"weekday":"09:30-17:30","saturday":"00:00-00:00","sunday":"00:00-00:00","holiday":"00:00-00:00","closed":"日・祝","capacity":10,"id":"2951271614"},{"name":"かんがエール","nameKana":"かんがえーる","corp":"合同会社ｆｆｌａｂｏ","serviceTypes":["児童発達支援","放課後等デイサービス"],"ward":"橿原市","address":"奈良県橿原市新賀町235番地6橋本第一ビル2階","tel":"0744-25-7082","url":"","lat":34.51574381,"lng":135.79506414,"weekday":"","saturday":"","sunday":"","holiday":"","closed":"","capacity":null,"id":"2951261649"},{"name":"おみそ","nameKana":"おみそ","corp":"株式会社ＡＹＵＭＯ","serviceTypes":["児童発達支援","放課後等デイサービス"],"ward":"橿原市","address":"奈良県橿原市内膳町2丁目8-36","tel":"0744-22-7883","url":"https://www.ayumo-omiso.com/","lat":34.51193866,"lng":135.78955075,"weekday":"","saturday":"","sunday":"","holiday":"","closed":"日曜日、月曜日","capacity":10,"id":"2951261672"},{"name":"おみそマッスル","nameKana":"おみそまっする","corp":"株式会社ＡＹＵＭＯ","serviceTypes":["児童発達支援","放課後等デイサービス"],"ward":"大和高田市","address":"奈良県大和高田市大谷710-18","tel":"0745-24-5023","url":"https://www.ayumo-omiso.com","lat":34.52541645,"lng":135.72860896,"weekday":"","saturday":"","sunday":"","holiday":"","closed":"","capacity":null,"id":"2950800058"},{"name":"リハビリ発達支援ルームUTキッズ奈良","nameKana":"りはびりはったつしえんるーむゆーてぃーきっずなら","corp":"株式会社UTケアシステム","serviceTypes":["児童発達支援","放課後等デイサービス"],"ward":"奈良市","address":"奈良県奈良市平松一丁目27-1-1","tel":"0742-93-3390","url":"http://utcaresystem.com/","lat":34.68026723,"lng":135.77565224,"weekday":"09:00-18:00","saturday":"09:00-18:00","sunday":"","holiday":"","closed":"木曜日、日曜日、国民の祝日、お盆、年末年始","capacity":null,"id":"2950100129"},{"name":"合同会社放課後等デイサービスにじ","nameKana":"ごうどうがいしゃほうかごとうでいさーびすにじ","corp":"合同会社放課後等デイサービスにじ","serviceTypes":["児童発達支援","放課後等デイサービス"],"ward":"橿原市","address":"奈良県橿原市中曽司町216番23号","tel":"0744-47-3856","url":"","lat":34.51972622,"lng":135.7698803,"weekday":"","saturday":"","sunday":"","holiday":"","closed":"","capacity":null,"id":"2951200092"},{"name":"こども発達支援ぴったんこ","nameKana":"こどもはったつしえんぴったんこ","corp":"株式会社リハックス","serviceTypes":["児童発達支援","放課後等デイサービス"],"ward":"磯城郡田原本町","address":"奈良県磯城郡田原本町千代44-1","tel":"0744-48-3140","url":"https://www.rehax2015.com/service/pittanko/","lat":34.54350177,"lng":135.80043315,"weekday":"10:00-14:30","saturday":"","sunday":"","holiday":"","closed":"土曜日、日曜日、祝日、年末年始","capacity":5,"id":"2950700100"},{"name":"ポムリエサード","nameKana":"ぽむりえさーど","corp":"株式会社ジーキッズ","serviceTypes":["児童発達支援","放課後等デイサービス"],"ward":"五條市","address":"奈良県五條市五條2丁目2-6","tel":"0747-24-5082","url":"https://pomurie.com","lat":34.35256058,"lng":135.69864265,"weekday":"","saturday":"","sunday":"","holiday":"","closed":"","capacity":null,"id":"2951461637"},{"name":"放課後等デイサービスポムリエ　","nameKana":"ほうかごとうでいさーびすぽむりえ","corp":"株式会社ジーキッズ","serviceTypes":["児童発達支援"],"ward":"橿原市","address":"奈良県橿原市新賀町２００−１","tel":"0744-20-2009","url":"http://www.pomurie.com","lat":34.51771579,"lng":135.79622515,"weekday":"","saturday":"","sunday":"","holiday":"","closed":"","capacity":null,"id":"2951270673"},{"name":"児童発達支援すてっぷ","nameKana":"じどうはったつしえんすてっぷ","corp":"社会福祉法人やまと福祉事業団","serviceTypes":["児童発達支援"],"ward":"橿原市","address":"奈良県橿原市小房町13番4号自立支援センターかしはら北館2階","tel":"0744-20-3110","url":"","lat":34.49841555,"lng":135.79615312,"weekday":"","saturday":"","sunday":"","holiday":"","closed":"","capacity":null,"id":"2951200050"},{"name":"ファミリーサポートこおりやま「宇宙」","nameKana":"ふぁみりーさぽーとこおりやまそら","corp":"社会福祉法人やまと福祉事業団","serviceTypes":["児童発達支援","放課後等デイサービス"],"ward":"大和郡山市","address":"奈良県大和郡山市小林町２９３番地の１","tel":"0743-56-2323","url":"","lat":34.61998972,"lng":135.76866788,"weekday":"","saturday":"","sunday":"","holiday":"","closed":"","capacity":null,"id":"2950260428"},{"name":"なら子ども発達支援センター「ふぁ〜すと」","nameKana":"ならこどもはったつしえんせんたーふぁーすと","corp":"社会福祉法人やまと福祉事業団","serviceTypes":["児童発達支援"],"ward":"橿原市","address":"奈良県橿原市小房町１３番４号自立支援センターかしはら北館2Ｆ","tel":"0744-20-3110","url":"","lat":34.49841555,"lng":135.79615312,"weekday":"","saturday":"","sunday":"","holiday":"","closed":"","capacity":null,"id":"2951221112"},{"name":"ファミリーサポートかしはら「たいよう」","nameKana":"ふぁみりーさぽーとかしはらたいよう","corp":"社会福祉法人やまと福祉事業団","serviceTypes":["児童発達支援","放課後等デイサービス"],"ward":"橿原市","address":"奈良県橿原市小房町１３番２号","tel":"0744-47-0221","url":"","lat":34.49813504,"lng":135.79630033,"weekday":"","saturday":"","sunday":"","holiday":"","closed":"","capacity":null,"id":"2951260229"},{"name":"ファミリーサポートかしはら「銀河」","nameKana":"ふぁみりーさぽーとかしはらぎんが","corp":"社会福祉法人やまと福祉事業団","serviceTypes":["児童発達支援","放課後等デイサービス"],"ward":"橿原市","address":"奈良県橿原市四条町２７７−１シェ・ホーム・ヤマ１０２号","tel":"0744-20-0880","url":"","lat":34.50065413,"lng":135.795742,"weekday":"","saturday":"","sunday":"","holiday":"","closed":"","capacity":null,"id":"2951261334"},{"name":"ファミリーサポートせいわ「大地」","nameKana":"ふぁみりーさぽーとせいわだいち","corp":"社会福祉法人やまと福祉事業団","serviceTypes":["児童発達支援","放課後等デイサービス"],"ward":"北葛城郡上牧町","address":"奈良県北葛城郡上牧町上牧３４３９−１７","tel":"0745-71-5051","url":"","lat":34.56667485,"lng":135.71389566,"weekday":"","saturday":"","sunday":"","holiday":"","closed":"","capacity":null,"id":"2951570130"},{"name":"かしの木園","nameKana":"かしのきえん","corp":"橿原市役所","serviceTypes":["児童発達支援"],"ward":"橿原市","address":"奈良県橿原市白橿町８−１９−１子ども総合支援センター","tel":"0744-27-8585","url":"https://www.city.kashihara.nara.jp/soshiki/1064/gyomu/1/1/index.html","lat":34.47064127,"lng":135.7901433,"weekday":"09:00-16:30","saturday":"","sunday":"","holiday":"","closed":"土日祝日、12月29日から1月3日","capacity":60,"id":"2951260013"},{"name":"リハビリ発達支援ルーム　UTキッズ広陵","nameKana":"りはびりはったつしえんるーむゆーてぃきっずこうりょう","corp":"株式会社ＵＴケアシステム","serviceTypes":["児童発達支援","放課後等デイサービス","居宅訪問型児童発達支援"],"ward":"北葛城郡広陵町","address":"奈良県北葛城郡広陵町笠161番地2広陵町総合保健福祉会館内","tel":"0745-43-7571","url":"https://utcaresystem.com/","lat":34.54288407,"lng":135.7448466,"weekday":"09:00-18:00","saturday":"09:00-18:00","sunday":"","holiday":"","closed":"木曜日、日曜日、国民の祝日、お盆、年末年始","capacity":10,"id":"2951561584"},{"name":"リハビリ発達支援ルームUTキッズ河合","nameKana":"りはびりはったつしえんるーむゆーてぃきっずかわい","corp":"株式会社ＵＴケアシステム","serviceTypes":["児童発達支援"],"ward":"北葛城郡河合町","address":"奈良県北葛城郡河合町山坊463-1","tel":"0745-58-2099","url":"https://utcaresystem.com/","lat":34.57105807,"lng":135.73379938,"weekday":"10:00-19:00","saturday":"10:00-19:00","sunday":"","holiday":"","closed":"日曜日、国民の祝日、お盆、年末年始","capacity":10,"id":"2951571401"},{"name":"リハビリ発達支援ルームUTキッズ大和高田","nameKana":"りはびりはったつしえんるーむゆーてぃーきっずやまとたかだ","corp":"株式会社ＵＴケアシステム","serviceTypes":["児童発達支援","放課後等デイサービス"],"ward":"大和高田市","address":"奈良県大和高田市北片塩町8-13","tel":"0745-44-3368","url":"https://utcaresystem.com/","lat":34.50980498,"lng":135.74365233,"weekday":"09:00-18:00","saturday":"09:00-18:00","sunday":"","holiday":"","closed":"日曜日、国民の祝日、お盆、年末年始","capacity":null,"id":"2950861621"},{"name":"リハビリ発達支援ルームＵＴキッズ大和八木","nameKana":"りはびりはったつしえんるーむゆーてぃーきっずやまとやぎ","corp":"株式会社ＵＴケアシステム","serviceTypes":["児童発達支援","放課後等デイサービス"],"ward":"橿原市","address":"奈良県橿原市八木町1丁目7-1大和センタービル1階","tel":"0744-33-9771","url":"https://utcaresystem.com/","lat":34.50981397,"lng":135.79173946,"weekday":"10:00-19:00","saturday":"09:00-18:00","sunday":"","holiday":"","closed":"木曜日、日曜日、国民の祝日、お盆、年末年始","capacity":10,"id":"2951200027"},{"name":"リハビリ発達支援ルームＵＴキッズ新ノ口","nameKana":"りはびりはったつしえんるーむゆーてぃーきっずにのくち","corp":"株式会社ＵＴケアシステム","serviceTypes":["児童発達支援","放課後等デイサービス"],"ward":"橿原市","address":"奈良県橿原市葛本町201-2池原観光ビル3階","tel":"0744-23-8571","url":"https://utcaresystem.com/","lat":34.52845061,"lng":135.7963335,"weekday":"09:00-18:00","saturday":"09:00-18:00","sunday":"","holiday":"","closed":"木曜日、日曜日、国民の祝日、お盆、年末年始","capacity":10,"id":"2951200084"},{"name":"リハビリ発達支援ルームＵＴキッズ田原本","nameKana":"りはびりはったつしえんるーむゆーてぃきっずたわらもと","corp":"株式会社ＵＴケアシステム","serviceTypes":["児童発達支援","放課後等デイサービス"],"ward":"磯城郡田原本町","address":"奈良県磯城郡田原本町三笠１６６","tel":"0744-34-6616","url":"http://utcaresystem.com","lat":34.55027014,"lng":135.78591792,"weekday":"09:00-18:00","saturday":"09:00-18:00","sunday":"","holiday":"","closed":"木曜日、日曜日、国民の祝日、お盆、年末年始","capacity":10,"id":"2950770616"},{"name":"リハビリ発達支援ルーム　ＵＴキッズ　ｐｌｕｓ","nameKana":"りはびりはったつしえんるーむゆーてぃきっずぷらす","corp":"株式会社ＵＴケアシステム","serviceTypes":["児童発達支援","放課後等デイサービス"],"ward":"橿原市","address":"奈良県橿原市御坊町１５２","tel":"0744-20-2066","url":"https://utcaresystem.com","lat":34.48879182,"lng":135.79468403,"weekday":"09:00-18:00","saturday":"09:00-18:00","sunday":"","holiday":"","closed":"木曜日、日曜日、国民の祝日、お盆、年末年始","capacity":10,"id":"2951270962"},{"name":"リハビリ発達支援ルームＵＴキッズ香芝","nameKana":"りはびりはったつしえんるーむゆーてぃきっずかしば","corp":"株式会社ＵＴケアシステム","serviceTypes":["児童発達支援","放課後等デイサービス"],"ward":"香芝市","address":"奈良県香芝市磯壁６丁目４６２−１４","tel":"0745-71-3400","url":"","lat":34.53086527,"lng":135.70365285,"weekday":"09:00-18:00","saturday":"09:00-18:00","sunday":"","holiday":"","closed":"日曜日、国民の祝日、お盆、年末年始","capacity":10,"id":"2951871173"},{"name":"なごみらんど","nameKana":"なごみらんど","corp":"特定非営利活動法人 木の家 和（ＮＡＧＯＭＩ）","serviceTypes":["児童発達支援","放課後等デイサービス"],"ward":"橿原市","address":"奈良県橿原市四条町７７４番地の５","tel":"0744-46-9239","url":"http://www.kinoie-nagomi.net/","lat":34.50394798,"lng":135.78332634,"weekday":"10:00-18:00","saturday":"09:30-16:30","sunday":"","holiday":"","closed":"　木曜　日曜　祝日","capacity":10,"id":"2951270491"},{"name":"多機能型事業所くれよん","nameKana":"たきのうがたくれよん","corp":"特定非営利活動法人ライフサポートあんしん","serviceTypes":["児童発達支援","放課後等デイサービス"],"ward":"桜井市","address":"奈良県桜井市安倍木材団地2丁目4番12","tel":"0744-55-0018","url":"https://www.kureyon0701.com/index.html","lat":34.50102438,"lng":135.8371719,"weekday":"","saturday":"","sunday":"","holiday":"","closed":"","capacity":null,"id":"2950400024"},{"name":"医療法人社団岡田会発達・教育支援センターアミークス","nameKana":"いりょうほうじんしゃだんおかだかいはったつきょういくしえんせんたーあみーくす","corp":"医療法人社団岡田会","serviceTypes":["児童発達支援","放課後等デイサービス"],"ward":"桜井市","address":"奈良県桜井市辻53番地","tel":"0744-46-3730","url":"https://www.yamanobe.or.jp/amicus/","lat":34.54654952,"lng":135.84138757,"weekday":"09:00-17:00","saturday":"09:00-17:00","sunday":"","holiday":"","closed":"","capacity":10,"id":"2950400032"},{"name":"発達支援ルームよろこびキッズ","nameKana":"はったつしえんるーむよろこびきっず","corp":"一般社団法人大樹会","serviceTypes":["児童発達支援","放課後等デイサービス"],"ward":"天理市","address":"奈良県天理市三島町117","tel":"0743-25-1753","url":"","lat":34.60305993,"lng":135.83470924,"weekday":"10:00-18:00","saturday":"10:00-18:00","sunday":"10:00-18:00","holiday":"10:00-18:00","closed":"年末年始・ＧＷ・お盆","capacity":10,"id":"2950900015"},{"name":"発達支援ルームよろこびキッズきらり","nameKana":"はったつしえんるーむよろこびきっずきらり","corp":"一般社団法人大樹会","serviceTypes":["児童発達支援","放課後等デイサービス"],"ward":"天理市","address":"奈良県天理市川原城町630番地東川ﾋﾞﾙ103","tel":"0743-25-5769","url":"","lat":34.60273769,"lng":135.8320373,"weekday":"10:00-18:00","saturday":"10:00-18:00","sunday":"10:00-18:00","holiday":"10:00-18:00","closed":"年末年始・ＧＷ・お盆","capacity":10,"id":"2950900072"},{"name":"児童発達支援・放課後等デイサービスきらり","nameKana":"じどうはったつしえんほうかごとうでいさーびすきらり","corp":"一般社団法人大樹会","serviceTypes":["児童発達支援","放課後等デイサービス"],"ward":"橿原市","address":"奈良県橿原市土橋町191-3","tel":"0744-43-0707","url":"","lat":34.52320645,"lng":135.77589093,"weekday":"","saturday":"","sunday":"","holiday":"","closed":"","capacity":null,"id":"2951200118"},{"name":"学習サポートｓｃｒｕｍ　ｐｌｕｓ桜井校","nameKana":"がくしゅうさぽーとすくらむぷらすさくらいこう","corp":"株式会社龍幸","serviceTypes":["児童発達支援","放課後等デイサービス"],"ward":"桜井市","address":"奈良県桜井市安倍木材団地1丁目8-12","tel":"0744-47-3482","url":"https://agao.jp/school/plus/004/","lat":34.50101049,"lng":135.83925228,"weekday":"13:00-19:00","saturday":"13:00-17:00","sunday":"","holiday":"","closed":"日曜日・祝日・12月29日〜1月3日","capacity":10,"id":"2950400065"},{"name":"多機能型訓練施設すてき・みらい","nameKana":"たきのうがたくんれんしせつすてきみらい","corp":"株式会社ティー・ブレーン","serviceTypes":["児童発達支援","放課後等デイサービス"],"ward":"磯城郡田原本町","address":"奈良県磯城郡田原本町八尾624番地1","tel":"0744-47-4326","url":"https://masaichi.net./sutekimirai","lat":34.5626634,"lng":135.7932476,"weekday":"10:00-18:00","saturday":"10:00-18:00","sunday":"","holiday":"","closed":"日祝（8/11〜8/15，12/29〜1/3）","capacity":20,"id":"2950700076"},{"name":"多機能型訓練施設すてき・みらい広陵","nameKana":"たきのうがたくんれんしせつすてきみらいこうりょう","corp":"株式会社ティー・ブレーン","serviceTypes":["児童発達支援","放課後等デイサービス"],"ward":"北葛城郡広陵町","address":"奈良県北葛城郡広陵町馬見中1丁目8番16","tel":"0745-44-3417","url":"https://masaichi.net./sutekimirai","lat":34.5456112,"lng":135.73013087,"weekday":"10:00-18:00","saturday":"10:00-18:00","sunday":"","holiday":"","closed":"日祝（8/11〜8/15,12/29〜1/3）","capacity":20,"id":"2951500285"},{"name":"多機能型訓練施設すてき・みらい西真美","nameKana":"たきのうがたくんれんしせつすてきみらいにしまみ","corp":"有限会社とらい・あんぐる","serviceTypes":["児童発達支援","放課後等デイサービス"],"ward":"香芝市","address":"奈良県香芝市西真美2丁目3-29","tel":"0745-51-0833","url":"","lat":34.54518586,"lng":135.71381,"weekday":"10:00-18:00","saturday":"10:00-18:00","sunday":"","holiday":"","closed":"日祝(８/１１〜8/１５,１２/２９〜1/3）","capacity":20,"id":"2951800248"},{"name":"社会福祉法人桜井市社会福祉協議会　児童発達支援事業所　クローバー学園","nameKana":"しゃかいふくしほうじんさくらいししゃかいふくしきょうぎかいじどうはったつしえんじぎょうしょくろーばーがくえん","corp":"社会福祉法人桜井市社会福祉協議会","serviceTypes":["児童発達支援"],"ward":"桜井市","address":"奈良県桜井市粟殿１０００−１桜井市保健福祉センター陽だまり南棟2階","tel":"0744-42-2743","url":"http://www.sakuraisyakyo.jp/","lat":34.5187248,"lng":135.8431989,"weekday":"09:00-17:00","saturday":"","sunday":"","holiday":"","closed":"土・日・祝日・年末年始","capacity":10,"id":"2950460085"},{"name":"サポートセンター　おひさまの花","nameKana":"さぽーとせんたーおひさまのはな","corp":"特定非営利活動法人おひさまひろば","serviceTypes":["児童発達支援","放課後等デイサービス"],"ward":"桜井市","address":"奈良県桜井市河西２３９番地の６","tel":"0744-46-5169","url":"","lat":34.50429057,"lng":135.84961249,"weekday":"","saturday":"","sunday":"","holiday":"","closed":"","capacity":null,"id":"2950460317"},{"name":"かがやキッズ","nameKana":"かがやきっず","corp":"株式会社スピリット","serviceTypes":["児童発達支援","放課後等デイサービス"],"ward":"宇陀市","address":"奈良県宇陀市榛原榛見が丘１−１４−２０","tel":"0745-82-8686","url":"http://www.masaichi.net/kagayakids","lat":34.52964266,"lng":135.9510584,"weekday":"10:00-18:00","saturday":"10:00-18:00","sunday":"","holiday":"","closed":"日祝(8/11〜8/15,12/29〜1/3）","capacity":20,"id":"2950671053"},{"name":"児童発達支援事業所あすか","nameKana":"じどうはったつしえんじぎょうしょあすか","corp":"社会福祉法人飛鳥学院","serviceTypes":["児童発達支援","放課後等デイサービス"],"ward":"桜井市","address":"奈良県桜井市谷４９０番地の６","tel":"0744-42-2818","url":"","lat":34.50797341,"lng":135.84261855,"weekday":"09:30-18:00","saturday":"13:00-18:00","sunday":"","holiday":"","closed":"日曜日、祝日、年末年始","capacity":50,"id":"2950461471"},{"name":"児童発達支援いのちのたね","nameKana":"じどうはったつしえんいのちのたね","corp":"社会福祉法人五條市社会福祉事業団大塔ライフハウス","serviceTypes":["児童発達支援","放課後等デイサービス"],"ward":"五條市","address":"奈良県五條市大塔町宇井94番地","tel":"0747-36-0001","url":"https://www.otogojo.com/","lat":34.151303,"lng":135.74542489,"weekday":"","saturday":"","sunday":"","holiday":"","closed":"","capacity":null,"id":"2951400015"},{"name":"こども発達支援ＭＯＭＯの実","nameKana":"こどもはったつしえんもものみ","corp":"株式会社Ｍａｇｉｃ　Ｃｏｎｎｅｃｔｉｏｎ","serviceTypes":["児童発達支援","放課後等デイサービス"],"ward":"桜井市","address":"奈良県桜井市桜井194-2駅前グリーンビル2階","tel":"0744-46-4003","url":"","lat":34.51251452,"lng":135.84697924,"weekday":"","saturday":"","sunday":"","holiday":"","closed":"","capacity":null,"id":"2950400057"},{"name":"発達支援ルームスマイルキッズ","nameKana":"はったつしえんるーむすまいるきっず","corp":"株式会社侑輝会","serviceTypes":["児童発達支援","放課後等デイサービス"],"ward":"吉野郡大淀町","address":"奈良県吉野郡大淀町下渕956番地","tel":"0747-64-8030","url":"","lat":34.3850316,"lng":135.79358985,"weekday":"10:00-19:00","saturday":"10:00-19:00","sunday":"10:00-19:00","holiday":"10:00-19:00","closed":"","capacity":10,"id":"2951700109"},{"name":"コッペ大淀","nameKana":"こっぺおおよど","corp":"社会福祉法人せせらぎ会","serviceTypes":["児童発達支援"],"ward":"吉野郡大淀町","address":"奈良県吉野郡大淀町下渕１１３５−１","tel":"0747-52-8080","url":"http://www.seseragikai.or.jp","lat":34.38647584,"lng":135.7871375,"weekday":"","saturday":"","sunday":"","holiday":"","closed":"","capacity":null,"id":"2951760244"},{"name":"しあわせ","nameKana":"しあわせ","corp":"有限会社しあわせ","serviceTypes":["児童発達支援","放課後等デイサービス"],"ward":"御所市","address":"奈良県御所市大字櫛羅１５２−２、１５２−４","tel":"0745-64-0312","url":"","lat":34.46412896,"lng":135.72242494,"weekday":"16:30-20:30","saturday":"16:30-20:30","sunday":"16:30-20:30","holiday":"16:30-20:30","closed":"1月1日から1月3日まで。","capacity":10,"id":"2951361308"},{"name":"療育ステーションＣＯＬＯＲＳ","nameKana":"りょういくすてーしょんからーず","corp":"株式会社信","serviceTypes":["児童発達支援","放課後等デイサービス"],"ward":"生駒市","address":"奈良県生駒市小明町1348-1","tel":"0743-74-1010","url":"","lat":34.70189208,"lng":135.70737985,"weekday":"","saturday":"","sunday":"","holiday":"","closed":"","capacity":null,"id":"2950361697"},{"name":"療育ステーションCOLORSやまとこおりやま","nameKana":"りょういくすてーしょんからーずやまとこおりやま","corp":"株式会社信","serviceTypes":["児童発達支援","放課後等デイサービス"],"ward":"大和郡山市","address":"奈良県大和郡山市小泉町東3丁目3-13","tel":"0743-85-4833","url":"","lat":34.62114218,"lng":135.76326272,"weekday":"","saturday":"","sunday":"","holiday":"","closed":"","capacity":null,"id":"2950261715"},{"name":"放課後等デイサービスあいりす","nameKana":"ほうかごとうでいさーびすあいりす","corp":"株式会社アイビー企画","serviceTypes":["児童発達支援","放課後等デイサービス"],"ward":"生駒市","address":"奈良県生駒市山崎新町1-23　2Ｆ","tel":"0743-87-9660","url":"","lat":34.69024048,"lng":135.69836969,"weekday":"11:00-17:30","saturday":"10:00-16:30","sunday":"10:00-16:30","holiday":"10:00-16:30","closed":"日曜日・祝日","capacity":10,"id":"2950371704"},{"name":"bamboo","nameKana":"ばんぶー","corp":"株式会社たのしいにいのちがけ","serviceTypes":["児童発達支援","放課後等デイサービス"],"ward":"生駒市","address":"奈良県生駒市壱分町763番地3","tel":"0743-89-2345","url":"","lat":34.67459738,"lng":135.70759171,"weekday":"","saturday":"","sunday":"","holiday":"","closed":"","capacity":10,"id":"2950300026"},{"name":"こども発達サポートのびいく","nameKana":"こどもはったつさぽーとのびいく","corp":"株式会社たけつなチャイルドサポートカンパニー","serviceTypes":["児童発達支援"],"ward":"生駒市","address":"奈良県生駒市真弓2-14-2","tel":"0743700219","url":"https://www.taketsuna-nobiiku.com/","lat":34.72354279,"lng":135.72521146,"weekday":"09:00-17:00","saturday":"","sunday":"","holiday":"","closed":"土曜、日曜、国民の祝日、１２月2９日から１月３日","capacity":10,"id":"2950300042"},{"name":"Ricora","nameKana":"りこら","corp":"株式会社BaseForm.","serviceTypes":["児童発達支援","放課後等デイサービス","居宅訪問型児童発達支援"],"ward":"奈良市","address":"奈良県奈良市宝来町１００４−１","tel":"0742-81-7504","url":"http://ricora.org","lat":34.68486112,"lng":135.77109419,"weekday":"10:00-16:45","saturday":"10:00-16:00","sunday":"","holiday":"","closed":"","capacity":5,"id":"2950100194"},{"name":"中野式言語療法センター","nameKana":"なかのしきげんごりょうほうせんたー","corp":"合同会社ことばmirai","serviceTypes":["児童発達支援"],"ward":"生駒市","address":"奈良県生駒市東松ケ丘二丁目8東松ケ丘森下ﾋﾞﾙ104号室","tel":"0743-25-4982","url":"https://nakanoshiki-st.jimdosite.com/","lat":34.6919626,"lng":135.7005362,"weekday":"09:00-17:30","saturday":"09:00-17:30","sunday":"09:00-17:30","holiday":"09:00-17:30","closed":"毎週月・火・水","capacity":10,"id":"2950300117"},{"name":"HIRAKU Kids 生駒","nameKana":"ひらくきっずいこま","corp":"合同会社ＨＩＲＡＫＵ","serviceTypes":["児童発達支援","放課後等デイサービス"],"ward":"生駒市","address":"奈良県生駒市新生駒台2-27","tel":"080-3829-5271","url":"","lat":34.71032168,"lng":135.70109397,"weekday":"15:30-18:30","saturday":"09:30-17:30","sunday":"","holiday":"","closed":"日・祝、お盆、年末年始","capacity":10,"id":"2950300257"},{"name":"児童発達支援・放課後等デイサービスわくわく","nameKana":"じどうはったつしえんほうかごとうでいさーびすわくわく","corp":"はざま株式会社","serviceTypes":["児童発達支援","放課後等デイサービス"],"ward":"生駒市","address":"奈良県生駒市小明町553番地1","tel":"070-1734-8989","url":"","lat":34.70599996,"lng":135.70595763,"weekday":"","saturday":"","sunday":"","holiday":"","closed":"","capacity":null,"id":"2950300141"},{"name":"児童発達支援・放課後等デイサービス　くるむ","nameKana":"じどうはったつしえんほうかごとうでいさーびすくるむ","corp":"株式会社curumu","serviceTypes":["児童発達支援","放課後等デイサービス"],"ward":"奈良市","address":"奈良県奈良市西登美ヶ丘一丁目4番1号パークサイドビル2階","tel":"0742-51-7098","url":"https://curumu.net","lat":34.71464637,"lng":135.74395721,"weekday":"09:00-13:30","saturday":"","sunday":"","holiday":"","closed":"日曜日・祝日","capacity":5,"id":"2950100384"},{"name":"おもちゃ箱いこま","nameKana":"おもちゃばこいこま","corp":"株式会社ＥＮＡＫＡＭＡ","serviceTypes":["児童発達支援","放課後等デイサービス"],"ward":"生駒市","address":"奈良県生駒市萩の台一丁目2番2号ライフコート萩の台Ｃ-1","tel":"0743-76-2090","url":"http://ikoma-omochabako.com/","lat":34.65595709,"lng":135.70905581,"weekday":"10:00-16:00","saturday":"","sunday":"","holiday":"","closed":"土・日・祝日　8/15を含む5日　12/28〜1/4　その他施設の必要とする日","capacity":10,"id":"2950300208"},{"name":"こども発達支援＆放課後等デイサービスgrow　room","nameKana":"こどもはったつしえんあんどほうかごとうでいさーびすぐろーるーむ","corp":"有限会社アール","serviceTypes":["児童発達支援","放課後等デイサービス"],"ward":"生駒市","address":"奈良県生駒市西松ケ丘1番9号","tel":"0743-85-5310","url":"https://lcr-ikoma.jp/","lat":34.69625928,"lng":135.69578353,"weekday":"","saturday":"","sunday":"","holiday":"","closed":"","capacity":null,"id":"2950300224"},{"name":"HIRAKU Kids 真弓","nameKana":"ひらくきっずまゆみ","corp":"合同会社ＨＩＲＡＫＵ","serviceTypes":["児童発達支援"],"ward":"奈良市","address":"奈良県奈良市松陽台3-1-222階","tel":"070-1802-5176","url":"","lat":34.71572967,"lng":135.73603854,"weekday":"15:30-18:00","saturday":"","sunday":"","holiday":"","closed":"土日祝・お盆・年末年始","capacity":10,"id":"2950100517"},{"name":"ｂｌｏｏｍ","nameKana":"ぶるーむ","corp":"株式会社シモサン","serviceTypes":["児童発達支援","放課後等デイサービス"],"ward":"香芝市","address":"奈良県香芝市上中196-1","tel":"0745-60-1380","url":"","lat":34.56003095,"lng":135.70098852,"weekday":"10:00-18:00","saturday":"10:00-18:00","sunday":"","holiday":"","closed":"日・月・祝日、夏季休暇（8月中旬頃）、年末年始（12月29日〜1月3日）","capacity":10,"id":"2951800263"},{"name":"ワンピース","nameKana":"わんぴーす","corp":"一般社団法人無限","serviceTypes":["児童発達支援","放課後等デイサービス"],"ward":"生駒市","address":"奈良県生駒市小瀬町34-9","tel":"0743-85-6204","url":"http://mugen-mugen.com","lat":34.66477032,"lng":135.70781412,"weekday":"11:00-19:00","saturday":"10:00-18:00","sunday":"","holiday":"","closed":"日・祝日（お盆・年末年始）","capacity":10,"id":"2950361044"},{"name":"ワンステップ","nameKana":"わんすてっぷ","corp":"一般社団法人無限","serviceTypes":["児童発達支援","放課後等デイサービス"],"ward":"生駒市","address":"奈良県生駒市小平尾町５７−１","tel":"0743-85-6994","url":"http://mugen-mugen.com","lat":34.66225108,"lng":135.70635317,"weekday":"11:00-19:00","saturday":"10:00-18:00","sunday":"","holiday":"","closed":"日・祝日（お盆・年末年始）","capacity":10,"id":"2950361093"},{"name":"Ｆｕｌｌ＋ＨＯＵＳＥ","nameKana":"ふるはうす","corp":"株式会社FUKUMITSUcorporation","serviceTypes":["児童発達支援","放課後等デイサービス"],"ward":"生駒市","address":"奈良県生駒市真弓２丁目４−１０","tel":"0743-79-2770","url":"https://www.fukumitsuikoma.org/","lat":34.72226238,"lng":135.72835013,"weekday":"11:30-17:00","saturday":"09:00-15:00","sunday":"","holiday":"09:00-15:00","closed":"日曜日","capacity":10,"id":"2950370995"},{"name":"こども支援センター　あすなろ　あずさ","nameKana":"こどもしえんせんたーあすなろあずさ","corp":"社会福祉法人宝山寺福祉事業団","serviceTypes":["児童発達支援"],"ward":"生駒市","address":"奈良県生駒市西旭ヶ丘１２−３","tel":"0743-75-0530","url":"https://kodomo-asunaro.com/","lat":34.68834624,"lng":135.69944191,"weekday":"10:00-15:30","saturday":"09:30-12:00","sunday":"","holiday":"","closed":"日曜、祝日、夏季休暇、年末年始","capacity":10,"id":"2950321055"},{"name":"こども支援センター　あすなろ","nameKana":"こどもしえんせんたーあすなろ","corp":"社会福祉法人宝山寺福祉事業団","serviceTypes":["児童発達支援"],"ward":"生駒市","address":"奈良県生駒市元町２丁目１４−８","tel":"0743-74-2050","url":"https://kodomo-asunaro.com/","lat":34.68971551,"lng":135.68946491,"weekday":"10:00-15:15","saturday":"09:30-12:00","sunday":"","holiday":"","closed":"日曜、祝日、夏季、年末年始","capacity":20,"id":"2950321071"},{"name":"ＩＴ・プログラミング療育ツクル生駒校","nameKana":"あいてぃぷろぐらみんぐりょういくつくるいこまこう","corp":"一般社団法人障がい者ＩＴ雇用促進機構","serviceTypes":["児童発達支援"],"ward":"生駒市","address":"奈良県生駒市俵口町1134-1","tel":"0743-75-0296","url":"https://houkago-tsukuru.com/","lat":34.70296136,"lng":135.69787205,"weekday":"15:00-18:15","saturday":"09:45-16:00","sunday":"","holiday":"09:45-16:00","closed":"日曜日","capacity":10,"id":"2950371472"},{"name":"みつほ","nameKana":"みつほ","corp":"株式会社愛真美","serviceTypes":["児童発達支援","放課後等デイサービス"],"ward":"生駒市","address":"奈良県生駒市真弓南2丁目6-1サンライズビル2 2階","tel":"0743-89-1777","url":"http://ayumi-group.co.jp/","lat":34.71743785,"lng":135.73295266,"weekday":"13:00-18:00","saturday":"10:00-16:00","sunday":"","holiday":"","closed":"","capacity":10,"id":"2950371159"},{"name":"みつほ・にじ","nameKana":"みつほにじ","corp":"株式会社愛真美","serviceTypes":["児童発達支援","放課後等デイサービス"],"ward":"生駒市","address":"奈良県生駒市中菜畑一丁目48-2シティワン生駒1階","tel":"0743-72-1777","url":"","lat":34.68517707,"lng":135.7078664,"weekday":"","saturday":"","sunday":"","holiday":"","closed":"","capacity":10,"id":"2950300232"},{"name":"発達支援ルームコロボックル","nameKana":"はったつしえんるーむころぼっくる","corp":"特定非営利活動法人コロボックル","serviceTypes":["児童発達支援"],"ward":"北葛城郡上牧町","address":"奈良県北葛城郡上牧町片岡台２丁目１３番１号","tel":"0745-43-9908","url":"","lat":34.5795511,"lng":135.71695608,"weekday":"09:30-15:30","saturday":"","sunday":"","holiday":"","closed":"","capacity":null,"id":"2951561378"},{"name":"仔鹿園","nameKana":"こじかえん","corp":"社会福祉法人宝山寺福祉事業団","serviceTypes":["児童発達支援"],"ward":"奈良市","address":"奈良県奈良市古市町１−２","tel":"0742-62-5811","url":"http://www1.kcn.ne.jp/~kojikaen/","lat":34.656149,"lng":135.84985506,"weekday":"09:00-17:00","saturday":"09:00-15:00","sunday":"","holiday":"","closed":"日曜・祝日及び月3回の土曜","capacity":57,"id":"2950121018"},{"name":"児童発達支援　ばんび","nameKana":"じどうはったつしえんばんび","corp":"社会福祉法人宝山寺福祉事業団","serviceTypes":["児童発達支援"],"ward":"奈良市","address":"奈良県奈良市古市町１−２","tel":"0742-62-5811","url":"http://www1.kcn.ne.jp/~kojikaen/","lat":34.656149,"lng":135.84985506,"weekday":"09:30-12:30","saturday":"09:30-12:30","sunday":"","holiday":"","closed":"日曜、祝日、月3回の土曜","capacity":null,"id":"2950160255"},{"name":"児童発達支援いっぽ","nameKana":"じどうはったつしえんいっぽ","corp":"社会福祉法人宝山寺福祉事業団","serviceTypes":["児童発達支援"],"ward":"奈良市","address":"奈良県奈良市紀寺町826","tel":"0742-27-5501","url":"http://hozanji-wol.org/kodomo-ippo/","lat":34.67408008,"lng":135.83991667,"weekday":"10:00-13:30","saturday":"10:00-12:30","sunday":"","holiday":"","closed":"日曜、祝日、年末年始","capacity":10,"id":"2950160586"},{"name":"Let’s","nameKana":"れっつ","corp":"合同会社マナ","serviceTypes":["児童発達支援","放課後等デイサービス"],"ward":"香芝市","address":"奈良県香芝市藤山2丁目1207番地2","tel":"0745-60-6592","url":"http://hp.kaipoke.biz/h5y/","lat":34.54541607,"lng":135.69838347,"weekday":"11:00-16:00","saturday":"11:00-16:00","sunday":"","holiday":"","closed":"日曜日、祝日、お盆、年末年始","capacity":10,"id":"2951871512"},{"name":"らぶりーきっず","nameKana":"らぶりーきっず","corp":"一般社団法人和み愛","serviceTypes":["児童発達支援","放課後等デイサービス"],"ward":"御所市","address":"奈良県御所市竹田20-2","tel":"0745-62-5418","url":"","lat":34.46814027,"lng":135.73927323,"weekday":"15:00-16:20","saturday":"","sunday":"","holiday":"","closed":"土曜、日曜、祝日、年末年始","capacity":10,"id":"2951361639"},{"name":"Ｗｉｌｌ","nameKana":"うぃる","corp":"株式会社Ｗｉｌｌ","serviceTypes":["児童発達支援","放課後等デイサービス"],"ward":"大和高田市","address":"奈良県大和高田市築山367-1","tel":"0745-43-6727","url":"","lat":34.52554148,"lng":135.73118924,"weekday":"10:00-17:30","saturday":"10:00-17:30","sunday":"","holiday":"","closed":"日・祝日、盆休み、年末年始","capacity":10,"id":"2950800066"},{"name":"療育支援室せいかエデュケアルーム","nameKana":"りょういくしえんしつせいかえでゅけあるーむ","corp":"社会福祉法人裕愛会","serviceTypes":["児童発達支援"],"ward":"香芝市","address":"奈良県香芝市畑2丁目1590-1","tel":"0745-71-7700","url":"http://www.seika-ns.ed.jp/educare-room.html","lat":34.53820853,"lng":135.6915591,"weekday":"09:00-17:00","saturday":"","sunday":"","holiday":"","closed":"土・日・祝日","capacity":10,"id":"2951800172"},{"name":"社会福祉法人楠公会ぴょんちゃんＣＬＵＢ","nameKana":"しゃかいふくしほうじんなんこうかいぴょんちゃんくらぶ","corp":"社会福祉法人楠公会","serviceTypes":["児童発達支援"],"ward":"香芝市","address":"奈良県香芝市関屋北3丁目1360-24","tel":"0745-44-5113","url":"","lat":34.55831673,"lng":135.67242973,"weekday":"09:00-17:00","saturday":"","sunday":"","holiday":"","closed":"","capacity":10,"id":"2951800214"},{"name":"子ども発達支援ぽむぽむ","nameKana":"こどもはったつしえんぽむぽむ","corp":"合同会社ポミエ","serviceTypes":["児童発達支援"],"ward":"香芝市","address":"奈良県香芝市上中841番地6","tel":"0745-27-2535","url":"https://pompom.lsv.jp/","lat":34.5529124,"lng":135.69955827,"weekday":"09:00-17:00","saturday":"","sunday":"","holiday":"","closed":"土曜日、日曜日、国民の祝日、年末年始休業日、夏季休業日","capacity":10,"id":"2951800255"},{"name":"放課後等デイサービス和愛","nameKana":"ほうかごとうでいさーびすわあい","corp":"株式会社介護和愛","serviceTypes":["児童発達支援","放課後等デイサービス"],"ward":"香芝市","address":"奈良県香芝市1352-2","tel":"0745771110","url":"","lat":34.5424189,"lng":135.68447891,"weekday":"","saturday":"","sunday":"","holiday":"","closed":"","capacity":null,"id":"2951870126"},{"name":"放課後等デイサービス　まほろばPlus","nameKana":"ほうかごとうでいさーびすまほろばぷらす","corp":"株式会社　まほろば","serviceTypes":["児童発達支援","放課後等デイサービス"],"ward":"香芝市","address":"奈良県香芝市穴虫1056-1","tel":"0745-78-3171","url":"","lat":34.54720443,"lng":135.68719529,"weekday":"10:00-18:00","saturday":"10:00-18:00","sunday":"","holiday":"","closed":"日曜日・祝日・お盆休み（8月13〜15日）年末年始（12月29日〜1月3日）","capacity":10,"id":"2951871561"},{"name":"放課後等デイサービスまほろば","nameKana":"ほうかごとうでいさーびすまほろば","corp":"株式会社　まほろば","serviceTypes":["児童発達支援","放課後等デイサービス"],"ward":"香芝市","address":"奈良県香芝市上中116-1","tel":"0745-71-8800","url":"http://www.mahoroba.jp.net","lat":34.56118911,"lng":135.69988024,"weekday":"10:00-18:00","saturday":"10:00-18:00","sunday":"","holiday":"","closed":"日曜日・祝日・お盆休み（8月13〜15日）年末年始（12月29日〜1月3日）","capacity":10,"id":"2951871082"},{"name":"どんぐり学園","nameKana":"どんぐりがくえん","corp":"社会福祉法人鳳雛会","serviceTypes":["児童発達支援","放課後等デイサービス"],"ward":"香芝市","address":"奈良県香芝市上中１２６３−３２どんぐり学園","tel":"0745-78-6966","url":"http://donguri-gakuen.com","lat":34.5566531,"lng":135.67949023,"weekday":"09:00-17:00","saturday":"09:00-17:00","sunday":"","holiday":"","closed":"日曜日、祝日、夏季8/13〜15、年末年始12/29〜1/4","capacity":10,"id":"2951860556"},{"name":"社会福祉法人香芝市社会福祉協議会ひまわり園","nameKana":"しゃかいふくしほうじんかしばしゃかいふくしきょうぎかいひまわりえん","corp":"社会福祉法人香芝市社会福祉協議会","serviceTypes":["児童発達支援"],"ward":"香芝市","address":"奈良県香芝市逢坂１丁目３７４番１香芝市総合福祉センター","tel":"0745-60-8202","url":"https://ka-shakyo.or.jp","lat":34.5412555,"lng":135.6989391,"weekday":"09:00-16:10","saturday":"","sunday":"","holiday":"","closed":"土曜日、日曜日、祝日、8月13〜15日、12月29〜1月5日","capacity":10,"id":"2951800115"},{"name":"社会福祉法人香芝市社会福祉協議会","nameKana":"しゃかいふくしほうじんかしばししゃかいふくしきょうぎかい","corp":"社会福祉法人香芝市社会福祉協議会","serviceTypes":["児童発達支援"],"ward":"香芝市","address":"奈良県香芝市逢坂１−３７４−１香芝市総合福祉センター内","tel":"0745-79-7529","url":"http://k-shakyo.net/","lat":34.54260246,"lng":135.69500321,"weekday":"","saturday":"","sunday":"","holiday":"","closed":"土曜日・日曜日・祝祭日・8月13日、14日、15日・12月２６日〜1月５日","capacity":10,"id":"2951860069"},{"name":"いろすまいる","nameKana":"いろすまいる","corp":"株式会社いろすまいる","serviceTypes":["児童発達支援","放課後等デイサービス"],"ward":"葛城市","address":"奈良県葛城市長尾74番地2","tel":"0745-51-6111","url":"","lat":34.51064857,"lng":135.70771974,"weekday":"","saturday":"","sunday":"","holiday":"","closed":"","capacity":null,"id":"2951900097"},{"name":"おもいやりキッズ","nameKana":"おもいやりきっず","corp":"株式会社ケアサポートおもいやり","serviceTypes":["児童発達支援","放課後等デイサービス"],"ward":"葛城市","address":"奈良県葛城市脇田309-1","tel":"0745-44-3144","url":"","lat":34.47173658,"lng":135.72359407,"weekday":"09:00-17:30","saturday":"","sunday":"","holiday":"09:00-16:00","closed":"土曜日・日曜日(12/29〜1/3・8/12〜8/15を除く)","capacity":10,"id":"2951900055"},{"name":"ぱどま","nameKana":"ぱどま","corp":"株式会社ＲＣカンパニー","serviceTypes":["児童発達支援","放課後等デイサービス"],"ward":"葛城市","address":"奈良県葛城市太田","tel":"0745-48-9033","url":"http://www.rccompany.info/","lat":34.49762514,"lng":135.70517854,"weekday":"","saturday":"","sunday":"","holiday":"","closed":"","capacity":null,"id":"2951970769"},{"name":"GIFT","nameKana":"ぎふと","corp":"合同会社Gifted","serviceTypes":["児童発達支援","放課後等デイサービス"],"ward":"橿原市","address":"奈良県橿原市中曽司町194-112F、3F　","tel":"090-5775-6656","url":"https://h-navi.jp/support_facility/facilities/159560","lat":34.52052892,"lng":135.77147738,"weekday":"","saturday":"","sunday":"","holiday":"","closed":"","capacity":null,"id":"2951200035"},{"name":"社会福祉法人宇陀市社会福祉協議会児童発達支援事業所にじいろこあら","nameKana":"しゃかいふくしほうじんうだししゃかいふくしきょうぎかいじどうはったつしえんじぎょうしょにじいろこあら","corp":"社会福祉法人宇陀市社会福祉協議会","serviceTypes":["児童発達支援"],"ward":"宇陀市","address":"奈良県宇陀市菟田野古市場1401-1宇陀市人権交流センター　３F","tel":"0745-88-9662","url":"","lat":34.47358287,"lng":135.97083248,"weekday":"","saturday":"","sunday":"","holiday":"","closed":"","capacity":null,"id":"2952000038"},{"name":"aina","nameKana":"あいな","corp":"株式会社おおきに","serviceTypes":["児童発達支援","放課後等デイサービス"],"ward":"橿原市","address":"奈良県橿原市久米町912番地カーサ神宮前　3F","tel":"0744-47-3341","url":"","lat":34.48498116,"lng":135.792301,"weekday":"09:00-18:00","saturday":"09:00-18:00","sunday":"","holiday":"09:00-18:00","closed":"日曜日","capacity":10,"id":"2951200126"},{"name":"ＷｏｎｄｅｒＢＡＳＥ","nameKana":"わんだーべーす","corp":"合同会社ＧＡＴＥ","serviceTypes":["児童発達支援","放課後等デイサービス"],"ward":"大和郡山市","address":"奈良県大和郡山市北郡山町64-8","tel":"070-1806-5226","url":"","lat":34.65716136,"lng":135.78543262,"weekday":"","saturday":"","sunday":"","holiday":"","closed":"","capacity":null,"id":"2950200101"},{"name":"えがおがいっぱい","nameKana":"えがおがいっぱい","corp":"一般社団法人自立と平和","serviceTypes":["児童発達支援","放課後等デイサービス"],"ward":"生駒郡平群町","address":"奈良県生駒郡平群町緑ケ丘4丁目9-6","tel":"0745-43-7851","url":"","lat":34.64660508,"lng":135.70268686,"weekday":"13:00-18:00","saturday":"09:00-18:00","sunday":"09:00-18:00","holiday":"09:00-18:00","closed":"","capacity":10,"id":"2950500047"},{"name":"ガンバ体操クラブ児童発達支援・放課後等デイサービス平城山教室","nameKana":"がんばたいそうくらぶじどうはつたつしえんほうかごとうでいさーびすならやまきようしつ","corp":"株式会社ガンバ体操クラブ","serviceTypes":["児童発達支援","放課後等デイサービス"],"ward":"奈良市","address":"奈良県奈良市佐保台西町143番2号","tel":"0742-71-2305","url":"http://www.ganba-taisou.com/ganba/narayama/","lat":34.71233346,"lng":135.81180699,"weekday":"","saturday":"","sunday":"","holiday":"","closed":"","capacity":null,"id":"2950100186"},{"name":"こども発達療育教室「ぱずる」","nameKana":"こどもはったつりょういくきょうしつぱずる","corp":"株式会社Rainbow　Create","serviceTypes":["児童発達支援","放課後等デイサービス"],"ward":"大和郡山市","address":"奈良県大和郡山市小泉町1283番地9","tel":"0743-89-5474","url":"","lat":34.61981697,"lng":135.75330518,"weekday":"","saturday":"","sunday":"","holiday":"","closed":"日曜日／月曜日","capacity":null,"id":"2950200069"},{"name":"ぱずるＬＡＢＯ","nameKana":"ぱずるらぼ","corp":"株式会社Rainbow　Create","serviceTypes":["児童発達支援","放課後等デイサービス"],"ward":"大和郡山市","address":"奈良県大和郡山市新町898番地6","tel":"0743-83-2299","url":"","lat":34.63359044,"lng":135.74901366,"weekday":"","saturday":"","sunday":"","holiday":"","closed":"","capacity":null,"id":"2950200168"},{"name":"チャイルドエデュケアほうりゅうじ","nameKana":"ちゃいるどえでゅけあほうりゅうじ","corp":"学校法人斑鳩学苑","serviceTypes":["児童発達支援"],"ward":"生駒郡斑鳩町","address":"奈良県生駒郡斑鳩町法隆寺2丁目10番44号","tel":"0745-60-9074","url":"https://masaichi.net/houryuji/","lat":34.61115622,"lng":135.73777584,"weekday":"","saturday":"","sunday":"","holiday":"","closed":"","capacity":null,"id":"2950500039"},{"name":"ぽぷりぽっけ","nameKana":"ぽぷりぽっけ","corp":"特定非営利活動法人むつみ会","serviceTypes":["児童発達支援","放課後等デイサービス"],"ward":"生駒郡斑鳩町","address":"奈良県生駒郡斑鳩町興留７丁目１−２８　さくらマンション１階","tel":"0745-43-6112","url":"","lat":34.60114902,"lng":135.7375316,"weekday":"13:00-17:30","saturday":"10:00-16:00","sunday":"","holiday":"10:00-16:00","closed":"","capacity":10,"id":"2950570842"},{"name":"ステップ　ゆず","nameKana":"すてっぷゆず","corp":"一般社団法人結寿","serviceTypes":["児童発達支援"],"ward":"磯城郡川西町","address":"奈良県磯城郡川西町結崎５７７−１１","tel":"0745-43-8571","url":"http://www.eonet.ne.jp/~step-yuzu/","lat":34.58395819,"lng":135.78509507,"weekday":"","saturday":"","sunday":"","holiday":"","closed":"","capacity":null,"id":"2950771143"},{"name":"じょいん〜生きるちから〜","nameKana":"じょいんいきるちから","corp":"合同会社むすびめ","serviceTypes":["児童発達支援","放課後等デイサービス"],"ward":"磯城郡田原本町","address":"奈良県磯城郡田原本町三笠7番地の7","tel":"0744-46-9405","url":"https://musubime.biz","lat":34.55209494,"lng":135.7859929,"weekday":"","saturday":"","sunday":"","holiday":"","closed":"","capacity":null,"id":"2950700118"},{"name":"放課後等デイサービスふれんど","nameKana":"ほうかごとうでいさーびすふれんど","corp":"グーテライゼ合同会社","serviceTypes":["児童発達支援"],"ward":"磯城郡田原本町","address":"奈良県磯城郡田原本町阪手360番地9号","tel":"0744-38-9037","url":"https://www.big-advance.site/s/192/1368/company","lat":34.55547545,"lng":135.79951375,"weekday":"10:00-17:00","saturday":"10:00-17:00","sunday":"","holiday":"","closed":"日祝","capacity":5,"id":"2950700068"},{"name":"ＮＩＣＯＮＩＣＯ","nameKana":"にこにこ","corp":"一般社団法人ＮＩＣＯＮＩＣＯ","serviceTypes":["児童発達支援","放課後等デイサービス"],"ward":"磯城郡田原本町","address":"奈良県磯城郡田原本町143番地","tel":"0744-46-9205","url":"https://niconico.ttb-om.com/","lat":34.55173672,"lng":135.78893983,"weekday":"09:30-16:30","saturday":"10:00-12:00","sunday":"","holiday":"","closed":"土日祝日、13日、22日、お盆休み、年末年始休み","capacity":10,"id":"2950700092"},{"name":"奈良県障害者総合支援センターわかくさ愛育園","nameKana":"ならけんしょうがいしゃそうごうしえんせんたーわかくさあいいくえん","corp":"社会福祉法人奈良県社会福祉事業団","serviceTypes":["児童発達支援","放課後等デイサービス"],"ward":"磯城郡田原本町","address":"奈良県磯城郡田原本町大字多７２２番地","tel":"0744-32-0200","url":"http://www.nara-sfj.or.jp/","lat":34.53636892,"lng":135.78439586,"weekday":"10:00-15:00","saturday":"","sunday":"","holiday":"","closed":"土、日、祝日、年末年始(12/29〜1/3）","capacity":8,"id":"2950721049"},{"name":"奈良県障害者総合支援センターわかくさ愛育園","nameKana":"ならけんしょうがいしゃそうごうしえんせんたーわかくさあいいくえん","corp":"社会福祉法人奈良県社会福祉事業団","serviceTypes":["児童発達支援","居宅訪問型児童発達支援"],"ward":"磯城郡田原本町","address":"奈良県磯城郡田原本町多７２２番地","tel":"0744-32-0203","url":"http://www.nara-sfj.or.jp/","lat":34.53636892,"lng":135.78439586,"weekday":"10:00-16:30","saturday":"","sunday":"","holiday":"","closed":"土曜日、日曜日、祝日、12月29日〜1月3日","capacity":25,"id":"2950721080"},{"name":"重心型児童発達支援・重心型放課後等デイサービスゆいゆい","nameKana":"じゅうしんがたじどうはったつしえんじゅうしんがたほうかごとうでいさーびすゆいゆい","corp":"株式会社　ゆいまーる奈良","serviceTypes":["児童発達支援","放課後等デイサービス"],"ward":"高市","address":"奈良県高市郡高取町清水谷1300番地93","tel":"0745-67-1050","url":"","lat":34.43844493,"lng":135.79570777,"weekday":"10:00-14:00","saturday":"10:00-14:00","sunday":"","holiday":"","closed":"日曜日、国民の祝日、８月１４日〜８月２６日　１２月２９日〜１月３日","capacity":5,"id":"2951600036"},{"name":"ディサービスセンター　ポニーの里","nameKana":"でぃさーびすせんたーぽにーのさと","corp":"特定非営利活動法人ポニーの里をつくろう会","serviceTypes":["児童発達支援"],"ward":"北葛城郡広陵町","address":"奈良県北葛城郡広陵町広瀬９７５−３","tel":"050-1105-2114","url":"","lat":34.55481623,"lng":135.75930664,"weekday":"","saturday":"","sunday":"","holiday":"","closed":"","capacity":null,"id":"2951560149"},{"name":"ＫＡＥＤＥ","nameKana":"かえで","corp":"ＨＡＲＵＫＩ　ＩＮＤＵＳＴＲＹ株式会社","serviceTypes":["児童発達支援","放課後等デイサービス"],"ward":"生駒郡三郷町","address":"奈良県生駒郡三郷町城山台3-9-5","tel":"0745-73-7344","url":"https://www.kaede35.com/","lat":34.59811538,"lng":135.68671926,"weekday":"","saturday":"","sunday":"","holiday":"","closed":"","capacity":null,"id":"2950500062"},{"name":"フレンズまきば　めぃと・らぽぉと","nameKana":"ふれんずまきばめぃとらぽぉと","corp":"社会福祉法人在友会","serviceTypes":["児童発達支援","放課後等デイサービス"],"ward":"北葛城郡上牧町","address":"奈良県北葛城郡上牧町片岡台２−６−１０","tel":"0745-32-1132","url":"http://www.makiba.ne.jp","lat":34.58002327,"lng":135.71708938,"weekday":"","saturday":"","sunday":"","holiday":"","closed":"","capacity":null,"id":"2951560297"},{"name":"すまいる","nameKana":"すまいる","corp":"株式会社成発","serviceTypes":["児童発達支援","放課後等デイサービス"],"ward":"北葛城郡上牧町","address":"奈良県北葛城郡上牧町服部台五丁目４番１号","tel":"0745-51-2133","url":"https://houkago-deisarvis-smile.amebawnd.com/","lat":34.57198533,"lng":135.71533984,"weekday":"09:00-17:00","saturday":"10:00-17:00","sunday":"","holiday":"09:30-17:00","closed":"","capacity":10,"id":"2951570650"},{"name":"こども発達支援まるっときっず","nameKana":"こどもはったつしえんまるっときっず","corp":"Ｅ−ｓｕｎ株式会社","serviceTypes":["児童発達支援","放課後等デイサービス"],"ward":"北葛城郡王寺町","address":"奈良県北葛城郡王寺町葛下1丁目8-4ＲＥＩＷＡ協立ﾋﾞﾙ1−Ａ号室","tel":"0745-73-1135","url":"","lat":34.5908385,"lng":135.7103812,"weekday":"10:00-17:10","saturday":"","sunday":"","holiday":"","closed":"土曜日、日曜日、祝日","capacity":10,"id":"2951500368"},{"name":"療育現場","nameKana":"りょういくげんば","corp":"ｗｅｌｌ　ｕｐ合同会社","serviceTypes":["児童発達支援","放課後等デイサービス"],"ward":"香芝市","address":"奈良県香芝市西真美3丁目8-14","tel":"0745-43-7864","url":"https://ryouikugenba.com/","lat":34.54462487,"lng":135.71585706,"weekday":"10:00-18:00","saturday":"10:00-18:00","sunday":"10:00-18:00","holiday":"10:00-18:00","closed":"","capacity":20,"id":"2951800198"},{"name":"ぷらいまりステップ","nameKana":"ぷらいまりすてっぷ","corp":"株式会社ＴＯＷＡＩＲＯ","serviceTypes":["児童発達支援"],"ward":"香芝市","address":"奈良県香芝市瓦口2167-2ローレル五位堂駅前102号室","tel":"0745-60-9070","url":"https://primary-step.com","lat":34.53742023,"lng":135.71710431,"weekday":"08:35-16:30","saturday":"","sunday":"","holiday":"","closed":"土、日、祝、年末年始、および事業所が指定する日","capacity":10,"id":"2951800206"},{"name":"とことん","nameKana":"とことん","corp":"株式会社ぱる","serviceTypes":["児童発達支援","放課後等デイサービス"],"ward":"北葛城郡広陵町","address":"奈良県北葛城郡広陵町馬見北八丁目8番1号","tel":"0745-27-2760","url":"","lat":34.55407382,"lng":135.72228966,"weekday":"","saturday":"","sunday":"","holiday":"","closed":"","capacity":null,"id":"2951500335"},{"name":"からだとことばそだて発達支援ポピン","nameKana":"からだとことばそだてはったつしえんぽぴん","corp":"株式会社あそびのチカラ","serviceTypes":["児童発達支援"],"ward":"北葛城郡広陵町","address":"奈良県北葛城郡広陵町疋相40番地12","tel":"090-9879-1356","url":"https://r.goope.jp/popinpopin2024/","lat":34.54390056,"lng":135.7421662,"weekday":"","saturday":"","sunday":"","holiday":"","closed":"","capacity":null,"id":"2951500350"},{"name":"大和園彩多","nameKana":"やまとえんさいた","corp":"社会福祉法人功有会","serviceTypes":["児童発達支援","放課後等デイサービス"],"ward":"大和郡山市","address":"奈良県大和郡山市筒井町155番地","tel":"0743-23-1507","url":"http://www.yamatoen.or.jp/saita/","lat":34.62342035,"lng":135.78207504,"weekday":"10:00-14:15","saturday":"","sunday":"","holiday":"10:00-17:00","closed":"土日・祝・年末年始(12/30〜1/3)","capacity":10,"id":"2950200150"},{"name":"大和園平和","nameKana":"やまとえんへいわ","corp":"社会福祉法人功有会","serviceTypes":["児童発達支援","放課後等デイサービス"],"ward":"大和郡山市","address":"奈良県大和郡山市美濃庄町２５３−１","tel":"0743-58-2200","url":"","lat":34.63914425,"lng":135.80634499,"weekday":"10:00-14:00","saturday":"","sunday":"","holiday":"10:00-17:00","closed":"日曜日・土曜日・祝日・12/30〜1/3","capacity":10,"id":"2950270724"},{"name":"ひまわり学園真美ケ丘自立訓練校Plele","nameKana":"ひまわりがくえんまみがおかじりくんれんこうぷれれ","corp":"特定非営利活動法人　在宅介護センター奈良","serviceTypes":["児童発達支援","放課後等デイサービス"],"ward":"北葛城郡広陵町","address":"奈良県北葛城郡広陵町南郷653-4","tel":"0745-55-3142","url":"","lat":34.54192873,"lng":135.74984911,"weekday":"","saturday":"","sunday":"","holiday":"","closed":"","capacity":null,"id":"2951561709"},{"name":"ひなたスコーレ","nameKana":"ひなたすこーれ","corp":"特定非営利活動法人ひなた","serviceTypes":["児童発達支援"],"ward":"北葛城郡広陵町","address":"奈良県北葛城郡広陵町南郷225番地１","tel":"09036750515","url":"https://hinata-fuwara.com/","lat":34.53434358,"lng":135.75167666,"weekday":"09:00-18:00","saturday":"09:00-18:00","sunday":"","holiday":"","closed":"月・日・祝日","capacity":10,"id":"2951500301"},{"name":"アクトパーク","nameKana":"あくとぱーく","corp":"特定非営利活動法人アクト","serviceTypes":["児童発達支援","放課後等デイサービス"],"ward":"葛城市","address":"奈良県葛城市南花内１１３−２","tel":"0745-69-0655","url":"https://act-park.com/","lat":34.48090815,"lng":135.73141539,"weekday":"09:20-15:30","saturday":"","sunday":"","holiday":"","closed":"月・土・日・祝","capacity":10,"id":"2951961495"},{"name":"子ども発達サポートセンターはるる王寺","nameKana":"こどもはったつさぽーとせんたーはるるおうじ","corp":"特定非営利活動法人そら","serviceTypes":["児童発達支援","放課後等デイサービス"],"ward":"北葛城郡王寺町","address":"奈良県北葛城郡王寺町久度1丁目14番1号フレール101号","tel":"0745-43-6138","url":"https://www.harurun.org/","lat":34.59859866,"lng":135.7080756,"weekday":"13:00-18:00","saturday":"09:00-13:00","sunday":"","holiday":"","closed":"","capacity":10,"id":"2951571732"},{"name":"子ども発達サポートセンターはるる","nameKana":"こどもはったつさぽーとせんたーはるる","corp":"特定非営利活動法人そら","serviceTypes":["児童発達支援","放課後等デイサービス"],"ward":"生駒郡斑鳩町","address":"奈良県生駒郡斑鳩町神南５丁目１４番１３号","tel":"0745-43-6138","url":"http://sorasupport.sakura.ne.jp","lat":34.59857648,"lng":135.71120311,"weekday":"","saturday":"","sunday":"","holiday":"","closed":"","capacity":null,"id":"2950561437"},{"name":"ふれあいの杜Kids","nameKana":"ふれあいのもりきっず","corp":"ふれ愛グループ藤合同会社","serviceTypes":["児童発達支援"],"ward":"北葛城郡河合町","address":"奈良県北葛城郡河合町北葛城郡河合町","tel":"0745573500","url":"https://www.fureainomori-care.com","lat":34.5784712,"lng":135.7366711,"weekday":"09:30-15:30","saturday":"09:30-15:30","sunday":"","holiday":"09:30-15:30","closed":"日曜日","capacity":10,"id":"2951500210"},{"name":"希望の花 西大和","nameKana":"きぼうのはなにしやまと","corp":"社会福祉法人西大和白鳳会","serviceTypes":["児童発達支援","放課後等デイサービス"],"ward":"北葛城郡王寺町","address":"奈良県北葛城郡王寺町王寺2丁目6-1まさごビル1F","tel":"0745-32-3905","url":"","lat":34.59646002,"lng":135.70610639,"weekday":"09:30-17:30","saturday":"09:30-17:30","sunday":"","holiday":"","closed":"日曜、祝日\t\t\t\t\t\t\t\t\t\t\t\t\t\t\t\t\t\t\t\t\t\t","capacity":20,"id":"2951500228"},{"name":"希望の花西大和","nameKana":"きぼうのはなにしやまと","corp":"社会福祉法人白鳳会","serviceTypes":["児童発達支援","放課後等デイサービス"],"ward":"北葛城郡王寺町","address":"奈良県北葛城郡王寺町王寺２−６−１まさごビル１階","tel":"0745-32-3905","url":"","lat":34.59646002,"lng":135.70610639,"weekday":"09:30-17:30","saturday":"09:30-17:30","sunday":"","holiday":"","closed":"日、祝","capacity":null,"id":"2951561295"},{"name":"児童発達支援事業所　放課後等デイサービスはびりす","nameKana":"じどうはったつしえんじぎょしょほうかごとうでいさーびすはびりす","corp":"株式会社はびりす","serviceTypes":["児童発達支援","放課後等デイサービス"],"ward":"橿原市","address":"奈良県橿原市出垣内町57番地9","tel":"0744-55-5514","url":"https://www.habilis-nara.com/","lat":34.51088106,"lng":135.82390891,"weekday":"09:30-17:30","saturday":"","sunday":"","holiday":"","closed":"土、日、祝日等","capacity":5,"id":"2951200076"},{"name":"発達支援ルームスマイルキッズ","nameKana":"はったつしえんるーむすまいるきっず","corp":"一般社団法人侑輝会","serviceTypes":["児童発達支援","放課後等デイサービス"],"ward":"吉野郡大淀町","address":"奈良県吉野郡大淀町下渕９５６番地","tel":"0747-64-8590","url":"http://smilekids-nara.com/","lat":34.3850316,"lng":135.79358986,"weekday":"10:00-18:00","saturday":"10:00-18:00","sunday":"","holiday":"10:00-18:00","closed":"","capacity":10,"id":"2951761481"},{"name":"げんき","nameKana":"げんき","corp":"株式会社カワモトプレジャーグループ","serviceTypes":["児童発達支援","放課後等デイサービス"],"ward":"北葛城郡王寺町","address":"奈良県北葛城郡王寺町本町５−１４−２７","tel":"0745-43-5441","url":"","lat":34.58271432,"lng":135.69935742,"weekday":"","saturday":"","sunday":"","holiday":"","closed":"","capacity":null,"id":"2951570247"},{"name":"げんき大淀","nameKana":"げんきおおよど","corp":"株式会社カワモトプレジャーグループ","serviceTypes":["児童発達支援"],"ward":"吉野郡大淀町","address":"奈良県吉野郡大淀町大字北野２５−１","tel":"0746-33-2011","url":"","lat":34.39579726,"lng":135.8191934,"weekday":"","saturday":"","sunday":"","holiday":"","closed":"","capacity":null,"id":"2951770334"},{"name":"吉野学園ＭＵＫＵ","nameKana":"よしのがくえんむく","corp":"社会福祉法人綜合施設美吉野園","serviceTypes":["児童発達支援","放課後等デイサービス"],"ward":"吉野郡大淀町","address":"奈良県吉野郡大淀町下渕１６４２−２０番地","tel":"0747-52-7631","url":"http://www.miyoshinoen.jp","lat":34.3863061,"lng":135.77540242,"weekday":"09:00-17:00","saturday":"09:00-17:00","sunday":"","holiday":"","closed":"日曜日　月曜日　祝日","capacity":10,"id":"2951761325"},{"name":"コぺルプラス五位堂教室","nameKana":"こぺるぷらすごいどうきょうしつ","corp":"株式会社クラゼミ","serviceTypes":["放課後等デイサービス"],"ward":"香芝市","address":"奈良県香芝市瓦口2288セイワビル1階A号室","tel":"0745-43-9284","url":"https://copelplus.copel.co.jp/school/goido-j/","lat":34.53555106,"lng":135.71864309,"weekday":"10:00-18:00","saturday":"10:00-18:00","sunday":"","holiday":"","closed":"日　月　祝日","capacity":10,"id":"2951800164"},{"name":"こころの友","nameKana":"こころのとも","corp":"エムツーエステイト株式会社","serviceTypes":["放課後等デイサービス"],"ward":"奈良市","address":"奈良県奈良市右京一丁目３番地の１平城第二団地３号棟１１１号室","tel":"0742-72-1117","url":"https://profile.ameba.jp/ameba/kokorono-tomo17","lat":34.72089312,"lng":135.78942264,"weekday":"14:00-17:00","saturday":"10:00-16:00","sunday":"","holiday":"","closed":"日曜日と祝日","capacity":10,"id":"2950171161"},{"name":"のんたん分室","nameKana":"のんたんぶんしつ","corp":"特定非営利活動法人ザ・ホープフル","serviceTypes":["放課後等デイサービス"],"ward":"奈良市","address":"奈良県奈良市あやめ池南一丁目1-11","tel":"0742-93-9639","url":"","lat":34.69757616,"lng":135.75808959,"weekday":"14:30-18:00","saturday":"10:00-16:00","sunday":"","holiday":"","closed":"日・祝日・夏季・年末年始休業日","capacity":10,"id":"2950100467"},{"name":"放課後等デイサービス笑下村塾","nameKana":"ほうかごとうでいさーびすしょうかそんじゅく","corp":"株式会社Ｍｅｉ","serviceTypes":["放課後等デイサービス"],"ward":"橿原市","address":"奈良県橿原市東坊城町210-9","tel":"0744-48-5320","url":"","lat":34.4933685,"lng":135.76461999,"weekday":"15:00-18:00","saturday":"13:00-17:00","sunday":"","holiday":"13:00-17:00","closed":"火曜日、日曜日、１２月２９日〜１月３日","capacity":10,"id":"2951200175"},{"name":"放課後等デイサービスキッズチャレンジ葛城校","nameKana":"ほうかごとうでいさーびすきっずちゃれんじかつらぎこう","corp":"株式会社Kids Developer","serviceTypes":["放課後等デイサービス"],"ward":"葛城市","address":"奈良県葛城市忍海25番6号","tel":"0745-62-8585","url":"","lat":34.47775566,"lng":135.73097104,"weekday":"","saturday":"","sunday":"","holiday":"","closed":"","capacity":null,"id":"2951900063"},{"name":"いこまの家","nameKana":"いこまのいえ","corp":"合同会社フロッグ","serviceTypes":["放課後等デイサービス"],"ward":"生駒市","address":"奈良県生駒市あすか野北2丁目1番4号","tel":"0743-85-6275","url":"","lat":34.71231886,"lng":135.71853445,"weekday":"","saturday":"","sunday":"","holiday":"","closed":"","capacity":null,"id":"2950300109"},{"name":"ＭＹＰ放課後等デイサービス","nameKana":"えむわいぴーほうかごとうでいさーびす","corp":"有限会社ＭＹＰ食品","serviceTypes":["放課後等デイサービス"],"ward":"奈良市","address":"奈良県奈良市大宮町六丁目6番地の11ウィンズビル2F","tel":"0742-35-0400","url":"","lat":34.68527825,"lng":135.80871061,"weekday":"","saturday":"","sunday":"","holiday":"","closed":"","capacity":null,"id":"2950100160"},{"name":"放課後等デイサービスウイズ・ユー榛原","nameKana":"ほうかごとうでいさーびすういずゆーはいばら","corp":"有限会社ライズグループ","serviceTypes":["放課後等デイサービス"],"ward":"宇陀市","address":"奈良県宇陀市榛原下井足49-1　サンクシティ3階","tel":"0745-82-2848","url":"http://www.with-ac.com/   https:/afterschool5days.wixsite.com/withyou","lat":34.5268569,"lng":135.95089455,"weekday":"11:30-18:00","saturday":"10:00-17:30","sunday":"","holiday":"10:00-17:30","closed":"日曜日・事業所が定める日","capacity":10,"id":"2950671467"},{"name":"はればれ","nameKana":"はればれ","corp":"合同会社ハートフルハート","serviceTypes":["放課後等デイサービス"],"ward":"奈良市","address":"奈良県奈良市登美ヶ丘３丁目４ー１１","tel":"0742-77-4337","url":"https://harebare-children.com/","lat":34.7147491,"lng":135.74802903,"weekday":"09:30-17:30","saturday":"","sunday":"","holiday":"","closed":"土曜日、日曜日、祝日、祭日","capacity":10,"id":"2950100103"},{"name":"放課後等デイサービスＦＩＮＤ生駒教室","nameKana":"ほうかごとうでいさーびすふぁいんどいこまきょうしつ","corp":"合同会社カイカ","serviceTypes":["放課後等デイサービス"],"ward":"生駒市","address":"奈良県生駒市谷田町371-1","tel":"080-1475-8559","url":"","lat":34.69366513,"lng":135.69990834,"weekday":"","saturday":"","sunday":"","holiday":"","closed":"","capacity":null,"id":"2950300182"},{"name":"放課後等デイサービスＣＯＡＣＨ　Ｊｒ.","nameKana":"ほうかごとうでいさーびすこーちじゅにあ","corp":"合同会社カイカ","serviceTypes":["放課後等デイサービス"],"ward":"生駒市","address":"奈良県生駒市元町1-3-4山田ビル5階","tel":"080-1475-8559","url":"","lat":34.69265412,"lng":135.69773631,"weekday":"","saturday":"","sunday":"","holiday":"","closed":"","capacity":null,"id":"2950300216"},{"name":"ブルーミング","nameKana":"ぶるーみんぐ","corp":"一般社団法人サニーサイド","serviceTypes":["放課後等デイサービス"],"ward":"奈良市","address":"奈良県奈良市朱雀1丁目8-7","tel":"0742-93-4698","url":"","lat":34.71420504,"lng":135.79258369,"weekday":"","saturday":"","sunday":"","holiday":"","closed":"","capacity":null,"id":"2950100509"},{"name":"放課後等デイサービス　weeek","nameKana":"ほうかごとうでいさーびすうぃーく","corp":"合同会社weeek","serviceTypes":["放課後等デイサービス"],"ward":"奈良市","address":"奈良県奈良市北之庄町45-1","tel":"090-3652-7376","url":"https://www.weeek1020.com/","lat":34.65219318,"lng":135.81942987,"weekday":"10:30-18:30","saturday":"","sunday":"","holiday":"","closed":"土、日、祝日","capacity":10,"id":"2950100533"},{"name":"ぷろぼのスコラ生駒","nameKana":"ぷろぼのすこらいこま","corp":"社会福祉法人ぷろぼの","serviceTypes":["放課後等デイサービス"],"ward":"生駒市","address":"奈良県生駒市元町２−１−１９　元町ストレートビル3階","tel":"0743-85-6397","url":"https://pro-bono.jp","lat":34.69263744,"lng":135.69445046,"weekday":"16:00-18:00","saturday":"","sunday":"","holiday":"","closed":"土日祝","capacity":10,"id":"2950370813"},