[{"name":"独立行政法人国立病院機構和歌山病院","nameKana":"どくりつぎょうせいほうじんこくりつびょういんきこうわかやまびょういん","corp":"独立行政法人国立病院機構","serviceTypes":["児童発達支援","放課後等デイサービス"],"ward":"日高郡美浜町","address":"和歌山県日高郡美浜町和田1138独立行政法人国立病院機構和歌山病院","tel":"0738-22-3256","url":"http://www.wakayama-hosp.jp/","lat":33.89570207,"lng":135.12902066,"weekday":"09:45-15:45","saturday":"00:00-00:00","sunday":"00:00-00:00","holiday":"00:00-00:00","closed":"土日、祝日、年末年始","capacity":5,"id":"3052100082"},{"name":"あしたデイズ","nameKana":"あしたでいず","corp":"太陽商事株式会社","serviceTypes":["児童発達支援","放課後等デイサービス"],"ward":"和歌山市","address":"和歌山県和歌山市東蔵前丁４　ファーストビル402","tel":"090-7873-9040","url":"https://www.ashita619.com/","lat":34.23547404,"lng":135.16696648,"weekday":"","saturday":"","sunday":"","holiday":"","closed":"","capacity":null,"id":"3050101496"},{"name":"こどもサポート教室「きらり」和歌山岩出校","nameKana":"こどもさぽーときょうしつきらりわかやまいわでこう","corp":"株式会社クラ・ゼミ","serviceTypes":["児童発達支援","放課後等デイサービス"],"ward":"岩出市","address":"和歌山県岩出市溝川278-1１−B・C号室","tel":"0736-67-8565","url":"https://kirari-kodomo.com/","lat":34.2627546,"lng":135.32675455,"weekday":"10:00-19:00","saturday":"10:00-19:00","sunday":"","holiday":"10:00-19:00","closed":"日曜日","capacity":10,"id":"3051800245"},{"name":"こどもサポート教室「きらり」和歌山小雑賀校","nameKana":"こどもさぽーときょうしつきらりわかやまこざいかこう","corp":"株式会社クラ・ゼミ","serviceTypes":["児童発達支援","放課後等デイサービス"],"ward":"和歌山市","address":"和歌山県和歌山市小雑賀677番地17","tel":"0734887199","url":"https://kirari-kodomo.com/around/around-371/","lat":34.19904518,"lng":135.18256563,"weekday":"10:00-19:00","saturday":"10:00-19:00","sunday":"","holiday":"10:00-19:00","closed":"日曜日","capacity":10,"id":"3050100951"},{"name":"OZデイわかやま","nameKana":"おずでいわかやま","corp":"サービス関西合同会社","serviceTypes":["児童発達支援","放課後等デイサービス"],"ward":"和歌山市","address":"和歌山県和歌山市有家76-1ヴィラージュ有家A","tel":"073-488-2125","url":"https://ozzo.jp/wakayama/","lat":34.22130677,"lng":135.1985752,"weekday":"","saturday":"","sunday":"","holiday":"","closed":"","capacity":null,"id":"3050101389"},{"name":"放課後等デイサービス　ウィズ・ユー和歌山中","nameKana":"ほうかごとうでいさーびすうぃずゆーわかやまなか","corp":"合同会社ヴィルクリ","serviceTypes":["児童発達支援","放課後等デイサービス"],"ward":"和歌山市","address":"和歌山県和歌山市中116番地5","tel":"050-8881-7936","url":"","lat":34.26131283,"lng":135.14352526,"weekday":"10:00-17:00","saturday":"10:00-16:00","sunday":"","holiday":"10:00-16:00","closed":"日曜日、年末年始","capacity":10,"id":"3050101363"},{"name":"サポートセンターろーど","nameKana":"さぽーとせんたーろーど","corp":"株式会社二四〇","serviceTypes":["児童発達支援","放課後等デイサービス"],"ward":"紀の川市","address":"和歌山県紀の川市貴志川町長山277-108","tel":"0736-64-5151","url":"","lat":34.20769647,"lng":135.28765447,"weekday":"14:00-17:00","saturday":"10:00-16:00","sunday":"","holiday":"10:00-16:00","closed":"日曜日","capacity":10,"id":"3051700213"},{"name":"サポートセンターくらす","nameKana":"さぽーとせんたーくらす","corp":"株式会社二四〇","serviceTypes":["児童発達支援","放課後等デイサービス"],"ward":"岩出市","address":"和歌山県岩出市岡田543-2","tel":"0736-62-3333","url":"","lat":34.25805232,"lng":135.32932658,"weekday":"13:00-17:00","saturday":"10:00-16:00","sunday":"10:00-16:00","holiday":"10:00-16:00","closed":"12/30〜1/3","capacity":30,"id":"3051800252"},{"name":"重症心身障がい児デイサービス　トムテンジュニア岩出","nameKana":"じゅうしょうしんしんしょうがいじでいさーびすとむてんじゅにあいわで","corp":"株式会社PrimaS","serviceTypes":["児童発達支援","放課後等デイサービス"],"ward":"岩出市","address":"和歌山県岩出市西国分676−1","tel":"0736689001","url":"","lat":34.26404337,"lng":135.33126511,"weekday":"10:15-17:00","saturday":"09:15-16:30","sunday":"","holiday":"09:15-16:30","closed":"日曜日、お盆、年末年始","capacity":5,"id":"3051800211"},{"name":"わんだふる","nameKana":"わんだふる","corp":"一般社団法人まろ","serviceTypes":["児童発達支援","放課後等デイサービス"],"ward":"和歌山市","address":"和歌山県和歌山市岩橋８３７−２","tel":"073-460-3676","url":"https://wandafuru20190401.amebaownd.com/","lat":34.23951991,"lng":135.2303588,"weekday":"13:00-17:00","saturday":"09:30-16:30","sunday":"","holiday":"","closed":"土日祝","capacity":10,"id":"3050101025"},{"name":"こども発達支援スマイルウェル","nameKana":"こどもはったつしえんすまいるうぇる","corp":"合同会社スマイルウェル","serviceTypes":["児童発達支援","放課後等デイサービス"],"ward":"和歌山市","address":"和歌山県和歌山市津秦７７−１","tel":"073-460-9193","url":"","lat":34.2303384,"lng":135.1707299,"weekday":"09:00-17:00","saturday":"09:00-17:00","sunday":"","holiday":"09:00-17:00","closed":"日曜日、月曜日","capacity":10,"id":"3050101041"},{"name":"このおと","nameKana":"このおと","corp":"一般社団法人このおと","serviceTypes":["児童発達支援","放課後等デイサービス"],"ward":"和歌山市","address":"和歌山県和歌山市布引５４３","tel":"073-446-8935","url":"https://www.conote-mt.com/","lat":34.17474833,"lng":135.18591596,"weekday":"10:00-19:00","saturday":"","sunday":"","holiday":"10:00-19:00","closed":"日曜日","capacity":10,"id":"3050101090"},{"name":"こどもコミュニティルームたいよう","nameKana":"こどもこみゅにてぃるーむたいよう","corp":"合同会社グラウンドワーク","serviceTypes":["児童発達支援","放課後等デイサービス"],"ward":"有田郡有田川町","address":"和歌山県有田郡有田川町垣倉字平野259番地","tel":"0737-53-1128","url":"","lat":34.05751575,"lng":135.21613746,"weekday":"","saturday":"","sunday":"","holiday":"","closed":"","capacity":null,"id":"3051600298"},{"name":"はぐみ神前教室","nameKana":"はぐみこうざききょうしつ","corp":"株式会社亀甲","serviceTypes":["児童発達支援","放課後等デイサービス"],"ward":"和歌山市","address":"和歌山県和歌山市神前１０９−１９","tel":"073-499-5418","url":"","lat":34.21665746,"lng":135.20623036,"weekday":"","saturday":"09:00-16:00","sunday":"09:00-16:00","holiday":"09:00-16:00","closed":"年末年始","capacity":10,"id":"3050101223"},{"name":"Shima Shima -しましま-","nameKana":"しましま","corp":"株式会社ＮＡｃＫ電気工業","serviceTypes":["児童発達支援","放課後等デイサービス"],"ward":"和歌山市","address":"和歌山県和歌山市有家320-2","tel":"073-463-5438","url":"","lat":34.22105684,"lng":135.20077228,"weekday":"10:30-17:00","saturday":"10:30-17:00","sunday":"","holiday":"10:30-17:00","closed":"日曜日　お盆　年末年始","capacity":10,"id":"3050101140"},{"name":"すぷらうと　シカゴテラス","nameKana":"すぷらうとしかごてらす","corp":"株式会社スタッフバンクジャパン","serviceTypes":["児童発達支援","放課後等デイサービス"],"ward":"和歌山市","address":"和歌山県和歌山市加納181-5シカゴテラス 2F","tel":"073-488-5566","url":"","lat":34.24776552,"lng":135.2052604,"weekday":"11:00-18:00","saturday":"10:00-17:00","sunday":"","holiday":"","closed":"日曜日・月曜日","capacity":10,"id":"3050101157"},{"name":"児童発達支援センター通園あるば","nameKana":"じどうはったつしえんせんたーつうえんあるば","corp":"社会福祉法人公風会","serviceTypes":["児童発達支援"],"ward":"和歌山市","address":"和歌山県和歌山市島橋北ノ丁1番15号通園あるば","tel":"073-451-5100","url":"https://alba.koufu-kai.or.jo/","lat":34.24524231,"lng":135.14667284,"weekday":"09:30-15:30","saturday":"","sunday":"","holiday":"","closed":"土・日・祝","capacity":30,"id":"3050101207"},{"name":"個別サポート教室こころん","nameKana":"こべつさぽーときょうしつこころん","corp":"株式会社　一生","serviceTypes":["児童発達支援","放課後等デイサービス"],"ward":"和歌山市","address":"和歌山県和歌山市毛見１１０６-2メゾン浜の宮１０１号","tel":"073-488-7244","url":"https://kokoron.issei0825.com","lat":34.16707447,"lng":135.18743818,"weekday":"10:00-18:00","saturday":"10:00-18:00","sunday":"","holiday":"10:00-18:00","closed":"木、日","capacity":10,"id":"3050101322"},{"name":"みらい","nameKana":"みらい","corp":"株式会社みらい","serviceTypes":["児童発達支援","放課後等デイサービス"],"ward":"和歌山市","address":"和歌山県和歌山市木ノ本１２２−１スクールサイドヴィラ１０１・１０２号","tel":"073-499-6110","url":"","lat":34.2643844,"lng":135.12390175,"weekday":"09:30-17:00","saturday":"","sunday":"","holiday":"","closed":"土日祝　お盆　年末年始","capacity":10,"id":"3050101249"},{"name":"LASHIK六十谷","nameKana":"らしくむそた","corp":"合同会社HYT","serviceTypes":["児童発達支援","放課後等デイサービス"],"ward":"和歌山市","address":"和歌山県和歌山市六十谷１０２２番１２１F","tel":"073-488-8415","url":"","lat":34.26260024,"lng":135.20182432,"weekday":"","saturday":"","sunday":"","holiday":"","closed":"","capacity":null,"id":"3050101298"},{"name":"LASHK","nameKana":"らしく","corp":"合同会社HYT","serviceTypes":["児童発達支援","放課後等デイサービス"],"ward":"和歌山市","address":"和歌山県和歌山市北島307番8","tel":"073-413-7527","url":"","lat":34.24029853,"lng":135.15797547,"weekday":"10:00-14:00","saturday":"10:00-17:00","sunday":"","holiday":"10:00-17:00","closed":"日","capacity":5,"id":"3050101199"},{"name":"キッズにじ","nameKana":"きっずにじ","corp":"合同会社虹","serviceTypes":["児童発達支援","放課後等デイサービス"],"ward":"和歌山市","address":"和歌山県和歌山市園部１２１８番地６７","tel":"073-488-4657","url":"https://www.kidsniji.com","lat":34.25447276,"lng":135.18785595,"weekday":"","saturday":"","sunday":"","holiday":"","closed":"","capacity":10,"id":"3050101306"},{"name":"アップルツリー","nameKana":"あっぷるつりー","corp":"株式会社　アップルツリー","serviceTypes":["児童発達支援","放課後等デイサービス"],"ward":"和歌山市","address":"和歌山県和歌山市六十谷１０４１−１","tel":"070-1785-8446","url":"https://www.apple-tree.online/","lat":34.2629918,"lng":135.19921893,"weekday":"10:00-18:30","saturday":"","sunday":"","holiday":"","closed":"","capacity":20,"id":"3050101272"},{"name":"ひかり","nameKana":"ひかり","corp":"学校法人バプテスト学園","serviceTypes":["児童発達支援","放課後等デイサービス"],"ward":"和歌山市","address":"和歌山県和歌山市関戸1丁目2番31号","tel":"073-444-9014","url":"","lat":34.20113922,"lng":135.16862215,"weekday":"09:00-14:00","saturday":"08:30-12:00","sunday":"","holiday":"","closed":"日曜・祝日","capacity":10,"id":"3050101330"},{"name":"児童発達支援リズムジカ","nameKana":"じどうはったつしえんりずむじか","corp":"株式会社カナリア","serviceTypes":["児童発達支援","放課後等デイサービス"],"ward":"和歌山市","address":"和歌山県和歌山市鳴神3-12和歌山市鳴神3-12","tel":"073-463-0046","url":"https://canaria-wakayama.com/","lat":34.22582317,"lng":135.20799115,"weekday":"09:00-17:00","saturday":"09:00-17:00","sunday":"","holiday":"","closed":"日曜・祝日","capacity":10,"id":"3050101413"},{"name":"和歌山BASE","nameKana":"わかやまべーす","corp":"一般社団法人てらす","serviceTypes":["児童発達支援","放課後等デイサービス"],"ward":"和歌山市","address":"和歌山県和歌山市新中島１２７番地３９","tel":"073-488-6778","url":"https://www.base-wakayama.com","lat":34.2145936,"lng":135.19683935,"weekday":"10:30-18:00","saturday":"","sunday":"","holiday":"","closed":"金、土、日、国民の祝日、８月１２日〜８月１５日及び１２月２９日〜１月３日","capacity":10,"id":"3050101470"},{"name":"エトワル","nameKana":"えとわる","corp":"社会福祉法人あおい会","serviceTypes":["児童発達支援","放課後等デイサービス"],"ward":"海南市","address":"和歌山県海南市船尾４３８","tel":"073-483-0454","url":"http://www.aoikai.or.jp/","lat":34.16098116,"lng":135.1952571,"weekday":"10:00-18:00","saturday":"","sunday":"","holiday":"","closed":"土曜・日曜・祝日・事業所指定日","capacity":10,"id":"3051400061"},{"name":" 多機能型福祉事業所 つくしの里","nameKana":"たきのうがたふくしじぎょうしょつくしのさと","corp":"社会福祉法人和歌山つくし会","serviceTypes":["児童発達支援"],"ward":"岩出市","address":"和歌山県岩出市中迫665つくし医療・福祉センター","tel":"0736-62-0013","url":"http://wa-tukusi.jp/wakayamatukusiiryofukusisenta/sato/","lat":34.26757082,"lng":135.31661123,"weekday":"09:30-16:30","saturday":"00:00-00:00","sunday":"00:00-00:00","holiday":"00:00-00:00","closed":"土、日、祝日　　夏期(8/13~8/15)　　年末年始(12/29~1/3)","capacity":5,"id":"3051800088"},{"name":"のぞみスター","nameKana":"のぞみすたー","corp":"株式会社縁和会","serviceTypes":["児童発達支援"],"ward":"海南市","address":"和歌山県海南市岡田３３１番地７","tel":"073-483-6036","url":"https://enwakai.net/","lat":34.17237168,"lng":135.2154468,"weekday":"09:00-15:00","saturday":"09:00-11:00","sunday":"","holiday":"","closed":"日曜日・祝日・年末年始（12月29日から1月3日）","capacity":20,"id":"3051400152"},{"name":"＋one","nameKana":"ぷらすわん","corp":"株式会社240","serviceTypes":["児童発達支援","放課後等デイサービス"],"ward":"海南市","address":"和歌山県海南市且来５５４−１","tel":"073-482-3780","url":"http://www.garage240.com/plus1top.html","lat":34.17288094,"lng":135.24401961,"weekday":"10:50-17:00","saturday":"10:00-16:00","sunday":"","holiday":"10:00-17:00","closed":"日曜、盆、正月休み","capacity":10,"id":"3051400160"},{"name":"こじか園","nameKana":"こじかえん","corp":"社会福祉法人　一麦会","serviceTypes":["児童発達支援"],"ward":"和歌山市","address":"和歌山県和歌山市上黒谷４６０−２","tel":"073-462-2895","url":"","lat":34.27575591,"lng":135.2576117,"weekday":"09:00-15:15","saturday":"","sunday":"","holiday":"","closed":"","capacity":null,"id":"3050100043"},{"name":"第二こじか園","nameKana":"だいにこじかえん","corp":"社会福祉法人　一麦会","serviceTypes":["児童発達支援"],"ward":"和歌山市","address":"和歌山県和歌山市田尻155-1","tel":"073-476-4410","url":"","lat":34.21254664,"lng":135.19825041,"weekday":"","saturday":"","sunday":"","holiday":"","closed":"","capacity":30,"id":"3050100258"},{"name":"パンダキッズアカデミー","nameKana":"ぱんだきっずあかでみー","corp":"特定非営利活動法人パンダ作業所","serviceTypes":["児童発達支援","放課後等デイサービス"],"ward":"和歌山市","address":"和歌山県和歌山市田中町4丁目62","tel":"073-424-1355","url":"","lat":34.22880291,"lng":135.18860629,"weekday":"10:00-18:00","saturday":"10:00-16:00","sunday":"","holiday":"","closed":"日・月曜日・祝日","capacity":10,"id":"3050101355"},{"name":"指定多機能型事業所パレット","nameKana":"していたきのうがたじしょうしょぱれっと","corp":"特定非営利活動法人ふれ愛たび倶楽部","serviceTypes":["児童発達支援","放課後等デイサービス"],"ward":"和歌山市","address":"和歌山県和歌山市北島404-40","tel":"073-496-0656","url":"","lat":34.24030959,"lng":135.15387562,"weekday":"10:00-18:00","saturday":"09:00-13:00","sunday":"","holiday":"","closed":"","capacity":10,"id":"3050101116"},{"name":"なのはな・きっず","nameKana":"なのはなきっず","corp":"有限会社　プランニング守山","serviceTypes":["児童発達支援","放課後等デイサービス"],"ward":"和歌山市","address":"和歌山県和歌山市善明寺595-1","tel":"073-451-6700","url":"","lat":34.2625804,"lng":135.18775582,"weekday":"11:30-17:30","saturday":"09:00-15:00","sunday":"","holiday":"09:00-15:00","closed":"1月1日〜1月4日　、毎週日曜日","capacity":10,"id":"3050100324"},{"name":"ハミング子ども教室","nameKana":"はみんぐこどもきょうしつ","corp":"特定非営利活動法人ＡＤＬサポートセンター・ハミング","serviceTypes":["児童発達支援"],"ward":"和歌山市","address":"和歌山県和歌山市口須佐37-6","tel":"073-478-2378","url":"https://humming-kids.jp","lat":34.20538182,"lng":135.24579148,"weekday":"09:15-15:30","saturday":"","sunday":"","holiday":"","closed":"お盆、年末年始、日曜、祝日","capacity":10,"id":"3050100266"},{"name":"あんしあなとぅ　デイサービスセンター","nameKana":"あんしあなとぅでいさーびすせんたー","corp":"社会福祉法人河西福祉会","serviceTypes":["児童発達支援","放課後等デイサービス"],"ward":"和歌山市","address":"和歌山県和歌山市松江東１丁目７−２５和歌山市松江東","tel":"073-454-8900","url":"https://www.ancianatio.com/","lat":34.24383955,"lng":135.13454587,"weekday":"08:30-18:00","saturday":"08:30-18:00","sunday":"08:30-18:00","holiday":"08:30-18:00","closed":"12月29日~1月3日","capacity":10,"id":"3050100282"},{"name":"ファミリー児童デイサービス","nameKana":"ふぁみりーじどうでいさーびす","corp":"有限会社ファミリー","serviceTypes":["児童発達支援","放課後等デイサービス"],"ward":"和歌山市","address":"和歌山県和歌山市土入２５−１０フリューゲル２１　２Ｆ","tel":"073-455-6666","url":"","lat":34.25324139,"lng":135.14218381,"weekday":"10:00-18:00","saturday":"09:00-17:00","sunday":"","holiday":"09:00-17:00","closed":"日曜日","capacity":10,"id":"3050100308"},{"name":"ほほえみ・ねくすと","nameKana":"ほほえみねくすと","corp":"有限会社ほほえみ","serviceTypes":["児童発達支援","放課後等デイサービス"],"ward":"和歌山市","address":"和歌山県和歌山市木ノ本684-4","tel":"073-488-5649","url":"","lat":34.26198759,"lng":135.13306773,"weekday":"10:00-17:30","saturday":"10:00-17:30","sunday":"10:00-17:30","holiday":"10:00-17:30","closed":"","capacity":10,"id":"3050100720"},{"name":"ほほえみ","nameKana":"ほほえみ","corp":"有限会社ほほえみ","serviceTypes":["児童発達支援","放課後等デイサービス"],"ward":"和歌山市","address":"和歌山県和歌山市中439-1","tel":"073-451-3363","url":"https://hohoemi-dayservice.localinfo.jp/","lat":34.26631236,"lng":135.14512233,"weekday":"13:00-17:30","saturday":"10:00-17:30","sunday":"10:00-17:30","holiday":"10:00-17:30","closed":"年末年始","capacity":20,"id":"3050100332"},{"name":"児童デイサービス　雪うさぎ","nameKana":"じどうでいさーびすゆきうさぎ","corp":"株式会社雪うさぎ","serviceTypes":["児童発達支援","放課後等デイサービス"],"ward":"和歌山市","address":"和歌山県和歌山市和佐関戸228-1","tel":"073-499-8338","url":"","lat":34.24032026,"lng":135.25193788,"weekday":"10:00-18:00","saturday":"10:00-17:00","sunday":"","holiday":"10:00-18:00","closed":"日曜日・１２月２９日〜１月３日","capacity":30,"id":"3050100373"},{"name":"親と子の広場・ポコ","nameKana":"おやとこのひろばぽこ","corp":"特定非営利活動法人きのくに子どもＮＰＯ","serviceTypes":["児童発達支援"],"ward":"和歌山市","address":"和歌山県和歌山市福島４８７","tel":"08057647322","url":"http://kinokunikodomo.d.dooo.jp/poko.html","lat":34.24865337,"lng":135.16756037,"weekday":"09:00-15:00","saturday":"09:00-15:00","sunday":"","holiday":"","closed":"日及び、国民の祝日・年末年始・法人が認めた休日","capacity":10,"id":"3050100654"},{"name":"指定多機能型事業所　あゆみの園","nameKana":"していたきのうがたじぎょうしょあゆみのその","corp":"社会福祉法人愛徳園","serviceTypes":["児童発達支援","放課後等デイサービス"],"ward":"和歌山市","address":"和歌山県和歌山市今福三丁目５−４１","tel":"0734252391","url":"http://aitoku.or.jp/","lat":34.21150733,"lng":135.16334187,"weekday":"10:00-15:00","saturday":"","sunday":"","holiday":"","closed":"土・日・祝日、年末年始","capacity":10,"id":"3050100993"},{"name":"カナの家","nameKana":"かなのいえ","corp":"社会福祉法人愛徳園","serviceTypes":["児童発達支援"],"ward":"和歌山市","address":"和歌山県和歌山市葵町3-25","tel":"073-496-2368","url":"http://aitoku.or.jp/","lat":34.21376537,"lng":135.16135868,"weekday":"09:00-16:00","saturday":"","sunday":"","holiday":"","closed":"国民の祝日、12月30日〜１月3日、土曜日、日曜日","capacity":28,"id":"3050100431"},{"name":"モンキー’Ｓスクール","nameKana":"もんきーずすくーる","corp":"株式会社真道","serviceTypes":["児童発達支援","放課後等デイサービス"],"ward":"和歌山市","address":"和歌山県和歌山市加納２４６−１　パルム加納","tel":"073-488-2530","url":"http://www.shindou-go.com","lat":34.24498804,"lng":135.20706587,"weekday":"11:30-17:30","saturday":"09:30-15:30","sunday":"","holiday":"09:30-15:30","closed":"日曜日、ＧＷ、お盆、年末年始","capacity":10,"id":"3050100639"},{"name":"モンキー’Sスクール　Ⅱ","nameKana":"もんきーずすくーるつー","corp":"株式会社真道","serviceTypes":["児童発達支援","放課後等デイサービス"],"ward":"和歌山市","address":"和歌山県和歌山市栗栖６３４番地３","tel":"073-499-7905","url":"http://www.shindo-go.com","lat":34.23853893,"lng":135.21735138,"weekday":"11:30-17:30","saturday":"09:30-15:30","sunday":"","holiday":"09:30-15:30","closed":"日曜日、ＧＷ、お盆、年末年始","capacity":10,"id":"3050100738"},{"name":"あうる学育室","nameKana":"あうるがくいくしつ","corp":"特定非営利活動法人Ｐｅｅｒ心理教育サポートネットワーク","serviceTypes":["児童発達支援","放課後等デイサービス"],"ward":"和歌山市","address":"和歌山県和歌山市太田1丁目14-11オオトヨビル８階","tel":"08038251920","url":"https://peerauru01.wixsite.com/aurugakuikusitu","lat":34.23165275,"lng":135.19259762,"weekday":"13:20-21:00","saturday":"10:30-17:45","sunday":"","holiday":"","closed":"日曜日・祝日・年末年始・お盆","capacity":10,"id":"3050100704"},{"name":"いろは学育室","nameKana":"いろはがくいくしつ","corp":"特定非営利活動法人Ｐｅｅｒ心理教育サポートネットワーク","serviceTypes":["児童発達支援","放課後等デイサービス"],"ward":"和歌山市","address":"和歌山県和歌山市太田１丁目１４−１１　オオトヨビル５階　C・D・E号室","tel":"073-475-7533","url":"https://peeriroha02.wixsite.com/irohagakuikusitu","lat":34.23160553,"lng":135.19283927,"weekday":"13:20-21:00","saturday":"10:30-17:45","sunday":"","holiday":"","closed":"日曜日、祝日、年末年始、お盆（長期休暇中は土曜日、日曜日）","capacity":10,"id":"3050100886"},{"name":"若竹園","nameKana":"わかたけえん","corp":"社会福祉法人琴の浦リハビリテイションセンター","serviceTypes":["児童発達支援"],"ward":"和歌山市","address":"和歌山県和歌山市毛見1451-1","tel":"073-445-5721","url":"","lat":34.15782013,"lng":135.18421076,"weekday":"09:30-16:00","saturday":"","sunday":"","holiday":"","closed":"土・日・祝日・年末年始","capacity":20,"id":"3050100712"},{"name":"あんずキッズ","nameKana":"あんずきっず","corp":"社会福祉法人東和歌山福祉会","serviceTypes":["児童発達支援"],"ward":"和歌山市","address":"和歌山県和歌山市東田中310","tel":"0734775377","url":"","lat":34.2375569,"lng":135.28211284,"weekday":"","saturday":"","sunday":"","holiday":"","closed":"","capacity":null,"id":"3050100753"},{"name":"ユーカ農園","nameKana":"ゆーかのうえん","corp":"株式会社ユーカ技建","serviceTypes":["児童発達支援","放課後等デイサービス"],"ward":"和歌山市","address":"和歌山県和歌山市福島５７２−２７","tel":"073-460-4291","url":"","lat":34.24784502,"lng":135.16182195,"weekday":"10:00-17:00","saturday":"10:00-17:00","sunday":"","holiday":"","closed":"日曜・祝日・8月13日〜8月16日・12月29日〜1月7日","capacity":10,"id":"3050100795"},{"name":"みらい保育塾ダック","nameKana":"みらいほいくじゅくだっく","corp":"株式会社健康まんてん","serviceTypes":["児童発達支援","放課後等デイサービス"],"ward":"和歌山市","address":"和歌山県和歌山市神前126-3","tel":"073-488-2141","url":"","lat":34.21434662,"lng":135.20687481,"weekday":"08:30-17:30","saturday":"","sunday":"","holiday":"08:30-17:30","closed":"土曜日・日曜日","capacity":10,"id":"3050101348"},{"name":"一般社団法人ｓｕｎ・ｒｉｓｅ","nameKana":"いっぱんしゃだんほうじんさんらいず","corp":"一般社団法人ｓｕｎ・ｒｉｓｅ","serviceTypes":["児童発達支援","放課後等デイサービス"],"ward":"和歌山市","address":"和歌山県和歌山市松江中３−７−１０","tel":"073-454-7111","url":"http://npo-kuronet.jp/","lat":34.24783073,"lng":135.13090988,"weekday":"09:00-18:00","saturday":"","sunday":"","holiday":"","closed":"土・日・祝日","capacity":10,"id":"3050100902"},{"name":"児童発達支援ポニー","nameKana":"じどうはったつしえんぽにー","corp":"特定非営利活動法人和歌山勝手連ネットワーク","serviceTypes":["児童発達支援","放課後等デイサービス"],"ward":"和歌山市","address":"和歌山県和歌山市新在家150番地","tel":"073-463-7729","url":"https://www.pony1201.com","lat":34.24423504,"lng":135.19741098,"weekday":"09:00-18:00","saturday":"09:00-18:00","sunday":"","holiday":"","closed":"日月","capacity":10,"id":"3050100936"},{"name":"わくわく親子教室","nameKana":"わくわくおやこきょうしつ","corp":"一般社団法人わくわく","serviceTypes":["児童発達支援"],"ward":"和歌山市","address":"和歌山県和歌山市新庄99番地","tel":"0734639009","url":"https://www.wakuwaku2018.com/","lat":34.24200094,"lng":135.2879066,"weekday":"09:30-11:30","saturday":"09:30-13:30","sunday":"","holiday":"","closed":"土（月2回）、日、祝","capacity":10,"id":"3050100944"},{"name":"すぷらうと","nameKana":"すぷらうと","corp":"株式会社ＫＥＧキャリア・アカデミー","serviceTypes":["児童発達支援","放課後等デイサービス"],"ward":"和歌山市","address":"和歌山県和歌山市友田町2丁目145番地KEG教育センタービル4F","tel":"0734278855","url":"","lat":34.23192473,"lng":135.18543702,"weekday":"11:00-20:00","saturday":"09:00-18:00","sunday":"","holiday":"","closed":"日曜・祝日","capacity":10,"id":"3050100969"},{"name":"なないろ","nameKana":"なないろ","corp":"特定非営利活動法人シュアスタート和歌山","serviceTypes":["児童発達支援","放課後等デイサービス"],"ward":"和歌山市","address":"和歌山県和歌山市園部416番地11小林ビル","tel":"0734550716","url":"http://nanasapo.com","lat":34.26803268,"lng":135.18710024,"weekday":"09:00-15:00","saturday":"09:00-13:00","sunday":"","holiday":"","closed":"日曜、国民の祝日、１２月２９日から１月３日まで及び事業所が指定した日","capacity":10,"id":"3050100977"},{"name":"あおい学園","nameKana":"あおいがくえん","corp":"社会福祉法人あおい会","serviceTypes":["児童発達支援"],"ward":"和歌山市","address":"和歌山県和歌山市今福二丁目９−３５","tel":"073-422-0347","url":"http://www.aoikai.or.jp/","lat":34.2085633,"lng":135.16745266,"weekday":"09:15-15:15","saturday":"","sunday":"","holiday":"","closed":"土曜・日曜・祝日","capacity":30,"id":"3052100033"},{"name":"いこいの森","nameKana":"いこいのもり","corp":"株式会社わかまち","serviceTypes":["児童発達支援","放課後等デイサービス"],"ward":"和歌山市","address":"和歌山県和歌山市栄谷741-7","tel":"0734884384","url":"https://wakamachi.jimdofree.com","lat":34.26000207,"lng":135.15518291,"weekday":"09:00-16:00","saturday":"09:00-16:00","sunday":"","holiday":"10:00-16:00","closed":"日曜日","capacity":7,"id":"3050101009"},{"name":"和歌山ＹＭＣＡシードクラブ","nameKana":"わかやまわいえむしーえーしーどくらぶ","corp":"特定非営利活動法人和歌山ＹＭＣＡ","serviceTypes":["児童発達支援","放課後等デイサービス"],"ward":"和歌山市","address":"和歌山県和歌山市太田一丁目１２番１３号","tel":"073-473-3338","url":"https://www.wakayamaymca.org/","lat":34.23154444,"lng":135.193592,"weekday":"13:30-17:30","saturday":"09:00-15:00","sunday":"","holiday":"","closed":"","capacity":10,"id":"3050100647"},{"name":"児童発達支援放課後等デイサービスあいハンド","nameKana":"じどうはったつしえんほうかごとうでいさーびすあいはんど","corp":"株式会社オカモトトータルケア","serviceTypes":["児童発達支援"],"ward":"海南市","address":"和歌山県海南市黒江西ノ町711-2児童発達支援放課後等デイサービスあいハンド","tel":"073-483-7100","url":"https://www.aihand-kainan.com","lat":34.15761631,"lng":135.23973642,"weekday":"","saturday":"","sunday":"","holiday":"","closed":"","capacity":null,"id":"3051400186"},{"name":"あんさんぶる","nameKana":"あんさんぶる","corp":"株式会社きのくにサポートデイリーライフ","serviceTypes":["児童発達支援"],"ward":"和歌山市","address":"和歌山県和歌山市新中通４丁目７","tel":"0734995695","url":"","lat":34.23218845,"lng":135.18037908,"weekday":"14:00-18:00","saturday":"09:30-15:30","sunday":"","holiday":"09:30-15:30","closed":"日曜、１）年末年始期間（12月30日から1月3日まで） ２）研修・運営管理等によ","capacity":5,"id":"3050101173"},{"name":"さくらっ子","nameKana":"さくらっこ","corp":"医療法人さくら会","serviceTypes":["児童発達支援","放課後等デイサービス"],"ward":"海南市","address":"和歌山県海南市鳥居3-1","tel":"073-484-5102","url":"http://www.sakuraclinic.org/publics/index/18/","lat":34.15344964,"lng":135.21971035,"weekday":"09:00-17:30","saturday":"09:00-17:00","sunday":"","holiday":"09:00-17:00","closed":"日曜日、年末年始","capacity":15,"id":"3051400038"},{"name":"莢","nameKana":"さやか","corp":"株式会社MIN","serviceTypes":["児童発達支援","放課後等デイサービス"],"ward":"海南市","address":"和歌山県海南市岡田１１８１−１９","tel":"073-482-7738","url":"","lat":34.17336915,"lng":135.22722912,"weekday":"12:00-18:00","saturday":"10:00-16:00","sunday":"","holiday":"10:00-16:00","closed":"日曜日","capacity":10,"id":"3051400145"},{"name":"海南市さくら園","nameKana":"かいなんしさくらえん","corp":"海南市","serviceTypes":["児童発達支援"],"ward":"海南市","address":"和歌山県海南市日方1519-10（海南市海南保健福祉センター内）","tel":"073-483-8767","url":"","lat":34.15544907,"lng":135.21020015,"weekday":"08:30-16:00","saturday":"","sunday":"","holiday":"","closed":"","capacity":20,"id":"3051400046"},{"name":"児童発達支援・放課後等デイサービス結の杜","nameKana":"じどうはったつしえんほうかごとうでいさーびすゆいのもり","corp":"合同会社結の杜","serviceTypes":["児童発達支援","放課後等デイサービス"],"ward":"橋本市","address":"和歌山県橋本市東家六丁目1番5号フォルテ橋本市役所前101","tel":"0736267352","url":"http://yuinomori-hashimoto.com/","lat":34.31407197,"lng":135.60564305,"weekday":"14:30-17:30","saturday":"10:00-16:30","sunday":"","holiday":"10:00-16:30","closed":"日曜日","capacity":10,"id":"3051000176"},{"name":"多機能型事業所ほーぷ","nameKana":"たきのうがたじぎょうしょほーぷ","corp":"NO.6株式会社","serviceTypes":["児童発達支援","放課後等デイサービス"],"ward":"橋本市","address":"和歌山県橋本市高野口町名倉1368-4","tel":"0736-51-0130","url":"https://hope-kids.jp/","lat":34.31605439,"lng":135.5614058,"weekday":"10:00-18:00","saturday":"10:00-16:00","sunday":"","holiday":"10:00-16:00","closed":"火曜日、日曜日、夏季休暇8月13日〜15日、年末年始12月30日〜1月3日","capacity":10,"id":"3051000267"},{"name":"リハビリ専科とんぼ倶楽部","nameKana":"りはびりせんかとんぼくらぶ","corp":"合同会社こまつ制作館","serviceTypes":["児童発達支援","放課後等デイサービス"],"ward":"橋本市","address":"和歌山県橋本市高野口町名古曽６０８−３","tel":"0736-20-1315","url":"http://www.tombo-club.main.jp/　　　https://rehab-ageha.com/　","lat":34.30276165,"lng":135.56422008,"weekday":"12:00-18:00","saturday":"12:00-18:00","sunday":"09:00-16:00","holiday":"","closed":"祝祭日・お盆・年末年始","capacity":10,"id":"3051000127"},{"name":"橋本市立たんぽぽ園","nameKana":"はしもとしりつたんぽぽえん","corp":"橋本市","serviceTypes":["児童発達支援"],"ward":"橋本市","address":"和歌山県橋本市橋本市","tel":"0736206515","url":"","lat":34.31490518,"lng":135.60532362,"weekday":"09:00-15:30","saturday":"09:00-11:15","sunday":"","holiday":"","closed":"日・祝、12月29日〜1月3日","capacity":null,"id":"3051000044"},{"name":"児童発達支援センターさくらんぼ園","nameKana":"じどうはったつしえんせんたーさくらんぼえん","corp":"社会福祉法人桜樹","serviceTypes":["児童発達支援"],"ward":"有田市","address":"和歌山県有田市山地字中ノ瀬18番地","tel":"0737238251","url":"https://oujyu.com/project/sakuranboen","lat":34.08309798,"lng":135.12763472,"weekday":"09:00-15:30","saturday":"","sunday":"","holiday":"","closed":"","capacity":null,"id":"3051500134"},{"name":"KIDS ROOM STAR","nameKana":"きっずるーむすたー","corp":"株式会社JOAN STAR","serviceTypes":["児童発達支援","放課後等デイサービス"],"ward":"有田市","address":"和歌山県有田市箕島26-5 2F","tel":"080-7880-6217","url":"","lat":34.08493371,"lng":135.11885228,"weekday":"","saturday":"","sunday":"","holiday":"","closed":"","capacity":null,"id":"3050400013"},{"name":"放課後等デイサービス　ストロベリーハート","nameKana":"ほうかごとうでいさーびすすとろべりーはーと","corp":"株式会社JOAN　STAR","serviceTypes":["児童発達支援"],"ward":"和歌山市","address":"和歌山県和歌山市新通７丁目２番１号","tel":"0736-61-4177","url":"","lat":34.23314665,"lng":135.1790014,"weekday":"09:30-17:30","saturday":"09:30-16:30","sunday":"","holiday":"09:30-16:30","closed":"日曜日","capacity":10,"id":"3050101108"},{"name":"通所施設「にじ」","nameKana":"つうしょしせつにじ","corp":"社会福祉法人有田ひまわり福祉会","serviceTypes":["児童発達支援","放課後等デイサービス"],"ward":"有田市","address":"和歌山県有田市初島町浜字砂浜１７５６−１","tel":"0737-83-2298","url":"https://arida-himawari.jp","lat":34.083098,"lng":135.1276347,"weekday":"09:00-15:30","saturday":"09:00-15:30","sunday":"","holiday":"","closed":"第2，第4土曜日、日曜、祝祭日、８月１２日〜１６日、１２月２９日〜１月３日","capacity":5,"id":"3051500068"},{"name":"放課後等デイサービス　ウィズ・ユー田辺","nameKana":"ほうかごとうでいさーびすうぃずゆーたなべ","corp":"有限会社ハマコー","serviceTypes":["児童発達支援","放課後等デイサービス"],"ward":"田辺市","address":"和歌山県田辺市文里二丁目35番2-3号","tel":"0739-33-2080","url":"https://www.with-ac.com/shisetu/tanabe/","lat":33.71902326,"lng":135.38547527,"weekday":"11:30-19:00","saturday":"10:00-16:00","sunday":"","holiday":"10:00-16:00","closed":"日曜、年末年始","capacity":10,"id":"3052200213"},{"name":"児童発達支援・放課後等デイサービスともねっこ","nameKana":"じどうはったつしえんほうかごとうでいさーびすともねっこ","corp":"一般社団法人ともに","serviceTypes":["児童発達支援","放課後等デイサービス"],"ward":"田辺市","address":"和歌山県田辺市中三栖146番地の7","tel":"0739-20-8825","url":"https://tomoni-tomonekko.wixsite.com/tonomi","lat":33.73681289,"lng":135.42670487,"weekday":"","saturday":"","sunday":"","holiday":"","closed":"","capacity":null,"id":"3052200247"},{"name":"児童発達支援センター 通園ありんこ","nameKana":"じどうはったつしえんせんたーつうえんありんこ","corp":"社会福祉法人ふたば福祉会","serviceTypes":["児童発達支援"],"ward":"田辺市","address":"和歌山県田辺市田辺市芳養町3216-19","tel":"0739255539","url":"http://futaba-wakayama.com","lat":33.76001787,"lng":135.36927945,"weekday":"09:00-15:00","saturday":"","sunday":"","holiday":"","closed":"12月２９日〜１月３日まで、春休み・夏休み・冬休み","capacity":10,"id":"3052200239"},{"name":"ひまり","nameKana":"ひまり","corp":"特定非営利活動法人ころん","serviceTypes":["児童発達支援"],"ward":"田辺市","address":"和歌山県田辺市下三栖１４９９−８２","tel":"0739-81-2388","url":"https://www.npocolon.org/","lat":33.72967489,"lng":135.42297194,"weekday":"09:00-15:00","saturday":"","sunday":"","holiday":"","closed":"土曜日・日曜日・祝日・お盆・年末年始","capacity":10,"id":"3052200148"},{"name":"幹はうす","nameKana":"みきはうす","corp":"一般社団法人　幹","serviceTypes":["児童発達支援"],"ward":"和歌山市","address":"和歌山県和歌山市冬野７０３番地９","tel":"073-479-5785","url":"https://miki-zaitaku.com","lat":34.1911245,"lng":135.2107638,"weekday":"","saturday":"","sunday":"","holiday":"","closed":"","capacity":null,"id":"3050101058"},{"name":"幹はうす松江","nameKana":"みきはうすまつえ","corp":"一般社団法人　幹","serviceTypes":["児童発達支援","放課後等デイサービス"],"ward":"和歌山市","address":"和歌山県和歌山市松江北１丁目3-7","tel":"073-480-3575","url":"","lat":34.24838356,"lng":135.1396898,"weekday":"","saturday":"","sunday":"","holiday":"","closed":"","capacity":null,"id":"3050101124"},{"name":"HOPE","nameKana":"ほーぷ","corp":"株式会社アプローゼ","serviceTypes":["児童発達支援","放課後等デイサービス"],"ward":"岩出市","address":"和歌山県岩出市中黒62-1アトレ中黒C棟5-6号室","tel":"0736-60-6824","url":"","lat":34.25621356,"lng":135.3113593,"weekday":"","saturday":"","sunday":"","holiday":"","closed":"","capacity":null,"id":"3051800260"},{"name":"発達応援スペースジブンドキ","nameKana":"はったつおうえんすぺーすじぶんどき","corp":"合同会社ｔｏ’ＩＲＯ","serviceTypes":["児童発達支援","放課後等デイサービス"],"ward":"紀の川市","address":"和歌山県紀の川市田中馬場１７２番地１","tel":"070-6501-1016","url":"","lat":34.26628263,"lng":135.35656841,"weekday":"09:30-11:30","saturday":"09:00-16:00","sunday":"","holiday":"09:00-16:00","closed":"日曜日","capacity":10,"id":"3050300023"},{"name":"児童デイサービスぱんだ","nameKana":"じどうでいさーびすぱんだ","corp":"ネクスト合同会社","serviceTypes":["児童発達支援","放課後等デイサービス"],"ward":"紀の川市","address":"和歌山県紀の川市貴志川町長山122-3","tel":"0736-64-5123","url":"","lat":34.21184612,"lng":135.29465093,"weekday":"14:00-17:00","saturday":"09:00-15:00","sunday":"","holiday":"09:00-15:00","closed":"日曜日　盆休み・年末年始","capacity":10,"id":"3051700270"},{"name":"くるみ教室","nameKana":"くるみきょうしつ","corp":"社会福祉法人桃郷","serviceTypes":["児童発達支援"],"ward":"岩出市","address":"和歌山県岩出市吉田228番地10736-67-7788","tel":"0736-67-7799","url":"https://xn--48jvb5da.com/","lat":34.26632635,"lng":135.28147916,"weekday":"09:00-15:15","saturday":"","sunday":"","holiday":"","closed":"土（第１週、第3週）、日、祝","capacity":10,"id":"3051800203"},{"name":"つくしんぼ園","nameKana":"つくしんぼえん","corp":"社会福祉法人桃郷","serviceTypes":["児童発達支援"],"ward":"橋本市","address":"和歌山県橋本市高野口町大野74番地の1","tel":"0736-42-0100","url":"http://xn--48jvb5da.com/","lat":34.3076164,"lng":135.55338728,"weekday":"09:00-15:15","saturday":"","sunday":"","holiday":"","closed":"土、日、祝日","capacity":30,"id":"3051000093"},{"name":"あすなろ教室","nameKana":"あすなろきょうしつ","corp":"社会福祉法人桃郷","serviceTypes":["児童発達支援"],"ward":"伊都郡かつらぎ町","address":"和歌山県伊都郡かつらぎ町中飯降１０６２番地１","tel":"0736-23-2900","url":"http://xn--48jvb5da.com/","lat":34.30681066,"lng":135.53443595,"weekday":"09:00-15:15","saturday":"09:00-11:30","sunday":"","holiday":"","closed":"土、日、祝","capacity":10,"id":"3051300089"},{"name":"ひまわり園","nameKana":"ひまわりえん","corp":"社会福祉法人桃郷","serviceTypes":["児童発達支援"],"ward":"紀の川市","address":"和歌山県紀の川市桃山町調月５８番地の３","tel":"0736-66-0995","url":"https://xn--48jvb5da.com/","lat":34.24280691,"lng":135.33268771,"weekday":"09:00-15:15","saturday":"","sunday":"","holiday":"","closed":"土、日、祝日","capacity":30,"id":"3051500027"},{"name":"つぼみ園","nameKana":"つぼみえん","corp":"社会福祉法人桃郷","serviceTypes":["児童発達支援"],"ward":"紀の川市","address":"和歌山県紀の川市桃山町調月736番地の１","tel":"0736-66-0013","url":"http://xn--48jvb5da.com/","lat":34.22952527,"lng":135.33771244,"weekday":"09:00-15:15","saturday":"","sunday":"","holiday":"","closed":"土、日、祝","capacity":30,"id":"3051700205"},{"name":"木の実教室","nameKana":"きのみきょうしつ","corp":"社会福祉法人桃郷","serviceTypes":["児童発達支援"],"ward":"岩出市","address":"和歌山県岩出市曽屋３７０−１７","tel":"0736-62-0815","url":"http://xn--48jvb5da.com/","lat":34.26951782,"lng":135.30530145,"weekday":"09:00-11:30","saturday":"09:00-11:30","sunday":"","holiday":"","closed":"土（第１週、第３週）、日、祝","capacity":10,"id":"3051800047"},{"name":"放課後等デイサービス・児童発達支援事業所キッズよつば","nameKana":"ほうかごとうでいさーびすじどうはったつしえんじぎょうしょきっずよつば","corp":"合同会社めばえ","serviceTypes":["児童発達支援","放課後等デイサービス"],"ward":"紀の川市","address":"和歌山県紀の川市貴志川町井ノ口608","tel":"0736-79-4810","url":"https://kidsyotsuba.com/","lat":34.20423916,"lng":135.31403237,"weekday":"11:00-14:00","saturday":"09:00-15:00","sunday":"","holiday":"09:00-15:00","closed":"日曜日、GW,8月13日から15日、12月28日から1月4日","capacity":10,"id":"3051700197"},{"name":"児童発達支援 Angel Heart 放課後等デイサービス Flippers","nameKana":"じどうはったつしえんえんじぇるはーとほうかごとうでいさーびすふりっぱーず","corp":"特定非営利活動法人Happy Santa Claus","serviceTypes":["児童発達支援","放課後等デイサービス"],"ward":"岩出市","address":"和歌山県岩出市山田1-1","tel":"0736-61-7371","url":"","lat":34.27656726,"lng":135.32103831,"weekday":"14:30-18:30","saturday":"10:00-16:00","sunday":"","holiday":"10:00-16:00","closed":"","capacity":10,"id":"3051800286"},{"name":"放課後等デイサービス　ククナ","nameKana":"ほうかごとうでいさーびすくくな","corp":"株式会社結絆","serviceTypes":["児童発達支援","放課後等デイサービス"],"ward":"岩出市","address":"和歌山県岩出市岡田234番地の7","tel":"0736-62-3085","url":"","lat":34.2624435,"lng":135.33215669,"weekday":"","saturday":"","sunday":"","holiday":"","closed":"","capacity":null,"id":"3051800278"},{"name":"児童デイサービスベーネ","nameKana":"じどうでいさーびすべーね","corp":"株式会社PLUCK","serviceTypes":["児童発達支援","放課後等デイサービス"],"ward":"岩出市","address":"和歌山県岩出市尼ケ辻40-52階","tel":"0736-79-3302","url":"https://pluck-wakayama.com/","lat":34.27632277,"lng":135.30624571,"weekday":"10:00-16:00","saturday":"10:00-16:00","sunday":"","holiday":"10:00-16:00","closed":"日曜日・年末年始（12月29日〜1月3日）","capacity":10,"id":"3051800294"},{"name":"児童デイサービスセンターらふ岩出","nameKana":"じどうでいさーびすせんたーらふいわで","corp":"有限会社らふ","serviceTypes":["児童発達支援","放課後等デイサービス"],"ward":"岩出市","address":"和歌山県岩出市西国分７３５−１","tel":"0736-60-2564","url":"","lat":34.26391285,"lng":135.33533132,"weekday":"13:00-17:00","saturday":"10:00-14:30","sunday":"","holiday":"10:00-14:30","closed":"日曜日","capacity":10,"id":"3051700171"},{"name":"児童デイサービスセンターらふ","nameKana":"じどうでいさーびすせんたーらふ","corp":"有限会社らふ","serviceTypes":["児童発達支援","放課後等デイサービス"],"ward":"岩出市","address":"和歌山県岩出市山崎５２−３０","tel":"0736-69-2940","url":"","lat":34.24479817,"lng":135.32107512,"weekday":"13:00-17:00","saturday":"10:00-14:30","sunday":"","holiday":"10:00-14:30","closed":"日曜日","capacity":10,"id":"3051800054"},{"name":"児童発達支援センターネウボラロッツ","nameKana":"じどうはったつしえんせんたーねうぼらろっつ","corp":"特定非営利活動法人ロッツ","serviceTypes":["児童発達支援"],"ward":"岩出市","address":"和歌山県岩出市金池115−1","tel":"0736603184","url":"","lat":34.2562136,"lng":135.3113593,"weekday":"09:15-14:15","saturday":"","sunday":"","holiday":"","closed":"土曜　日曜　祝日","capacity":20,"id":"3051800161"},{"name":"いわでみんなの家","nameKana":"いわでみんなのいえ","corp":"特定非営利活動法人ロッツ","serviceTypes":["児童発達支援"],"ward":"岩出市","address":"和歌山県岩出市東坂本６９−１","tel":"0736-61-2572","url":"http://www.solana.biz/lots","lat":34.27447307,"lng":135.3338397,"weekday":"14:00-17:15","saturday":"10:00-15:00","sunday":"","holiday":"","closed":"日曜、祝日、お盆、年末年始","capacity":10,"id":"3051800062"},{"name":"障がい児者生活支援施設ポケットハウス","nameKana":"しょうがいじしゃせいかつしえんしせつぽけっとはうす","corp":"有限会社青葉会","serviceTypes":["児童発達支援","放課後等デイサービス"],"ward":"伊都郡かつらぎ町","address":"和歌山県伊都郡かつらぎ町笠田東４８７−１","tel":"0736-22-7081","url":"http://free-pocket.jp/","lat":34.28652921,"lng":135.47628816,"weekday":"13:30-17:30","saturday":"09:30-16:30","sunday":"","holiday":"09:30-16:30","closed":"日曜日、8月13日から8月16日、12月29日から1月3日","capacity":10,"id":"3051300048"},{"name":"こども発達支援・放課後等デイサービスゆうゆうくじら","nameKana":"こどもはったつしえんほうかごとうでいさーびすゆうゆうくじら","corp":"特定非営利活動法人めぐみ福祉会","serviceTypes":["児童発達支援","放課後等デイサービス"],"ward":"橋本市","address":"和歌山県橋本市御幸辻284","tel":"0736-54-3027","url":"","lat":34.34036613,"lng":135.60387332,"weekday":"09:30-16:00","saturday":"09:30-14:30","sunday":"","holiday":"10:00-17:00","closed":"日曜日、12月30日~1月3日","capacity":10,"id":"3050300031"},{"name":"なのはな園","nameKana":"なのはなえん","corp":"社会福祉法人ひまわり福祉会","serviceTypes":["児童発達支援"],"ward":"有田郡有田川町","address":"和歌山県有田郡有田川町庄32−4","tel":"0737238555","url":"http://www.himawarihoikuen.ed.jp","lat":34.06504023,"lng":135.24023543,"weekday":"09:00-15:30","saturday":"08:30-12:30","sunday":"","holiday":"","closed":"事業所が指定した日及び国民の祝日","capacity":null,"id":"3051600181"},{"name":"おひさま園","nameKana":"おひさまえん","corp":"社会福祉法人ひまわり福祉会","serviceTypes":["児童発達支援"],"ward":"有田郡有田川町","address":"和歌山県有田郡有田川町奥104-1","tel":"0737-23-7739","url":"","lat":34.05003056,"lng":135.21060758,"weekday":"09:00-16:00","saturday":"08:30-12:30","sunday":"","holiday":"","closed":"事業所が指定した日及び国民の祝日、日曜日","capacity":30,"id":"3051600082"},{"name":"通園みらい","nameKana":"つうえんみらい","corp":"社会福祉法人太陽福祉会","serviceTypes":["児童発達支援"],"ward":"御坊市","address":"和歌山県御坊市薗500番地","tel":"0738-22-7854","url":"https://www.taiyo.or.jp/","lat":33.88698128,"lng":135.15567681,"weekday":"09:00-15:15","saturday":"08:30-12:30","sunday":"","holiday":"","closed":"第４・第５土曜日、日曜日、祝日、12/29〜1/4","capacity":20,"id":"3052000035"},{"name":"多機能型事業所かのん","nameKana":"たきのうがたじぎょうしょかのん","corp":"社会福祉法人和歌山県福祉事業団","serviceTypes":["児童発達支援","放課後等デイサービス","居宅訪問型児童発達支援"],"ward":"東牟婁郡那智勝浦町","address":"和歌山県東牟婁郡那智勝浦町大字天満1185-1","tel":"0735296027","url":"https://www.wfj.or.jp","lat":33.62644901,"lng":135.93843603,"weekday":"10:00-17:00","saturday":"","sunday":"","holiday":"10:00-17:00","closed":"土曜日、日曜日、12月30日から1月3日","capacity":10,"id":"3052500109"},{"name":"小規模多機能型居宅介護事業所きずな館","nameKana":"しょうきぼたきのうがたきょたくかいごじぎょうしょきずなかん","corp":"社会福祉法人和歌山県福祉事業団","serviceTypes":["児童発達支援","放課後等デイサービス"],"ward":"田辺市","address":"和歌山県田辺市龍神村宮代176","tel":"0739780821","url":"https://www.wfj.or.jp","lat":33.91423391,"lng":135.49840665,"weekday":"09:30-17:00","saturday":"09:30-17:00","sunday":"09:30-17:00","holiday":"09:30-17:00","closed":"","capacity":15,"id":"3052200205"},{"name":"多機能型事業所夢おれんじ","nameKana":"たきのうがたじむしょゆめおれんじ","corp":"社会福祉法人和歌山県福祉事業団","serviceTypes":["児童発達支援","放課後等デイサービス"],"ward":"有田郡湯浅町","address":"和歌山県有田郡湯浅町栖原1058-1","tel":"0737-63-6551","url":"https://www.wfj.or.jp","lat":34.04399336,"lng":135.16780096,"weekday":"09:30-17:30","saturday":"09:30-17:30","sunday":"","holiday":"09:30-17:30","closed":"日・年末年始","capacity":10,"id":"3051600264"},{"name":"児童デイサービスこまどり","nameKana":"じどうでいさーびすこまどり","corp":"社会福祉法人和歌山県福祉事業団","serviceTypes":["児童発達支援","放課後等デイサービス"],"ward":"橋本市","address":"和歌山県橋本市高野口町名倉１０１７−１","tel":"0736-44-3860","url":"https://www.wfj.or.jp/","lat":34.30733594,"lng":135.55680371,"weekday":"10:00-17:00","saturday":"10:00-17:00","sunday":"","holiday":"","closed":"日曜・祝日、8月13日から15日・12月29日から1月3日","capacity":10,"id":"3051000051"},{"name":"児童デイサービスきらり","nameKana":"じどうでいさーびすきらり","corp":"社会福祉法人和歌山県福祉事業団","serviceTypes":["児童発達支援","放課後等デイサービス"],"ward":"紀の川市","address":"和歌山県紀の川市粉河681-4","tel":"0736-73-8733","url":"https://www.wfj.or.jp/","lat":34.26651616,"lng":135.40367604,"weekday":"09:30-17:30","saturday":"09:30-17:30","sunday":"","holiday":"","closed":"日曜日、国民の祝日、8月13日から15日、12月29日から1月3日","capacity":10,"id":"3051700130"},{"name":"児童デイサービスどりーむ","nameKana":"じどうでいさーびすどりーむ","corp":"社会福祉法人和歌山県福祉事業団","serviceTypes":["児童発達支援","放課後等デイサービス"],"ward":"日高郡由良町","address":"和歌山県日高郡由良町吹井130","tel":"0738-65-3311","url":"https://www.wfj.or.jp","lat":33.97067168,"lng":135.11270189,"weekday":"09:30-17:30","saturday":"09:30-17:30","sunday":"","holiday":"","closed":"8月13日~8月15日、12月29日~1月3日、日曜日、祝日","capacity":10,"id":"3052100066"},{"name":"児童発達支援センターふうか","nameKana":"じどうはったつしえんせんたーふうか","corp":"社会福祉法人和歌山県福祉事業団","serviceTypes":["児童発達支援","放課後等デイサービス","居宅訪問型児童発達支援"],"ward":"西牟婁郡上富田町","address":"和歌山県西牟婁郡上富田町岩田1776-1","tel":"0739-47-3866","url":"https://www.wfj.or.jp","lat":33.70835017,"lng":135.44405603,"weekday":"09:30-17:30","saturday":"","sunday":"","holiday":"","closed":"土日、国民の休日及び12月29日から1月3日","capacity":20,"id":"3052400086"},{"name":"児童デイサービス　くれよん","nameKana":"じどうでいさーびす","corp":"社会福祉法人和歌山県福祉事業団","serviceTypes":["児童発達支援","放課後等デイサービス"],"ward":"西牟婁郡上富田町","address":"和歌山県西牟婁郡上富田町朝来２３１２番地の３２","tel":"0739-83-3367","url":"https://www.wfj.or.jp","lat":33.70252582,"lng":135.41970016,"weekday":"09:30-18:30","saturday":"09:30-18:30","sunday":"09:30-18:30","holiday":"09:30-18:30","closed":"8月13日〜8月15日、12月29日〜1月3日","capacity":20,"id":"3052400102"},{"name":"児童デイサービスぱれっと","nameKana":"じどうでいさーびすぱれっと","corp":"社会福祉法人和歌山県福祉事業団","serviceTypes":["児童発達支援","放課後等デイサービス"],"ward":"西牟婁郡白浜町","address":"和歌山県西牟婁郡白浜町瓜切2926-1100","tel":"0739-34-2865","url":"https://www.wfj.or.jp","lat":33.6782527,"lng":135.3481981,"weekday":"09:30-17:30","saturday":"09:30-17:30","sunday":"09:30-17:30","holiday":"09:30-17:30","closed":"8月13〜15日、12月29日〜1月3日","capacity":10,"id":"3052400110"},{"name":"多機能型事業所ふくいく","nameKana":"たきのうがたじぎょうしょふくいく","corp":"社会福祉法人和歌山県福祉事業団","serviceTypes":["児童発達支援","放課後等デイサービス"],"ward":"西牟婁郡上富田町","address":"和歌山県西牟婁郡上富田町岩田1776-1","tel":"0739-47-5449","url":"https://www.wfj.or.jp","lat":33.70835017,"lng":135.44405603,"weekday":"09:00-17:00","saturday":"09:00-17:00","sunday":"","holiday":"","closed":"土日祝祭日及び12月30日から1月3日","capacity":30,"id":"3052400128"},{"name":"児童デイサービスふわり","nameKana":"じどうでいさーびすふわり","corp":"社会福祉法人和歌山県福祉事業団","serviceTypes":["児童発達支援","放課後等デイサービス"],"ward":"東牟婁郡串本町","address":"和歌山県東牟婁郡串本町上野山143-1","tel":"0735-67-7276","url":"https://www.wfj.or.jp/","lat":33.51590205,"lng":135.83448122,"weekday":"09:30-17:30","saturday":"09:30-17:30","sunday":"09:30-17:30","holiday":"09:30-17:30","closed":"基本、年末年始以外は開所しています。","capacity":10,"id":"3052500042"},{"name":"児童発達支援センター　通園くじら","nameKana":"じどうはったつしえんせんたーつうえんくじら","corp":"社会福祉法人いなほ福祉会","serviceTypes":["児童発達支援"],"ward":"東牟婁郡那智勝浦町","address":"和歌山県東牟婁郡那智勝浦町勝浦342","tel":"0735-29-7502","url":"http://inahofukushikai.jp","lat":33.62986542,"lng":135.94428815,"weekday":"09:00-15:00","saturday":"09:30-11:30","sunday":"","holiday":"","closed":"","capacity":16,"id":"3052500034"},{"name":"通園らっこ","nameKana":"つうえんらっこ","corp":"社会福祉法人いなほ福祉会","serviceTypes":["児童発達支援"],"ward":"東牟婁郡串本町","address":"和歌山県東牟婁郡串本町津荷字２５０番地１","tel":"0735-67-7135","url":"http://inahofukushikai.jp","lat":33.51956279,"lng":135.83404794,"weekday":"09:00-15:00","saturday":"09:30-11:30","sunday":"","holiday":"","closed":"","capacity":10,"id":"3052500091"},{"name":"放課後等デイサービス　ホワイトキャンパス","nameKana":"ほうかごとうでいさーびすほわいときゃんぱす","corp":"株式会社Lyen","serviceTypes":["放課後等デイサービス"],"ward":"東牟婁郡那智勝浦町","address":"和歌山県東牟婁郡那智勝浦町浜ノ宮９６−１４","tel":"0735-29-2263","url":"https://www.instagram.com/whitecampus/","lat":33.64059181,"lng":135.93363892,"weekday":"13:15-17:15","saturday":"10:00-15:00","sunday":"","holiday":"10:00-15:00","closed":"土曜日・日曜日・祝日　※土曜日は開所するときがある","capacity":10,"id":"3052500117"},{"name":"森のひろば","nameKana":"もりのひろば","corp":"コネクトｗｉｔｈチャイルド株式会社","serviceTypes":["放課後等デイサービス"],"ward":"和歌山市","address":"和歌山県和歌山市鳴神13番地2","tel":"073-463-6901","url":"https://morinohiroba0107.hp.peraichi.com/","lat":34.22576767,"lng":135.210216,"weekday":"10:00-17:00","saturday":"09:00-16:00","sunday":"","holiday":"","closed":"日曜日・祝日・年末年始（12/29〜1/4）","capacity":10,"id":"3050101181"},{"name":"コ・ラーニングスペースLib","nameKana":"こらーにんぐすぺーすりぶ","corp":"株式会社リソフル","serviceTypes":["放課後等デイサービス"],"ward":"和歌山市","address":"和歌山県和歌山市有家７２番地１７","tel":"090-6208-5760","url":"","lat":34.2258536,"lng":135.20276649,"weekday":"15:30-20:30","saturday":"10:00-13:00","sunday":"","holiday":"10:00-13:00","closed":"","capacity":10,"id":"3050101421"},{"name":"めろん教室","nameKana":"めろんきょうしつ","corp":"株式会社GreenIsland","serviceTypes":["放課後等デイサービス"],"ward":"岩出市","address":"和歌山県岩出市金池474番地の1","tel":"0736-71-0477","url":"","lat":34.27197862,"lng":135.28842286,"weekday":"13:30-17:30","saturday":"09:00-15:00","sunday":"09:00-15:00","holiday":"09:00-15:00","closed":"","capacity":10,"id":"3051800120"},{"name":"キャロット","nameKana":"きゃろっと","corp":"株式会社GreenApple","serviceTypes":["放課後等デイサービス"],"ward":"岩出市","address":"和歌山県岩出市岡田3-1エターナルフォレスト105号室","tel":"0736-67-8933","url":"","lat":34.26286293,"lng":135.32788774,"weekday":"13:30-17:30","saturday":"09:00-15:00","sunday":"","holiday":"09:00-15:00","closed":"日曜","capacity":10,"id":"3051800187"},{"name":"ひかりスター","nameKana":"ひかりすたー","corp":"株式会社縁和会","serviceTypes":["放課後等デイサービス"],"ward":"海南市","address":"和歌山県海南市岡田326","tel":"073-463-6567","url":"https://enwakai.net/","lat":34.1717746,"lng":135.21718275,"weekday":"12:00-17:00","saturday":"09:00-15:00","sunday":"","holiday":"","closed":"日曜日、土曜日（月２〜３回）、祝祭日、年末年始","capacity":20,"id":"3051400178"},{"name":"げんきっず","nameKana":"げんきっず","corp":"一般社団法人Shake Hands","serviceTypes":["放課後等デイサービス"],"ward":"和歌山市","address":"和歌山県和歌山市和佐関戸51番地1","tel":"073-488-2478","url":"","lat":34.24003421,"lng":135.25793748,"weekday":"","saturday":"","sunday":"","holiday":"","closed":"（火・日）","capacity":10,"id":"3050101462"},{"name":"ハッピーステーション","nameKana":"はっぴーすてーしょん","corp":"社会福祉法人ハッピーステーション","serviceTypes":["放課後等デイサービス"],"ward":"和歌山市","address":"和歌山県和歌山市米屋町３番地ぶらくり丁ブリスビル１階","tel":"073-494-6212","url":"https://www.happy-station.or.jp","lat":34.23357985,"lng":135.1754378,"weekday":"13:30-17:30","saturday":"","sunday":"","holiday":"","closed":"５月3日〜5日、8月13日〜15日、12月29日〜1月3日","capacity":10,"id":"3050100274"},{"name":"児童デイサービスフレンズ","nameKana":"じどうでいさーびすふれんず","corp":"特定非営利活動法人おもちゃばこ","serviceTypes":["放課後等デイサービス"],"ward":"和歌山市","address":"和歌山県和歌山市新庄１６６−２３","tel":"073-477-3282","url":"","lat":34.23859575,"lng":135.29084526,"weekday":"","saturday":"","sunday":"","holiday":"","closed":"","capacity":null,"id":"3050100290"},{"name":"mameの木","nameKana":"まめのき","corp":"NEMUの木presence株式会社","serviceTypes":["放課後等デイサービス"],"ward":"和歌山市","address":"和歌山県和歌山市岩橋567-3送迎　電車","tel":"073-488-2826","url":"https://nemunokipresence.com/","lat":34.24454198,"lng":135.23388344,"weekday":"","saturday":"","sunday":"","holiday":"","closed":"","capacity":null,"id":"3050100803"},{"name":"ほほえみ・ぷらす","nameKana":"ほほえみぷらす","corp":"有限会社ほほえみ","serviceTypes":["放課後等デイサービス"],"ward":"和歌山市","address":"和歌山県和歌山市梅原１８５−７","tel":"073-451-3363","url":"","lat":34.25819639,"lng":135.13794797,"weekday":"13:00-17:30","saturday":"10:00-17:30","sunday":"","holiday":"10:00-17:30","closed":"日曜日","capacity":10,"id":"3050100563"},{"name":"エジソンジュニア","nameKana":"えじそんじゅにあ","corp":"一般社団法人　パーソナリティカレッジ","serviceTypes":["放課後等デイサービス"],"ward":"和歌山市","address":"和歌山県和歌山市梶取169","tel":"073-480-1147","url":"","lat":34.25095573,"lng":135.15553599,"weekday":"13:00-17:00","saturday":"09:30-17:00","sunday":"","holiday":"09:30-17:00","closed":"日曜日","capacity":20,"id":"3050100589"},{"name":"放課後デイサービスあんず","nameKana":"ほうかごでいさーびすあんず","corp":"社会福祉法人東和歌山福祉会","serviceTypes":["放課後等デイサービス"],"ward":"和歌山市","address":"和歌山県和歌山市東田中３１０","tel":"073-477-5377","url":"","lat":34.2375569,"lng":135.28211284,"weekday":"","saturday":"","sunday":"","holiday":"","closed":"","capacity":null,"id":"3050100753"},{"name":"みらい発達塾ダック内原校","nameKana":"みらいはったつじゅくだっくうちはらこう","corp":"株式会社健康まんてん","serviceTypes":["放課後等デイサービス"],"ward":"和歌山市","address":"和歌山県和歌山市内原８６７−１","tel":"073-445-1233","url":"","lat":34.17212114,"lng":135.194257,"weekday":"14:30-18:00","saturday":"","sunday":"","holiday":"10:30-18:00","closed":"土曜日・日曜日","capacity":10,"id":"3050101074"},{"name":"みらい発達塾ダックチャイルド神前校","nameKana":"みらいはったつじゅくだっくちゃいるどこうざきこう","corp":"株式会社健康まんてん","serviceTypes":["放課後等デイサービス"],"ward":"和歌山市","address":"和歌山県和歌山市神前568-22","tel":"090-1676-6362","url":"","lat":34.20952499,"lng":135.20763599,"weekday":"10:00-18:00","saturday":"","sunday":"","holiday":"10:00-18:00","closed":"土曜日・日曜日","capacity":10,"id":"3050101165"},{"name":"みらい発達塾ダック","nameKana":"みらいはったつじゅくだっく","corp":"株式会社健康まんてん","serviceTypes":["放課後等デイサービス"],"ward":"和歌山市","address":"和歌山県和歌山市神前８５−５","tel":"0734882141","url":"http://www.ducktogogo.com","lat":34.21425497,"lng":135.20714702,"weekday":"09:30-17:30","saturday":"09:30-17:30","sunday":"","holiday":"09:30-17:30","closed":"日曜日","capacity":10,"id":"3050100894"},{"name":"児童デイサービス　Ｍiku","nameKana":"じどうでいさーびすみく","corp":"有限会社ケアセンター未来","serviceTypes":["放課後等デイサービス"],"ward":"和歌山市","address":"和歌山県和歌山市東高松４−４−３６","tel":"073-419-1139","url":"","lat":34.20411674,"lng":135.17368274,"weekday":"13:00-18:00","saturday":"10:00-16:00","sunday":"","holiday":"10:00-16:00","closed":"日曜日","capacity":10,"id":"3050100340"},{"name":"さくらんぼ教室","nameKana":"さくらんぼきょうしつ","corp":"株式会社ＧｒｅｅｎＩｓｌａｎｄ","serviceTypes":["放課後等デイサービス"],"ward":"和歌山市","address":"和歌山県和歌山市舟津町二丁目16番地の1","tel":"073-412-3456","url":"","lat":34.2219505,"lng":135.15916437,"weekday":"13:30-17:30","saturday":"09:00-15:00","sunday":"09:00-15:00","holiday":"09:00-15:00","closed":"","capacity":10,"id":"3050100498"},{"name":"くろすはうす","nameKana":"くろすはうす","corp":"特定非営利活動法人紀ノ国就労支援センター","serviceTypes":["放課後等デイサービス"],"ward":"和歌山市","address":"和歌山県和歌山市和田７２９−８","tel":"080-9606-9696","url":"","lat":34.2023619,"lng":135.20511964,"weekday":"","saturday":"","sunday":"","holiday":"","closed":"火・日","capacity":20,"id":"3050101017"},{"name":"クロスオーバージュニア","nameKana":"くろすおーばーじゅにあ","corp":"特定非営利活動法人紀ノ国就労支援センター","serviceTypes":["放課後等デイサービス"],"ward":"和歌山市","address":"和歌山県和歌山市湊御殿1丁目4","tel":"090-5151-4625","url":"","lat":34.22041457,"lng":135.15754226,"weekday":"13:00-17:00","saturday":"11:00-17:00","sunday":"","holiday":"11:00-17:00","closed":"（金・日）","capacity":20,"id":"3050100746"},{"name":"放課後等デイサービスウィズ園部","nameKana":"ほうかごとうでいさーびすういずそのべ","corp":"株式会社希望","serviceTypes":["放課後等デイサービス"],"ward":"和歌山市","address":"和歌山県和歌山市園部１１３３−１サンキグリーン　１階南","tel":"073-462-2288","url":"","lat":34.25909746,"lng":135.19108898,"weekday":"14:00-17:30","saturday":"11:00-17:00","sunday":"00:00-00:00","holiday":"11:00-17:00","closed":"日曜日　12月30日~1月4日","capacity":10,"id":"3050100787"},{"name":"児童発達支援放課後等デイサービスあいハンド","nameKana":"じどうはったつしえんほうかごとうでいさーびすあいはんど","corp":"株式会社オカモトトータルケア","serviceTypes":["放課後等デイサービス"],"ward":"海南市","address":"和歌山県海南市黒江西ノ町711-2","tel":"073-482-6100","url":"","lat":34.15761631,"lng":135.23973642,"weekday":"","saturday":"","sunday":"","holiday":"","closed":"","capacity":null,"id":"3051400186"},{"name":"あんさんぶる","nameKana":"あんさんぶる","corp":"株式会社きのくにサポートデイリーライフ","serviceTypes":["放課後等デイサービス"],"ward":"和歌山市","address":"和歌山県和歌山市新中通４丁目７","tel":"073-499-5695","url":"","lat":34.23218845,"lng":135.18037908,"weekday":"14:00-18:00","saturday":"09:30-15:30","sunday":"","holiday":"09:30-15:00","closed":"日曜　月曜または火曜　年末年始","capacity":5,"id":"3050101173"},{"name":"K-if","nameKana":"けいふ","corp":"合同会社ユニバーサル・ライフ","serviceTypes":["放課後等デイサービス"],"ward":"紀の川市","address":"和歌山県紀の川市貴志川町長原161-5","tel":"0736-67-6134","url":"https://www.k-if.jp/","lat":34.21342102,"lng":135.29886991,"weekday":"12:00-17:00","saturday":"10:00-17:00","sunday":"","holiday":"10:00-17:00","closed":"水曜日・日曜日・年末年始（１２月３１日〜１月４日）","capacity":10,"id":"3051700262"},{"name":"放課後等デイサービスびぃうぃず","nameKana":"ほうかごとうでいさーびすびぃうぃず","corp":"株式会社BEWITH","serviceTypes":["放課後等デイサービス"],"ward":"橋本市","address":"和歌山県橋本市三石台2-4-3","tel":"090-8116-2410","url":"https://h-navi.jp/","lat":34.35239796,"lng":135.60021784,"weekday":"15:45-20:45","saturday":"11:00-17:00","sunday":"","holiday":"","closed":"日曜・月曜・祝日","capacity":10,"id":"3050300015"},{"name":"放課後等デイサービス和里ーにこりー","nameKana":"ほうかごとうでいさーびすにこり","corp":"株式会社公和","serviceTypes":["放課後等デイサービス"],"ward":"橋本市","address":"和歌山県橋本市紀見ケ丘二丁目２番１号","tel":"0736-26-7023","url":"http://wanosato-kowa.com/index.html","lat":34.3654409,"lng":135.60950008,"weekday":"14:00-17:00","saturday":"00:00-00:00","sunday":"00:00-00:00","holiday":"10:00-17:00","closed":"土・日曜日及び年末年始12月30日〜1月3日","capacity":10,"id":"3051000234"},{"name":"放課後等デイサービス小麦畑","nameKana":"ほうかごとうでいさーびすこむぎばたけ","corp":"社会福祉法人桜樹","serviceTypes":["放課後等デイサービス"],"ward":"有田市","address":"和歌山県有田市箕島123","tel":"0737-22-3306","url":"https://oujyu.com/project/sakuranboen","lat":34.08641976,"lng":135.12646248,"weekday":"14:00-17:00","saturday":"10:30-15:30","sunday":"","holiday":"","closed":"","capacity":20,"id":"3051500142"},{"name":"放課後等デイサービス　ストロベリーハート","nameKana":"ほうかごとうでいさーびすすとろべりーはーと","corp":"株式会社JOAN　STAR","serviceTypes":["放課後等デイサービス"],"ward":"和歌山市","address":"和歌山県和歌山市新通７丁目２番１号","tel":"0734889595","url":"https://strawberry-heart.com","lat":34.23387436,"lng":135.17885975,"weekday":"09:30-17:30","saturday":"09:30-16:30","sunday":"","holiday":"09:30-16:30","closed":"日曜日","capacity":10,"id":"3050101108"},{"name":"ケアステーションみなと","nameKana":"けあすてーしょんみなと","corp":"株式会社ライフステーション","serviceTypes":["放課後等デイサービス"],"ward":"御坊市","address":"和歌山県御坊市塩屋町北塩屋６６７−７　ウラノハイツ１F","tel":"0738-52-7758","url":"https://www.carestation.info","lat":33.87899904,"lng":135.16259004,"weekday":"14:00-18:00","saturday":"09:00-15:00","sunday":"","holiday":"","closed":"日祝日　 年末年始（12/30〜1/3）4月1日お盆（8/13〜8/15）休業","capacity":10,"id":"3052000084"},{"name":"ケアステーションみなと２","nameKana":"けあすてーしょんみなとつー","corp":"株式会社ライフステーション","serviceTypes":["放課後等デイサービス"],"ward":"御坊市","address":"和歌山県御坊市野口１６０−１","tel":"0738-20-5523","url":"http://2nd.carestation.info/","lat":33.8979642,"lng":135.18739085,"weekday":"13:30-17:30","saturday":"09:30-15:30","sunday":"","holiday":"","closed":"日祝日　 年末年始（12/30〜1/3）4月1日お盆（8/13〜8/15）休業","capacity":10,"id":"3052000092"},{"name":"放課後等デイサービスらん","nameKana":"ほうかごとうでいさーびすらん","corp":"株式会社松山","serviceTypes":["放課後等デイサービス"],"ward":"御坊市","address":"和歌山県御坊市湯川町財部70番地1","tel":"0738-20-5343","url":"https://matsuyama-wakayama.com/","lat":33.90282094,"lng":135.14901899,"weekday":"13:00-17:00","saturday":"","sunday":"09:30-15:30","holiday":"09:30-15:00","closed":"土、日曜、国民の祝日、８月１３日から１５日及び１２月２９日から１月５日まで","capacity":10,"id":"3052000068"},{"name":"リハテラスひだか","nameKana":"りはてらすひだか","corp":"株式会社未来アシスト","serviceTypes":["放課後等デイサービス"],"ward":"御坊市","address":"和歌山県御坊市塩屋町北塩屋693-3コーポフィン１−AB号室","tel":"0738-24-9008","url":"https://www.miraiassist.jp/home/","lat":33.87795471,"lng":135.16241506,"weekday":"14:30-17:30","saturday":"","sunday":"","holiday":"","closed":"土曜日・日曜日・祝日・正月・お盆","capacity":10,"id":"3052000076"},{"name":"放課後等デイサービスりぃど","nameKana":"ほうかごとうでいさーびすりぃど","corp":"有限会社リバープレート","serviceTypes":["放課後等デイサービス"],"ward":"西牟婁郡上富田町","address":"和歌山県西牟婁郡上富田町市ノ瀬2504-39","tel":"0739-34-7800","url":"","lat":33.71533825,"lng":135.46263185,"weekday":"09:00-18:00","saturday":"09:00-17:00","sunday":"","holiday":"09:00-17:00","closed":"日曜日、お盆8/13〜15日、お正月12/29〜1/3","capacity":10,"id":"3052400201"},{"name":"はぐみ","nameKana":"はぐみ","corp":"社会福祉法人ふたば福祉会","serviceTypes":["放課後等デイサービス"],"ward":"日高郡みなべ町","address":"和歌山県日高郡みなべ町東吉田11","tel":"0739-34-2301","url":"https://futaba-wakayama.com","lat":33.77110758,"lng":135.3272308,"weekday":"13:45-16:45","saturday":"","sunday":"","holiday":"10:00-15:00","closed":"土曜日　日曜日　祝日　12/29〜1/3　　8月15日〜8月17日　祝日開所あり","capacity":10,"id":"3052100108"},{"name":"か〜た","nameKana":"かーた","corp":"社会福祉法人ふたば福祉会","serviceTypes":["放課後等デイサービス"],"ward":"田辺市","address":"和歌山県田辺市上秋津1368-3","tel":"0739-33-9585","url":"https://futaba-wakayama.com","lat":33.76700914,"lng":135.41237247,"weekday":"14:15-17:15","saturday":"09:00-16:15","sunday":"","holiday":"09:00-16:15","closed":"月曜日・日曜日　12/29〜1/3","capacity":10,"id":"3052200015"},{"name":"ほうかごきっず","nameKana":"ほうかごきっず","corp":"社会福祉法人ふたば福祉会","serviceTypes":["放課後等デイサービス"],"ward":"田辺市","address":"和歌山県田辺市芳養町3216-19","tel":"0739-25-5549","url":"https://futaba-wakayama.com","lat":33.76001788,"lng":135.36927945,"weekday":"13:45-16:45","saturday":"10:00-15:00","sunday":"","holiday":"10:00-15:00","closed":"月曜日　日曜日　12/29〜1/3　夏季休暇中は8/13〜15まで","capacity":10,"id":"3052200064"},{"name":"coe","nameKana":"こー","corp":"特定非営利活動法人ころん","serviceTypes":["放課後等デイサービス"],"ward":"田辺市","address":"和歌山県田辺市たきない町10-34","tel":"0739-33-2278","url":"https://www.npocolon.org/","lat":33.70450025,"lng":135.39912133,"weekday":"13:00-16:00","saturday":"","sunday":"","holiday":"","closed":"土曜日・日曜日・祝日・お盆・年末年始","capacity":5,"id":"3052200221"},{"name":"つばさ","nameKana":"つばさ","corp":"特定非営利活動法人ころん","serviceTypes":["放課後等デイサービス"],"ward":"田辺市","address":"和歌山県田辺市朝日ヶ丘22-54","tel":"0739-81-2992","url":"https://www.npocolon.org/","lat":33.73555184,"lng":135.39364114,"weekday":"13:00-16:00","saturday":"","sunday":"","holiday":"","closed":"土曜日・日曜日・祝日・お盆・年末年始","capacity":10,"id":"3052400144"},{"name":"ことは","nameKana":"ことは","corp":"特定非営利活動法人ころん","serviceTypes":["放課後等デイサービス"],"ward":"西牟婁郡白浜町","address":"和歌山県西牟婁郡白浜町堅田1026番地1","tel":"0739-45-8055","url":"https://www.npocolon.org/","lat":33.66714607,"lng":135.38305595,"weekday":"13:00-16:00","saturday":"10:00-16:00","sunday":"","holiday":"","closed":"土曜日（第1・第3・第5）・日曜日・お盆・年末年始","capacity":10,"id":"3052400177"},{"name":"ハッピーテラスとうけい神社前教室","nameKana":"はっぴーてらすとうけいじんじゃまえきょうしつ","corp":"株式会社高垣幸夢店","serviceTypes":["放課後等デイサービス"],"ward":"田辺市","address":"和歌山県田辺市下屋敷町11　2階","tel":"0739-33-9380","url":"http://www.happy-terrace.com/","lat":33.73056349,"lng":135.38216723,"weekday":"13:30-18:30","saturday":"09:00-17:00","sunday":"","holiday":"","closed":"日曜・祝日、12/29〜1/3、8/13〜8/15","capacity":10,"id":"3052200163"},{"name":"えみーる","nameKana":"えみーる","corp":"一般社団法人Nao","serviceTypes":["放課後等デイサービス"],"ward":"新宮市","address":"和歌山県新宮市大橋通2丁目2番1号放課後等デイサービスえみーる","tel":"0735-29-2051","url":"https://h-navi.jp/support_facility/facilities/176632","lat":33.73010963,"lng":135.98653558,"weekday":"","saturday":"","sunday":"","holiday":"10:00-15:00","closed":"土日、夏季休暇(8/13〜16)・冬期休暇(12/29〜1/3)","capacity":10,"id":"3052300104"},{"name":"すみれ","nameKana":"すみれ","corp":"社会福祉法人熊野緑会","serviceTypes":["放課後等デイサービス"],"ward":"新宮市","address":"和歌山県新宮市新宮3415-1","tel":"0735-22-5374","url":"","lat":33.71200329,"lng":135.99297109,"weekday":"","saturday":"","sunday":"","holiday":"","closed":"","capacity":null,"id":"3052300047"},{"name":"ワークランドそら","nameKana":"わーくらんどそら","corp":"社会福祉法人美熊野福祉会","serviceTypes":["放課後等デイサービス"],"ward":"新宮市","address":"和歌山県新宮市佐野1026−1","tel":"0735296010","url":"https://mikumano-fukushikai.or.jp/sora/","lat":33.68512903,"lng":135.97299295,"weekday":"10:00-17:30","saturday":"10:00-16:40","sunday":"10:00-16:40","holiday":"10:00-16:40","closed":"土曜日・日曜日・祝日・１２月２９日から１月３日及び８月１３日から８月１５日","capacity":20,"id":"3052300088"},{"name":"障害児者支援センター虹","nameKana":"しょうがいじしゃしえんせんたーにじ","corp":"社会福祉法人美熊野福祉会","serviceTypes":["放課後等デイサービス"],"ward":"新宮市","address":"和歌山県新宮市蜂伏１３−４３","tel":"0735-31-3700","url":"https://mikumano-fukushikai.or.jp/niji/","lat":33.68419002,"lng":135.96214408,"weekday":"08:30-17:30","saturday":"08:30-17:30","sunday":"","holiday":"08:30-17:30","closed":"土・日・祝日（土曜日営業の場合あり）","capacity":20,"id":"3052300021"},{"name":"サポートセンターあす","nameKana":"さぽーとせんたーあす","corp":"社会福祉法人直心会","serviceTypes":["放課後等デイサービス"],"ward":"紀の川市","address":"和歌山県紀の川市貴志川町長山277-68","tel":"0736-64-7711","url":"","lat":34.20849357,"lng":135.28679621,"weekday":"","saturday":"","sunday":"","holiday":"","closed":"","capacity":null,"id":"3051700254"},{"name":"あすなろつばさ","nameKana":"あすなろつばさ","corp":"社会福祉法人桃郷","serviceTypes":["放課後等デイサービス"],"ward":"伊都郡かつらぎ町","address":"和歌山県伊都郡かつらぎ町中飯降１０６２番地１","tel":"0736-23-2900","url":"http://xn--48jvb5da.com/","lat":34.30681066,"lng":135.53443595,"weekday":"","saturday":"","sunday":"","holiday":"","closed":"","capacity":null,"id":"3051300089"},{"name":"放課後等デイサービス　青空つばさ","nameKana":"ほうかごとうでいさーびすあおぞらつばさ","corp":"社会福祉法人桃郷","serviceTypes":["放課後等デイサービス"],"ward":"伊都郡かつらぎ町","address":"和歌山県伊都郡かつらぎ町中飯降472-2","tel":"0736-66-1065","url":"http://xn--48jvb5da.com/","lat":34.30793273,"lng":135.531289,"weekday":"15:00-17:30","saturday":"10:00-15:00","sunday":"","holiday":"","closed":"日、祝","capacity":10,"id":"3051300071"},{"name":"放課後等デイサービス　青空","nameKana":"ほうかごとうでいさーびすあおぞら","corp":"社会福祉法人桃郷","serviceTypes":["放課後等デイサービス"],"ward":"紀の川市","address":"和歌山県紀の川市西井阪224番地の1","tel":"0736-66-1065","url":"http://xn--48jvb5da.com/","lat":34.269524,"lng":135.3625902,"weekday":"15:00-17:30","saturday":"09:00-15:00","sunday":"","holiday":"","closed":"日、祝","capacity":10,"id":"3051700080"},{"name":"放課後等デイサービス粉河青空","nameKana":"ほうかごとうでいさーびすこかわあおぞら","corp":"社会福祉法人桃郷","serviceTypes":["放課後等デイサービス"],"ward":"紀の川市","address":"和歌山県紀の川市粉河46","tel":"0736-66-1065","url":"http://xn--48jvb5da.com/","lat":34.27423764,"lng":135.40695015,"weekday":"15:00-17:30","saturday":"","sunday":"","holiday":"","closed":"土、日、祝","capacity":10,"id":"3051700098"},{"name":"放課後等デイサービス　ひまわり","nameKana":"ほうかごとうでいさーびすひまわり","corp":"株式会社こころ","serviceTypes":["放課後等デイサービス"],"ward":"岩出市","address":"和歌山県岩出市森１４０−１３","tel":"0736-67-7227","url":"https://kokoro-himawari.com/","lat":34.27190652,"lng":135.30990642,"weekday":"12:00-17:00","saturday":"09:00-17:00","sunday":"","holiday":"09:00-17:00","closed":"日曜日","capacity":10,"id":"3051800195"},{"name":"いわで　みんなの家","nameKana":"いわでみんなのいえ","corp":"特定非営利活動法人ロッツ","serviceTypes":["放課後等デイサービス"],"ward":"岩出市","address":"和歌山県岩出市東坂本６９−１","tel":"0736-61-2572","url":"http://www.solana.biz/lots","lat":34.27447307,"lng":135.3338397,"weekday":"14:00-17:15","saturday":"10:00-15:00","sunday":"","holiday":"","closed":"日曜日　祝日　お盆　年末年始","capacity":10,"id":"3051800062"},{"name":"ここから","nameKana":"ここから","corp":"株式会社PROgress","serviceTypes":["放課後等デイサービス"],"ward":"伊都郡かつらぎ町","address":"和歌山県伊都郡かつらぎ町妙寺126-35一心幸産ビル2F","tel":"0736-25-6360","url":"","lat":34.30003089,"lng":135.52835047,"weekday":"14:30-17:30","saturday":"","sunday":"","holiday":"","closed":"土日祝年末年始、5月3日〜5月5日","capacity":10,"id":"3051300097"},{"name":"放課後等デイサービスゆうゆう　めだか","nameKana":"ほうかごとうでいさーびすゆうゆうめだか","corp":"特定非営利活動法人めぐみ福祉会","serviceTypes":["放課後等デイサービス"],"ward":"橋本市","address":"和歌山県橋本市胡麻生569-16","tel":"0736-54-3027","url":"","lat":34.33996078,"lng":135.60961731,"weekday":"14:00-17:00","saturday":"10:00-15:00","sunday":"","holiday":"10:00-17:00","closed":"日曜、12月30日から1月3日","capacity":10,"id":"3051000200"},{"name":"放課後等デイサービスゆうゆう　いるか","nameKana":"ほうかごとうでいさーびすゆうゆういるか","corp":"特定非営利活動法人めぐみ福祉会","serviceTypes":["放課後等デイサービス"],"ward":"橋本市","address":"和歌山県橋本市原田84-5","tel":"0736-20-1490","url":"","lat":34.3149052,"lng":135.6053236,"weekday":"14:00-17:00","saturday":"10:00-15:00","sunday":"","holiday":"10:00-17:00","closed":"日曜、12月30日から1月3日","capacity":10,"id":"3051000226"},{"name":"放課後等デイサービスゆうゆう　らっこ","nameKana":"ほうかごとうでいさーびすゆうゆうらっこ","corp":"特定非営利活動法人めぐみ福祉会","serviceTypes":["放課後等デイサービス"],"ward":"橋本市","address":"和歌山県橋本市東家790-5","tel":"0736-54-3027","url":"","lat":34.32194606,"lng":135.60701502,"weekday":"14:00-17:00","saturday":"10:00-15:00","sunday":"","holiday":"10:00-17:00","closed":"日曜、12月30日から1月3日","capacity":10,"id":"3051000242"},{"name":"学童クラブそよ風２","nameKana":"がくどうくらぶそよかぜに","corp":"社会福祉法人ひまわり福祉会","serviceTypes":["放課後等デイサービス"],"ward":"有田郡湯浅町","address":"和歌山県有田郡湯浅町青木938−1","tel":"09036715731","url":"","lat":34.02855216,"lng":135.19374551,"weekday":"15:00-17:00","saturday":"09:00-12:00","sunday":"","holiday":"","closed":"日曜日、事業所が指定した日及び国民の祝日","capacity":15,"id":"3051600215"},{"name":"学童クラブそよ風３","nameKana":"がくどうくらぶそよかぜさん","corp":"社会福祉法人ひまわり福祉会","serviceTypes":["放課後等デイサービス"],"ward":"有田郡有田川町","address":"和歌山県有田郡有田川町植野２５６番地の１","tel":"0737-22-3689","url":"https://www.himawarihoikuen.ed.jp/","lat":34.05751575,"lng":135.21613746,"weekday":"15:00-17:00","saturday":"09:00-12:00","sunday":"","holiday":"","closed":"日曜日、事業所が指定した日及び国民の祝日","capacity":10,"id":"3051600306"},{"name":"学童クラブそよ風","nameKana":"がくどうくらぶそよかぜ","corp":"社会福祉法人ひまわり福祉会","serviceTypes":["放課後等デイサービス"],"ward":"有田郡湯浅町","address":"和歌山県有田郡湯浅町山田岩ノ谷26番地の2","tel":"0737-63-5698","url":"http://www.himawarihoikuen.ed.jp/","lat":34.0293936,"lng":135.1904513,"weekday":"15:00-17:00","saturday":"09:00-12:00","sunday":"","holiday":"","closed":"事業所が指定した日及び国民の祝日","capacity":20,"id":"3051600090"},{"name":"放課後等デイサービス　ポッポ","nameKana":"ほうかごとうでいさーびすぽっぽ","corp":"社会福祉法人ささゆり福祉会","serviceTypes":["放課後等デイサービス"],"ward":"有田郡広川町","address":"和歌山県有田郡広川町広369番地広川町なごみ交流センター内","tel":"080-1467-4975","url":"https://poppoen.com/project/dayservice","lat":34.02975115,"lng":135.1730949,"weekday":"14:00-17:30","saturday":"","sunday":"","holiday":"","closed":"日曜・祝日　8月13〜15日　12月29日〜1月3日 その他事業所が休みと定めた","capacity":15,"id":"3051600272"},{"name":"カラフルビーンズ","nameKana":"からふるびーんず","corp":"一般社団法人Smileスミレ会","serviceTypes":["放課後等デイサービス"],"ward":"有田郡有田川町","address":"和歌山県有田郡有田川町長田288番地","tel":"0737523224","url":"https://colorfulbeans.online/","lat":34.07493203,"lng":135.21184298,"weekday":"14:00-17:30","saturday":"09:30-15:30","sunday":"","holiday":"","closed":"土、日、祝","capacity":20,"id":"3051600223"},{"name":"カラフルブランチ","nameKana":"からふるぶらんち","corp":"一般社団法人Smileスミレ会","serviceTypes":["放課後等デイサービス"],"ward":"有田郡有田川町","address":"和歌山県有田郡有田川町上中島16番地1","tel":"0737-22-4566","url":"https://colorfulbeans.online/","lat":34.07188805,"lng":135.21406498,"weekday":"14:00-17:30","saturday":"09:30-15:30","sunday":"","holiday":"","closed":"土、日、祝","capacity":10,"id":"3051600280"},{"name":"カラフルブロッサム","nameKana":"からふるぶろっさむ","corp":"一般社団法人Smileスミレ会","serviceTypes":["放課後等デイサービス"],"ward":"有田郡湯浅町","address":"和歌山県有田郡湯浅町湯浅1838-8","tel":"0737-23-8566","url":"https://colorfulbeans.online/","lat":34.04191374,"lng":135.18292146,"weekday":"14:00-18:00","saturday":"09:00-18:00","sunday":"","holiday":"","closed":"","capacity":10,"id":"3050400021"},{"name":"まごころランド","nameKana":"まごころらんど","corp":"社会福祉法人千翔会","serviceTypes":["放課後等デイサービス"],"ward":"有田郡有田川町","address":"和歌山県有田郡有田川町上中島859番地1まごころランド","tel":"0737-52-6789","url":"","lat":34.07175441,"lng":135.20014425,"weekday":"14:00-17:00","saturday":"09:00-13:00","sunday":"","holiday":"","closed":"日祝祭日、8/13~15、12/30~1/3","capacity":10,"id":"3051600173"},{"name":"通園あこう","nameKana":"つうえんあこう","corp":"社会福祉法人太陽福祉会","serviceTypes":["放課後等デイサービス"],"ward":"日高郡日高町","address":"和歌山県日高郡日高町高家631番地","tel":"0738-20-4363","url":"https://www.taiyo.or.jp","lat":33.92629594,"lng":135.1404249,"weekday":"14:00-17:00","saturday":"09:00-15:30","sunday":"","holiday":"","closed":"日曜日、祝日、第５土曜日、12月29日〜1月4日","capacity":20,"id":"3052100116"},{"name":"ほうかごルーミー","nameKana":"ほうかごるーみー","corp":"合同会社ツースリーエー","serviceTypes":["放課後等デイサービス"],"ward":"西牟婁郡白浜町","address":"和歌山県西牟婁郡白浜町栄411番地の5","tel":"0739-34-2123","url":"https://www.houkago-roomy.com/","lat":33.65533395,"lng":135.38888616,"weekday":"13:30-17:30","saturday":"09:30-17:00","sunday":"","holiday":"","closed":"日曜、祝日","capacity":10,"id":"3052400193"},{"name":"特定非営利活動法人 Bloom","nameKana":"とくていひえいりかつどうほうじんぶるーむ","corp":"特定非営利活動法人Bloom","serviceTypes":["放課後等デイサービス"],"ward":"西牟婁郡上富田町","address":"和歌山県西牟婁郡上富田町市ノ瀬1251番地Bloom","tel":"0739-48-0400","url":"https://bloom75.or.jp/","lat":33.71346073,"lng":135.46743132,"weekday":"10:30-17:30","saturday":"10:30-16:30","sunday":"","holiday":"10:30-16:30","closed":"日曜日","capacity":10,"id":"3052400094"},{"name":"いちか","nameKana":"いちか","corp":"特定非営利活動法人ほかぜ","serviceTypes":["放課後等デイサービス"],"ward":"田辺市","address":"和歌山県田辺市下三栖142","tel":"0739-34-3136","url":"https://kurumihokaze-tanabe.jp/","lat":33.73491586,"lng":135.41743624,"weekday":"09:30-17:00","saturday":"","sunday":"","holiday":"09:30-16:00","closed":"土曜日、日曜日 12/29〜1/3、5/3〜5/5、8/13〜15","capacity":10,"id":"3052200189"},{"name":"くるみ","nameKana":"くるみ","corp":"特定非営利活動法人ほかぜ","serviceTypes":["放課後等デイサービス"],"ward":"西牟婁郡上富田町","address":"和歌山県西牟婁郡上富田町南紀の台74番27号","tel":"0739-34-2807","url":"https://kurumihokaze-tanabe.jp/","lat":33.69619067,"lng":135.42894928,"weekday":"09:30-17:00","saturday":"","sunday":"","holiday":"09:00-16:00","closed":"土曜日、日曜日、5月3日〜5日、8月13日〜15日、12月29日〜1月3日","capacity":10,"id":"3052400185"},{"name":"生活介護事業所あい・らんど","nameKana":"せいかつかいごじぎょうしょあいらんど","corp":"社会福祉法人和歌山県福祉事業団","serviceTypes":["放課後等デイサービス"],"ward":"和歌山市","address":"和歌山県和歌山市森小手穂2-1","tel":"073-479-3515","url":"https://www.wfj.or.jp/","lat":34.20346765,"lng":135.21993797,"weekday":"09:00-17:00","saturday":"09:00-17:00","sunday":"","holiday":"","closed":"日曜、祝日、年末年始","capacity":20,"id":"3050101447"},{"name":"放課後等デイサービスあい","nameKana":"ほうかごとうでいさーびすあい","corp":"社会福祉法人和歌山県福祉事業団","serviceTypes":["放課後等デイサービス"],"ward":"和歌山市","address":"和歌山県和歌山市梶取20-1","tel":"073-455-0270","url":"https://www.wfj.or.jp/","lat":34.25313064,"lng":135.16317435,"weekday":"14:00-17:00","saturday":"10:00-17:00","sunday":"","holiday":"","closed":"日曜日","capacity":10,"id":"3050100233"}]