[{"name":"フリースマイル大村草場","nameKana":"ふりーすまいるおおむらくさば","corp":"青少年児童療育支援協会株式会社","serviceTypes":["児童発達支援","放課後等デイサービス"],"ward":"大村","address":"長崎県大村市草場町245-12　","tel":"0957476681","url":"https://www.sjrsk.jp/","lat":32.97138028,"lng":129.95452031,"weekday":"10:00-14:00","saturday":"10:30-16:30","sunday":"","holiday":"10:30-16:30","closed":"土日祝日","capacity":10,"id":"4250500685"},{"name":"フリースマイル大村CORE","nameKana":"ふりーすまいるおおむらこあ","corp":"青少年児童療育支援協会株式会社","serviceTypes":["児童発達支援","放課後等デイサービス"],"ward":"大村","address":"長崎県大村市古賀島町498-10　","tel":"0957467320","url":"https://www.sjrsk.jp/","lat":32.92993676,"lng":129.9414498,"weekday":"10:30-17:00","saturday":"10:30-16:30","sunday":"","holiday":"10:30-16:30","closed":"日曜日","capacity":10,"id":"4250500750"},{"name":"COMPASS.Sunny","nameKana":"こんぱすさにー","corp":"一般社団法人特別支援協","serviceTypes":["児童発達支援","放課後等デイサービス"],"ward":"諫早市","address":"長崎県諫早市泉町19-17渡辺ビル1階","tel":"0957475238","url":"https://www.compass-mitsuba.com/facility/18236","lat":32.84776257,"lng":130.05787536,"weekday":"10:00-18:00","saturday":"10:00-16:00","sunday":"","holiday":"","closed":"日、祝祭日","capacity":10,"id":"4250450279"},{"name":"COMPASS発達支援センター諫早","nameKana":"こんぱすはったつしえんせんたーいさはや","corp":"一般社団法人特別支援協","serviceTypes":["児童発達支援","放課後等デイサービス"],"ward":"諫早市","address":"長崎県諫早市船越町891-2","tel":"0957569328","url":"https://www.compass-mitsuba.com/facility/1537","lat":32.83613066,"lng":130.06336638,"weekday":"10:00-18:00","saturday":"10:00-16:00","sunday":"","holiday":"","closed":"日、祝祭日","capacity":10,"id":"4250450295"},{"name":"COMPASS多良見","nameKana":"こんぱすたらみ","corp":"一般社団法人特別支援協","serviceTypes":["児童発達支援"],"ward":"諫早市","address":"長崎県諫早市多良見町中里129-9森ビル2階","tel":"0957-43-5538","url":"https://www.compass-mitsuba.com/facility","lat":32.8232966,"lng":129.97361254,"weekday":"10:00-18:00","saturday":"","sunday":"","holiday":"","closed":"土・日・祝祭日","capacity":10,"id":"4250450303"},{"name":"compass大村Link","nameKana":"こおんぱすおおむらりんく","corp":"一般社団法人特別支援協","serviceTypes":["児童発達支援","放課後等デイサービス"],"ward":"大村","address":"長崎県大村市本町328-1大市通り206","tel":"0957-46-3238","url":"https://www.compass-mitsuba.com/facility/13075","lat":32.90676122,"lng":129.96004879,"weekday":"10:00-18:00","saturday":"10:00-16:00","sunday":"","holiday":"","closed":"日曜、祝日","capacity":10,"id":"4250500677"},{"name":"COMPASS児童発達支援センター大村","nameKana":"こんぱすじどうはったつしえんせんたーおおむら","corp":"一般社団法人特別支援協","serviceTypes":["児童発達支援"],"ward":"大村","address":"長崎県大村市富の原1丁目1537番地","tel":"0957-47-7838","url":"https://www.compass-mitsuba.com/facility/19701","lat":32.93864698,"lng":129.93632238,"weekday":"09:30-16:30","saturday":"","sunday":"","holiday":"","closed":"土、日、祝祭日","capacity":20,"id":"4250500651"},{"name":"COMPASS発達支援センター大村.NEXT","nameKana":"こんぱすはったつしえんせんたーおおむらねくすと","corp":"一般社団法人特別支援協","serviceTypes":["児童発達支援","放課後等デイサービス"],"ward":"大村","address":"長崎県大村市宮小路1丁目258-7","tel":"0957-46-3278","url":"https://www.compass-mitsuba.com/facility/7727","lat":32.89997006,"lng":129.95817145,"weekday":"10:00-18:00","saturday":"10:00-16:00","sunday":"","holiday":"","closed":"日曜・祝祭日","capacity":10,"id":"4250500669"},{"name":"COMPASSJUMP!","nameKana":"こんぱすじゃんぷ","corp":"一般社団法人特別支援協","serviceTypes":["児童発達支援","放課後等デイサービス"],"ward":"諫早市","address":"長崎県諫早市貝津町1765‐２階貝津町1765‐２階","tel":"0957477638","url":"https://www.compass-mitsuba.com/facility/23865","lat":32.83409592,"lng":130.01438966,"weekday":"10:00-18:00","saturday":"","sunday":"","holiday":"","closed":"土・日・祝祭日","capacity":10,"id":"4250450378"},{"name":"COMPASS東彼杵","nameKana":"こんぱすひがしそのぎ","corp":"一般社団法人特別支援協","serviceTypes":["児童発達支援","放課後等デイサービス"],"ward":"東彼杵郡川棚町","address":"長崎県東彼杵郡川棚町下組郷2036-4","tel":"0956595938","url":"https://www.compass-mitsuba.com/facility/23761","lat":33.06702617,"lng":129.85656186,"weekday":"10:00-18:00","saturday":"","sunday":"","holiday":"","closed":"土、日、祝祭日","capacity":10,"id":"4251750032"},{"name":"チャイルドハートひがなが","nameKana":"ちゃいるどはーとひがなが","corp":"株式会社ルピナス","serviceTypes":["児童発達支援","放課後等デイサービス"],"ward":"長崎市","address":"長崎県長崎市網場町500-7","tel":"095-865-6639","url":"https://www.childheart.co.jp","lat":32.75541365,"lng":129.9442896,"weekday":"11:00-14:00","saturday":"10:00-16:00","sunday":"","holiday":"10:00-16:00","closed":"日曜日及び事業所の定める日","capacity":10,"id":"4250101492"},{"name":"チャイルドハートながさき東","nameKana":"ちゃいるどはーとながさきひがし","corp":"株式会社ルピナス","serviceTypes":["児童発達支援","放課後等デイサービス"],"ward":"長崎市","address":"長崎県長崎市かき道2丁目34-23","tel":"095-801-2017","url":"","lat":32.77314581,"lng":129.95949379,"weekday":"11:00-14:00","saturday":"10:00-16:00","sunday":"","holiday":"10:00-16:00","closed":"日曜日及び事業所の定める日","capacity":10,"id":"4250101500"},{"name":"チャイルドハート波佐見みらい","nameKana":"ちゃいるどはーとはさみみらい","corp":"一般社団法人ハートサポート","serviceTypes":["児童発達支援","放課後等デイサービス"],"ward":"東彼杵郡波佐見町","address":"長崎県東彼杵郡波佐見町湯無田郷1338-1","tel":"0956-56-3172","url":"https://childheart.co.jp/company/hasamimirai/","lat":33.13890133,"lng":129.92154001,"weekday":"10:00-13:00","saturday":"10:00-16:00","sunday":"","holiday":"10:00-16:00","closed":"日曜日または法人が定める日","capacity":10,"id":"4251800050"},{"name":"コペルプラス佐世保教室","nameKana":"こぺるぷらすさせぼきょうしつ","corp":"株式会社グランアーニング","serviceTypes":["児童発達支援"],"ward":"佐世保市","address":"長崎県佐世保市俵町21-14","tel":"0956-59-7762","url":"https://copelplus.copel.co.jp/school/sasebo/","lat":33.18890885,"lng":129.7192594,"weekday":"10:00-17:30","saturday":"10:00-17:30","sunday":"","holiday":"","closed":"日曜、月曜、祝日","capacity":null,"id":"4250200971"},{"name":"指定障害児通所支援事業所　こどもてらす光風台","nameKana":"こどもてらすこうふうだい","corp":"医療法人　恵会　光風台病院","serviceTypes":["児童発達支援","放課後等デイサービス"],"ward":"長崎市","address":"長崎県長崎市鳴見台2丁目45-20","tel":"095-860-1000","url":"https://megumikai.org/annex/an_child/","lat":32.82365694,"lng":129.80756108,"weekday":"09:00-17:00","saturday":"09:00-17:00","sunday":"","holiday":"","closed":"","capacity":10,"id":"4250101203"},{"name":"こども支援クラムボン","nameKana":"こどもしえんくらむぼん","corp":"クラムボン合同会社","serviceTypes":["児童発達支援","放課後等デイサービス"],"ward":"長崎市","address":"長崎県長崎市西海町1725番地26","tel":"095-894-9905","url":"https://kuramubon-k.com/","lat":32.86050342,"lng":129.78615872,"weekday":"10:00-17:30","saturday":"10:00-15:00","sunday":"","holiday":"","closed":"日曜日・祝日","capacity":10,"id":"4250101369"},{"name":"BASE RINOA","nameKana":"べーすりのあ","corp":"合同会社Ohana base","serviceTypes":["児童発達支援","放課後等デイサービス"],"ward":"長崎市","address":"長崎県長崎市三芳町9番7号","tel":"095-865-7037","url":"https://rinoa-202091.com","lat":32.78335659,"lng":129.85933923,"weekday":"09:30-18:00","saturday":"08:30-17:30","sunday":"","holiday":"08:30-16:30","closed":"月曜日","capacity":5,"id":"4250101336"},{"name":"総合療育　れお","nameKana":"そうごうりょういくれお","corp":"株式会社MUSASHI","serviceTypes":["児童発達支援"],"ward":"長崎市","address":"長崎県長崎市三和町124-1","tel":"095-895-5500","url":"https://musashi.link","lat":32.69437025,"lng":129.85285877,"weekday":"10:00-17:00","saturday":"","sunday":"","holiday":"","closed":"土、日、祝日及びお盆、年末年始","capacity":10,"id":"4250101823"},{"name":"放課後等デイサービスけこたまな","nameKana":"ほうかごとうでいさーびすけこたまな","corp":"株式会社エムアールケイ","serviceTypes":["児童発達支援","放課後等デイサービス"],"ward":"長崎市","address":"長崎県長崎市東町1906-6","tel":"095-800-7504","url":"https://oxygen-destroyer00.wixsite.com/kekotamana","lat":32.7795895,"lng":129.95501055,"weekday":"10:00-18:00","saturday":"10:00-16:00","sunday":"","holiday":"10:00-16:00","closed":"","capacity":10,"id":"4250101484"},{"name":"クローバーキッズ矢上","nameKana":"くろーばーきっずやがみ","corp":"株式会社長崎医恵会","serviceTypes":["児童発達支援","放課後等デイサービス"],"ward":"長崎市","address":"長崎県長崎市矢上町23-9","tel":"095-839-8888","url":"","lat":32.77589247,"lng":129.95179146,"weekday":"09:00-13:00","saturday":"09:00-17:00","sunday":"","holiday":"","closed":"日曜、祝日","capacity":10,"id":"4250101542"},{"name":"デイサービス　クローバー・ガーデン矢上","nameKana":"でいさーびすくろーばーがーでんやがみ","corp":"株式会社長崎医恵会","serviceTypes":["児童発達支援","放課後等デイサービス"],"ward":"長崎市","address":"長崎県長崎市矢上町23-11","tel":"095-839-9608","url":"https://www.fujimoto-group.jp/office/rk/cg-yagami","lat":32.77595912,"lng":129.95164425,"weekday":"09:00-17:00","saturday":"09:00-17:00","sunday":"","holiday":"","closed":"土曜日、祝日","capacity":18,"id":"4250101807"},{"name":"クローバーキッズ矢上第２","nameKana":"くろーばーきっずやがみだいに","corp":"株式会社長崎医恵会","serviceTypes":["児童発達支援","放課後等デイサービス"],"ward":"長崎市","address":"長崎県長崎市矢上町23-9 2F","tel":"095-839-8888","url":"","lat":32.77590358,"lng":129.95175535,"weekday":"","saturday":"","sunday":"","holiday":"","closed":"","capacity":null,"id":"4250101898"},{"name":"ままはぐ長崎","nameKana":"ままはぐながさき","corp":"CONNE株式会社","serviceTypes":["児童発達支援"],"ward":"長崎市","address":"長崎県長崎市曙町12-5伊集院ビル１階","tel":"095-865-7600","url":"","lat":32.75446781,"lng":129.86149294,"weekday":"10:00-17:00","saturday":"","sunday":"","holiday":"","closed":"","capacity":5,"id":"4250101682"},{"name":"ひまわりキッズ","nameKana":"ひまわりきっず","corp":"株式会社エイトワークス","serviceTypes":["児童発達支援","放課後等デイサービス"],"ward":"長崎市","address":"長崎県長崎市みなと坂２丁目１５番２","tel":"095-865-3535","url":"","lat":32.7337578,"lng":129.83681987,"weekday":"10:30-12:30","saturday":"10:30-12:30","sunday":"","holiday":"10:30-12:30","closed":"日曜日、その他年末年始、お盆","capacity":10,"id":"4250101690"},{"name":"みなみの療育室　児童発達支援みなみ","nameKana":"みなみのりょういくしつじどうはったつしえんみなみ","corp":"株式会社　センテンス","serviceTypes":["児童発達支援"],"ward":"長崎市","address":"長崎県長崎市三景台町3-26SMTエタニティ三景台205号","tel":"050-5530-8161","url":"","lat":32.72878496,"lng":129.8955496,"weekday":"","saturday":"","sunday":"","holiday":"","closed":"","capacity":null,"id":"4250101633"},{"name":"みなみの療育室　えがわ","nameKana":"みなみのりょういくしつえがわ","corp":"株式会社　センテンス","serviceTypes":["児童発達支援"],"ward":"長崎市","address":"長崎県長崎市柳田町36-1","tel":"0958938996","url":"","lat":32.68452927,"lng":129.84326228,"weekday":"","saturday":"","sunday":"","holiday":"","closed":"","capacity":null,"id":"4250101864"},{"name":"Hug・Hug","nameKana":"はぐはぐ","corp":"株式会社　アシスト","serviceTypes":["児童発達支援"],"ward":"長崎市","address":"長崎県長崎市かき道6丁目2番地11号","tel":"0958340011","url":"https://wwwassist-hughug.net","lat":32.76572154,"lng":129.96034117,"weekday":"10:00-15:00","saturday":"10:00-16:00","sunday":"","holiday":"","closed":"日曜、祝日、盆正月","capacity":10,"id":"4250101674"},{"name":"こどもサポートセンター　スマイルくるみ","nameKana":"こどもさぽーとせんたーすまいるくるみ","corp":"学校法人福田学園","serviceTypes":["児童発達支援","放課後等デイサービス"],"ward":"長崎市","address":"長崎県長崎市西山2丁目12番14号リハテックビル2階","tel":"095-893-8502","url":"","lat":32.75876512,"lng":129.88644603,"weekday":"09:30-17:30","saturday":"","sunday":"","holiday":"","closed":"土曜日、日曜日、祝日","capacity":10,"id":"4250101849"},{"name":"Ohana","nameKana":"おはな","corp":"学校法人ここから","serviceTypes":["児童発達支援"],"ward":"長崎市","address":"長崎県長崎市平間町４１２番地23","tel":"095-839-3001","url":"https://ohana-kokokara.com/","lat":32.78256669,"lng":129.94615269,"weekday":"09:00-16:00","saturday":"","sunday":"","holiday":"","closed":"土日祝日","capacity":10,"id":"4250101872"},{"name":"児童発達支援・放課後等デイサービスSORA時津","nameKana":"じどうはったつしえんほうかごとうでいさーびすそらとぎつ","corp":"Leccot","serviceTypes":["児童発達支援","放課後等デイサービス"],"ward":"西彼杵郡時津町","address":"長崎県西彼杵郡時津町浦郷273-21階","tel":"095-865-7803","url":"https://leccot.co.jp/","lat":32.82857953,"lng":129.84947999,"weekday":"10:00-17:00","saturday":"10:00-12:00","sunday":"","holiday":"","closed":"日、月、祝日","capacity":10,"id":"4251500171"},{"name":"多機能型児童発達支援事業所ぱれっと","nameKana":"たきのうがたじどうはったつしえんじぎょうしょぱれっと","corp":"社会福祉法人明星会","serviceTypes":["児童発達支援","放課後等デイサービス"],"ward":"長崎市","address":"長崎県長崎市草住町205-1","tel":"095-878-6830","url":"","lat":32.6891484,"lng":129.84818412,"weekday":"","saturday":"","sunday":"","holiday":"","closed":"","capacity":null,"id":"4250101922"},{"name":"クローバーキッズ長与","nameKana":"くろーばーきっずながよ","corp":"株式会社　優愛会","serviceTypes":["児童発達支援","放課後等デイサービス"],"ward":"西彼杵郡長与町","address":"長崎県西彼杵郡長与町嬉里郷６６０−１ウレリマンション","tel":"0958872226","url":"","lat":32.82643573,"lng":129.8740644,"weekday":"09:00-18:00","saturday":"09:00-17:00","sunday":"","holiday":"09:00-17:00","closed":"日曜日","capacity":10,"id":"4251400091"},{"name":"キッズハウス・クローバー","nameKana":"きっずはうすくろーばー","corp":"株式会社　優愛会","serviceTypes":["児童発達支援","放課後等デイサービス"],"ward":"西彼杵郡時津町","address":"長崎県西彼杵郡時津町浦郷４４０−１０","tel":"095-881-3336","url":"","lat":32.83120706,"lng":129.84674124,"weekday":"09:00-18:00","saturday":"09:30-17:30","sunday":"","holiday":"","closed":"日曜日","capacity":10,"id":"4251500098"},{"name":"児童デイサービスめいほう","nameKana":"じどうでいさーびすめいほう","corp":"有限会社総合療育リハ・サービス","serviceTypes":["児童発達支援","放課後等デイサービス"],"ward":"諫早市","address":"長崎県諫早市西栄田町526-1","tel":"0957476688","url":"http://www.ryouikuriha.com/","lat":32.860083,"lng":130.03116815,"weekday":"09:00-18:00","saturday":"08:30-17:30","sunday":"","holiday":"","closed":"日曜、祝日　8月13〜15日、12月30日〜１月3日","capacity":6,"id":"4250450352"},{"name":"みのりっ子クラブ","nameKana":"みのりっこくらぶ","corp":"社会福祉法人　みのり会","serviceTypes":["児童発達支援","放課後等デイサービス"],"ward":"長崎市","address":"長崎県長崎市平山町１２３２番地２","tel":"095-898-4088","url":"","lat":32.66467803,"lng":129.83534663,"weekday":"","saturday":"","sunday":"","holiday":"","closed":"","capacity":10,"id":"4250100015"},{"name":"西海市立大島児童発達支援館","nameKana":"さいかいしりつおおしまじどうはったつしえんかん","corp":"社会福祉法人　三恵会","serviceTypes":["児童発達支援","放課後等デイサービス"],"ward":"西海市","address":"長崎県西海市大島町1876-49","tel":"0959230130","url":"","lat":33.03499618,"lng":129.61830848,"weekday":"","saturday":"","sunday":"","holiday":"","closed":"土日祝日　年末年始","capacity":10,"id":"4251100055"},{"name":"西海市療育支援相談センター","nameKana":"さいかいしりょういくしえんそうだんせんたー","corp":"社会福祉法人　三恵会","serviceTypes":["児童発達支援","放課後等デイサービス"],"ward":"西海市","address":"長崎県西海市西彼町鳥加郷２２１８","tel":"0959-29-7110","url":"https://nagasaki-sankeikai.com","lat":32.99062271,"lng":129.74863613,"weekday":"09:00-18:00","saturday":"","sunday":"","holiday":"","closed":"土日祝日／年末年始","capacity":10,"id":"4251100014"},{"name":"チャイルドSP長与","nameKana":"ちゃいるどえすぴーながよ","corp":"株式会社　チャイルドハート","serviceTypes":["児童発達支援","放課後等デイサービス"],"ward":"西彼杵郡長与町","address":"長崎県西彼杵郡長与町嬉里郷４５６−３","tel":"095-894-1292","url":"https://www.childsp.net/","lat":32.82299165,"lng":129.87694767,"weekday":"10:30-17:45","saturday":"10:00-15:00","sunday":"","holiday":"","closed":"日曜、祝日、お盆、年末年始","capacity":10,"id":"4251400059"},{"name":"運動と学習の放課後等デイサービスみらいズ","nameKana":"うんどうとがくしゅうのほうかごとうでいさーびすみらいず","corp":"社会福祉法人　致遠会","serviceTypes":["児童発達支援","放課後等デイサービス"],"ward":"長崎市","address":"長崎県長崎市三芳町5番27号","tel":"095-801-2355","url":"http://www.sanhaitsu.jp/miraizu/","lat":32.78207346,"lng":129.86071417,"weekday":"10:00-12:00","saturday":"09:00-10:00","sunday":"","holiday":"09:00-10:00","closed":"日","capacity":10,"id":"4250101062"},{"name":"児童発達支援センター「さくらんぼ園」","nameKana":"じどうはったつしえんせんたーさくらんぼえん","corp":"社会福祉法人　長崎市社会福祉事業団","serviceTypes":["児童発達支援"],"ward":"長崎市","address":"長崎県長崎市茂里町２番４１号もりまちハートセンター　2階","tel":"095-842-2565","url":"http://www.nc-swc.or.jp","lat":32.76240061,"lng":129.86366748,"weekday":"09:30-16:00","saturday":"","sunday":"","holiday":"","closed":"日曜日、土曜日、祝日、年末年始（12月29日から1月3日まで）","capacity":45,"id":"4250100221"},{"name":"たまぴよ","nameKana":"たまぴよ","corp":"NPO法人ことと","serviceTypes":["児童発達支援"],"ward":"長崎市","address":"長崎県長崎市畝刈町1613番地250","tel":"095-850-7242","url":"https://kototonagasaki.jimdofree.com","lat":32.82715903,"lng":129.78149906,"weekday":"09:00-15:00","saturday":"09:00-15:00","sunday":"","holiday":"","closed":"日曜、祝日、その他事業所の都合による日は休業","capacity":10,"id":"4250101245"},{"name":"児童発達支援　あいびぃ","nameKana":"じどうはったつしえんあいびい","corp":"テイクオフ株式会社","serviceTypes":["児童発達支援"],"ward":"長崎市","address":"長崎県長崎市畝刈町1613-169","tel":"095-801-3904","url":"","lat":32.82669516,"lng":129.77989364,"weekday":"","saturday":"","sunday":"","holiday":"","closed":"","capacity":null,"id":"4250101260"},{"name":"児童発達支援　あじさい","nameKana":"じどうはったつしえんあじさい","corp":"株式会社　シーエスケイ","serviceTypes":["児童発達支援","放課後等デイサービス"],"ward":"長崎市","address":"長崎県長崎市茂木町1805-25","tel":"095-834-6111","url":"","lat":32.70363165,"lng":129.91056352,"weekday":"09:00-18:00","saturday":"","sunday":"","holiday":"","closed":"土日祝祭日","capacity":10,"id":"4250101443"},{"name":"総合療育センターあじさい愛宕","nameKana":"そうごうりょういくせんたーあじさいあたご","corp":"株式会社　シーエスケイ","serviceTypes":["児童発達支援","放課後等デイサービス"],"ward":"長崎市","address":"長崎県長崎市愛宕４丁目６−２７","tel":"095-811-0050","url":"http://www.ajisai-nagasaki.com","lat":32.73536757,"lng":129.8936105,"weekday":"","saturday":"","sunday":"","holiday":"","closed":"","capacity":null,"id":"4250101708"},{"name":"総合療育センターあじさい愛宕２","nameKana":"そうごうりょういくせんたーあじさいあたごに","corp":"株式会社　シーエスケイ","serviceTypes":["児童発達支援","放課後等デイサービス"],"ward":"長崎市","address":"長崎県長崎市愛宕４丁目６−２７","tel":"095-811-0050","url":"","lat":32.73536757,"lng":129.8936105,"weekday":"","saturday":"","sunday":"","holiday":"","closed":"","capacity":null,"id":"4250101757"},{"name":"児童発達支援あじさい滑石２","nameKana":"じどうはったつしえんあじさいなめしに","corp":"株式会社　シーエスケイ","serviceTypes":["児童発達支援","放課後等デイサービス"],"ward":"長崎市","address":"長崎県長崎市大園町7-8","tel":"095-894-5700","url":"","lat":32.80527871,"lng":129.83799541,"weekday":"09:30-14:00","saturday":"09:00-15:00","sunday":"","holiday":"09:00-15:00","closed":"日曜及び指定休日","capacity":10,"id":"4250101781"},{"name":"総合療育センターあじさい２","nameKana":"そうごうりょういくせんたーあじさいに","corp":"株式会社　シーエスケイ","serviceTypes":["児童発達支援","放課後等デイサービス"],"ward":"長崎市","address":"長崎県長崎市松山町３番８４号","tel":"095-845-1600","url":"","lat":32.7750383,"lng":129.86198935,"weekday":"14:00-18:30","saturday":"09:00-15:00","sunday":"","holiday":"09:00-15:00","closed":"日曜及び指定休日","capacity":10,"id":"4250101666"},{"name":"総合療育センターあじさい","nameKana":"そうごうりょういくせんたーあじさい","corp":"株式会社　シーエスケイ","serviceTypes":["児童発達支援","放課後等デイサービス"],"ward":"長崎市","address":"長崎県長崎市松山町３番８４号","tel":"095-845-1600","url":"","lat":32.77499385,"lng":129.86200325,"weekday":"","saturday":"","sunday":"","holiday":"","closed":"","capacity":null,"id":"4250101567"},{"name":"児童デイサービスめぶき","nameKana":"じどうでいさーびすめぶき","corp":"社会福祉法人　長崎恵愛福祉会","serviceTypes":["児童発達支援","放課後等デイサービス"],"ward":"長崎市","address":"長崎県長崎市伊勢町2番26号","tel":"095-823-2800","url":"https://www.mebuki-nagasaki.com","lat":32.75177687,"lng":129.88426598,"weekday":"09:30-17:30","saturday":"","sunday":"","holiday":"","closed":"土曜、日曜、祝日","capacity":10,"id":"4250101617"},{"name":"多機能型事業所カミングホームうつつがわ","nameKana":"たきのうがたじぎょうしょかみんぐほーむうつつがわ","corp":"有限会社総合療育リハ・サービス","serviceTypes":["児童発達支援","放課後等デイサービス"],"ward":"長崎市","address":"長崎県長崎市現川町２７５１番地","tel":"095-838-8677","url":"http://www.ryouikuriha.com/","lat":32.78840124,"lng":129.92359823,"weekday":"10:00-17:30","saturday":"10:00-15:00","sunday":"","holiday":"","closed":"第４土曜、夏季（8/13〜8/15）、年末年始（12/29〜1/3）","capacity":10,"id":"4250100031"},{"name":"多機能型事業所たちばな","nameKana":"たきのうがたじぎょうしょたちばな","corp":"有限会社総合療育リハ・サービス","serviceTypes":["児童発達支援","放課後等デイサービス"],"ward":"長崎市","address":"長崎県長崎市田中町879番地　1階","tel":"095-838-7306","url":"http://www.ryouikuriha.com/","lat":32.77022897,"lng":129.94924739,"weekday":"09:00-17:00","saturday":"08:30-17:00","sunday":"","holiday":"","closed":"第４土曜日・祝祭日・8/13〜8/15・12/29〜1/3","capacity":10,"id":"4250100064"},{"name":"多機能型事業所なめし","nameKana":"たきのうがたじぎょうしょなめし","corp":"有限会社総合療育リハ・サービス","serviceTypes":["児童発達支援","放課後等デイサービス"],"ward":"長崎市","address":"長崎県長崎市滑石４丁目７−１３","tel":"095-855-1522","url":"","lat":32.80734228,"lng":129.83068756,"weekday":"09:30-18:00","saturday":"09:00-17:00","sunday":"","holiday":"","closed":"日曜、祝日、第4土曜日、8/13〜8/15、12/29〜1/3","capacity":10,"id":"4250100361"},{"name":"多機能型事業所やがみ","nameKana":"たきのうかたじぎょうしょやがみ","corp":"有限会社総合療育リハ・サービス","serviceTypes":["児童発達支援","放課後等デイサービス","居宅訪問型児童発達支援"],"ward":"長崎市","address":"長崎県長崎市田中町879番地1階","tel":"095-838-7306","url":"http://www.ryouikuriha.com/","lat":32.77022897,"lng":129.94924739,"weekday":"09:00-18:00","saturday":"08:30-17:00","sunday":"","holiday":"","closed":"日曜、祝日、第4土曜日、8/13〜8/15、12/29〜1/3","capacity":5,"id":"4250100494"},{"name":"多機能型事業所ほくよう","nameKana":"たきのうがたじぎょうしょほくよう","corp":"有限会社総合療育リハ・サービス","serviceTypes":["児童発達支援","放課後等デイサービス","居宅訪問型児童発達支援"],"ward":"長崎市","address":"長崎県長崎市滑石５丁目１１−３６","tel":"095-814-6100","url":"","lat":32.80521751,"lng":129.83177642,"weekday":"09:30-18:30","saturday":"09:00-18:00","sunday":"","holiday":"","closed":"日曜、祝日、第4土曜日、8/13〜8/15、12/29〜1/3","capacity":10,"id":"4250100668"},{"name":"みのり会キッズ・コム","nameKana":"みのりかいきっずこむ","corp":"社会福祉法人　みのり会","serviceTypes":["児童発達支援"],"ward":"長崎市","address":"長崎県長崎市梅香崎町２番１３号","tel":"095-822-1092","url":"http://www.minorikai.or.jp/kids/index.html","lat":32.73989733,"lng":129.87461438,"weekday":"09:30-12:30","saturday":"09:30-12:30","sunday":"","holiday":"","closed":"日曜、祝日、8月14日、8月15日、12月30日〜1月3日","capacity":15,"id":"4250100023"},{"name":"ながさきゆうゆう牧場　ホーシーセンター","nameKana":"ながさきゆうゆうぼくじょうほーしーせんたー","corp":"株式会社ながさきＵＵカンパニー","serviceTypes":["児童発達支援","放課後等デイサービス"],"ward":"長崎市","address":"長崎県長崎市宮崎町１２２７−１","tel":"095-892-3373","url":"","lat":32.62855841,"lng":129.8339477,"weekday":"","saturday":"","sunday":"","holiday":"","closed":"","capacity":null,"id":"4250100056"},{"name":"なごみの杜　TWO","nameKana":"なごみのもりつー","corp":"特定非営利活動法人　なごみの杜","serviceTypes":["児童発達支援","放課後等デイサービス"],"ward":"長崎市","address":"長崎県長崎市栄町１−２尾上ビル 3F","tel":"095-808-0417","url":"","lat":32.74763824,"lng":129.87698897,"weekday":"","saturday":"","sunday":"","holiday":"","closed":"","capacity":null,"id":"4250101104"},{"name":"なごみの杜　ONE","nameKana":"なごみのもりわん","corp":"特定非営利活動法人　なごみの杜","serviceTypes":["児童発達支援","放課後等デイサービス"],"ward":"長崎市","address":"長崎県長崎市桜町５−２０　小川ビル２０２","tel":"095-849-5998","url":"https://www.nagomi-mori.com","lat":32.74952697,"lng":129.87766106,"weekday":"","saturday":"","sunday":"","holiday":"","closed":"","capacity":null,"id":"4250100098"},{"name":"特定非営利活動法人　ポニーランド長崎　児童デイサービス　ぽにぃ","nameKana":"とくていひえいりかつどうほうじんぽにーらんどながさきじどうでいさーびすぽにい","corp":"特定非営利活動法人　ポニーランド長崎","serviceTypes":["児童発達支援","放課後等デイサービス"],"ward":"長崎市","address":"長崎県長崎市片淵５丁目８−６片淵丸尾ビル２０１","tel":"095-893-8879","url":"","lat":32.76577,"lng":129.89052596,"weekday":"13:30-17:30","saturday":"10:00-16:00","sunday":"10:00-16:00","holiday":"10:00-16:00","closed":"奇数週日曜日・偶数週土曜日・お盆・正月","capacity":10,"id":"4250100312"},{"name":"多機能型事業所　うさぎのもり","nameKana":"たきのうがたじぎょうしょうさぎのもり","corp":"社会福祉法人　陽向會","serviceTypes":["児童発達支援","放課後等デイサービス"],"ward":"長崎市","address":"長崎県長崎市中里町１３３５番地２５２","tel":"095-865-8646","url":"https://www.usaginomori.net/","lat":32.80918135,"lng":129.96386398,"weekday":"09:00-15:30","saturday":"09:00-15:30","sunday":"","holiday":"","closed":"日曜・祝日・12月29日〜1月3日","capacity":10,"id":"4250100486"},{"name":"ハッピーデイズためし","nameKana":"はっぴーでいずためし","corp":"ハッピーデイズ","serviceTypes":["児童発達支援","放課後等デイサービス"],"ward":"長崎市","address":"長崎県長崎市為石町2524さんとぴあ２１−１F","tel":"095-895-5393","url":"","lat":32.64253237,"lng":129.83472793,"weekday":"","saturday":"","sunday":"","holiday":"","closed":"","capacity":null,"id":"4250100767"},{"name":"ハッピーデイズさおのうら","nameKana":"はっぴーでいずさおのうら","corp":"ハッピーデイズ","serviceTypes":["児童発達支援","放課後等デイサービス"],"ward":"長崎市","address":"長崎県長崎市竿浦町74番地3","tel":"095-893-8398","url":"","lat":32.67026096,"lng":129.83926843,"weekday":"13:30-17:00","saturday":"10:00-16:00","sunday":"","holiday":"10:00-16:00","closed":"","capacity":10,"id":"4250100510"},{"name":"ハッピーデイズこせど","nameKana":"はっぴーでいずこせど","corp":"ハッピーデイズ","serviceTypes":["児童発達支援","放課後等デイサービス"],"ward":"長崎市","address":"長崎県長崎市小瀬戸町1015番36","tel":"095-801-3988","url":"http://www.happy-saonoura.com","lat":32.72514757,"lng":129.83597292,"weekday":"13:30-17:00","saturday":"10:00-16:00","sunday":"","holiday":"10:00-16:00","closed":"","capacity":10,"id":"4250101112"},{"name":"チャイルドSP浦上","nameKana":"ちゃいるどえすぴーうらかみ","corp":"株式会社　チャイルドハート","serviceTypes":["児童発達支援","放課後等デイサービス"],"ward":"長崎市","address":"長崎県長崎市目覚町３−１３エグゼクティブMⅡビル2階","tel":"095-865-9951","url":"https://www.childsp.net/","lat":32.76340611,"lng":129.8654867,"weekday":"10:00-16:00","saturday":"10:00-15:00","sunday":"","holiday":"","closed":"日曜日、祝日、及び8月13日〜15日、12月29日〜1月3日","capacity":10,"id":"4250100593"},{"name":"子どもデイサービス　あおい","nameKana":"こどもでいさーびすあおい","corp":"株式会社　葵","serviceTypes":["児童発達支援","放課後等デイサービス"],"ward":"長崎市","address":"長崎県長崎市滑石２丁目３２番９号","tel":"095-894-4981","url":"","lat":32.80916448,"lng":129.84095898,"weekday":"09:00-18:00","saturday":"09:00-18:00","sunday":"","holiday":"09:00-18:00","closed":"日曜日。お盆休み8月14日、15日。12月30日から1月3日。","capacity":10,"id":"4250100601"},{"name":"キッズスペースあおい","nameKana":"きっずすぺーすあおい","corp":"株式会社　葵","serviceTypes":["児童発達支援","放課後等デイサービス"],"ward":"長崎市","address":"長崎県長崎市錦２丁目６番３号","tel":"0958001323","url":"","lat":32.78758091,"lng":129.85382002,"weekday":"09:30-17:00","saturday":"09:30-17:00","sunday":"","holiday":"09:30-17:00","closed":"日曜及び12月30日〜1月3日・8月14日〜15日","capacity":10,"id":"4250101005"},{"name":"こどもトレーニングひろば第一校","nameKana":"こどもとれーにんぐひろばだいいっこう","corp":"株式会社　ユースリー","serviceTypes":["児童発達支援","放課後等デイサービス"],"ward":"長崎市","address":"長崎県長崎市緑町3番19号","tel":"095-813-0011","url":"https://you-three.net/","lat":32.76343947,"lng":129.86712265,"weekday":"10:00-17:00","saturday":"10:00-16:00","sunday":"","holiday":"10:00-16:00","closed":"日曜日、８/１５、１２/３１〜１/３","capacity":10,"id":"4250100882"},{"name":"子どもサポートセンターシェアハート　花丘","nameKana":"こどもさぽーとせんたーしえあはーとはなおか","corp":"一般社団法人　シェアハート","serviceTypes":["児童発達支援","放課後等デイサービス"],"ward":"長崎市","address":"長崎県長崎市花丘町20番8号百武ビル3階西号室　","tel":"095-807-5695","url":"https://peraichi.com/landing_pages/view/shareheart","lat":32.79115015,"lng":129.86581062,"weekday":"10:00-14:00","saturday":"10:00-15:00","sunday":"","holiday":"","closed":"日曜、祝日、盆休み（8/13-15）、年末年始（12/29-1/3）","capacity":10,"id":"4250100999"},{"name":"児童発達支援センターげんき","nameKana":"じどうはったつしえんせんたーげんき","corp":"学校法人岩口学園","serviceTypes":["児童発達支援","放課後等デイサービス"],"ward":"長崎市","address":"長崎県長崎市新小が倉２−６−２９","tel":"095-878-9876","url":"https://iwaguchi-genki.com","lat":32.70754431,"lng":129.86064148,"weekday":"09:00-17:00","saturday":"","sunday":"","holiday":"","closed":"土日祝日、年末年始（12/29〜1/3）","capacity":30,"id":"4250100932"},{"name":"ぐらばーきっず","nameKana":"ぐらばーきっず","corp":"合同会社　カノンクリエイト","serviceTypes":["児童発達支援","放課後等デイサービス"],"ward":"長崎市","address":"長崎県長崎市星取１丁目２−１０","tel":"095-800-6102","url":"","lat":32.72229686,"lng":129.88360043,"weekday":"09:00-13:00","saturday":"09:00-13:00","sunday":"","holiday":"","closed":"日曜日・国民の祝日・年末年始（12/29〜1/3）","capacity":10,"id":"4250100940"},{"name":"独立行政法人　国立病院機構長崎病院","nameKana":"どくりつぎょうせいほうじんこくりつびょういんきこうながさきびょういん","corp":"独立行政法人　国立病院機構長崎病院","serviceTypes":["児童発達支援","放課後等デイサービス"],"ward":"長崎市","address":"長崎県長崎市桜木町６−４１","tel":"095-823-2261","url":"https://nagasaki-hp.hosp.go.jp/","lat":32.72832669,"lng":129.89061376,"weekday":"09:30-15:30","saturday":"","sunday":"","holiday":"","closed":"土、日、祝日、年末年始","capacity":5,"id":"4250100072"},{"name":"りとる　大地","nameKana":"りとるだいち","corp":"有限会社　いそや","serviceTypes":["児童発達支援","放課後等デイサービス"],"ward":"長崎市","address":"長崎県長崎市住吉町１０−３","tel":"095-801-9227","url":"http://helper-taiyo.com/","lat":32.79234708,"lng":129.86013606,"weekday":"13:00-17:30","saturday":"09:00-16:00","sunday":"","holiday":"","closed":"","capacity":10,"id":"4250100650"},{"name":"児童発達支援　ゆうみん","nameKana":"じどうはったつしえんゆうみん","corp":"社会福祉法人　遊歩の会","serviceTypes":["児童発達支援"],"ward":"長崎市","address":"長崎県長崎市中里町1562-1","tel":"095-894-5862","url":"http://yuuhonokai.jp","lat":32.80919247,"lng":129.96587771,"weekday":"09:30-17:30","saturday":"08:00-16:00","sunday":"","holiday":"","closed":"日曜日・国民の祝日及び8月15日・12月30日~1月3日","capacity":10,"id":"4250100502"},{"name":"放課後等デイサービス　のいちごのいえ","nameKana":"ほうかごとうでいさーびすのいちごのいえ","corp":"一般社団法人　ちいさいおうち","serviceTypes":["児童発達支援","放課後等デイサービス"],"ward":"長崎市","address":"長崎県長崎市竿浦町7番","tel":"095-878-2002","url":"http://chiisaiouchi.net","lat":32.6684972,"lng":129.8389213,"weekday":"10:00-12:00","saturday":"","sunday":"","holiday":"10:00-12:00","closed":"土日、お盆、お正月","capacity":10,"id":"4250101070"},{"name":"BLUE　PLANETS","nameKana":"ぶるーぷらねっつ","corp":"株式会社BLUE　PLANETS","serviceTypes":["児童発達支援","放課後等デイサービス"],"ward":"佐世保市","address":"長崎県佐世保市万津町５−８東洋ビル","tel":"0956-88-7613","url":"","lat":33.16486094,"lng":129.72045689,"weekday":"09:00-17:00","saturday":"","sunday":"","holiday":"","closed":"土日祝日","capacity":10,"id":"4250200732"},{"name":"BLUE PLANETS はいき","nameKana":"ぶるーぷらねっつはいき","corp":"株式会社BLUE　PLANETS","serviceTypes":["児童発達支援"],"ward":"佐世保市","address":"長崎県佐世保市広田1丁目2-8冨田ビル1階","tel":"0956-88-7773","url":"https://www.blue-planets.net","lat":33.13024964,"lng":129.79867314,"weekday":"09:00-17:00","saturday":"","sunday":"","holiday":"","closed":"土日祝日、年末年始","capacity":10,"id":"4250200831"},{"name":"ひかりキッズ","nameKana":"ひかりきっず","corp":"株式会社Ciel","serviceTypes":["児童発達支援","放課後等デイサービス"],"ward":"佐世保市","address":"長崎県佐世保市野中町18-1","tel":"0956-59-8934","url":"","lat":33.21277596,"lng":129.7037909,"weekday":"11:00-17:00","saturday":"09:00-16:00","sunday":"","holiday":"09:00-16:00","closed":"日曜","capacity":10,"id":"4250200864"},{"name":"児童発達支援・放課後等デイサービスNINOS","nameKana":"じどうはったつしえんほうかごとうでいさーびすにーにょす","corp":"株式会社させぼパレスホテル","serviceTypes":["児童発達支援","放課後等デイサービス"],"ward":"佐世保市","address":"長崎県佐世保市谷郷町４番１４号させぼパレスホテル２階","tel":"0956-37-8747","url":"","lat":33.17831802,"lng":129.71702367,"weekday":"","saturday":"","sunday":"","holiday":"","closed":"日曜日、祝日","capacity":null,"id":"4250200807"},{"name":"はぐはぐ","nameKana":"はぐはぐ","corp":"特定非営利活動法人あいらんど","serviceTypes":["児童発達支援","放課後等デイサービス"],"ward":"佐世保市","address":"長崎県佐世保市有福町4150番1","tel":"090-5931-9241","url":"https://npo-iland.org/","lat":33.13187715,"lng":129.79412626,"weekday":"10:30-17:00","saturday":"00:00-00:00","sunday":"00:00-00:00","holiday":"00:00-00:00","closed":"土曜日・日曜日・祝日・8月13日〜16日・12月29日〜1月3日","capacity":10,"id":"4250200880"},{"name":"エールチルドレン","nameKana":"えーるちるどれん","corp":"株式会社愛佳","serviceTypes":["児童発達支援"],"ward":"北松浦郡佐々町","address":"長崎県北松浦郡佐々町本田原免216-8プライマリーハマダ　2F","tel":"0956805366","url":"","lat":33.23692186,"lng":129.64875858,"weekday":"09:00-17:00","saturday":"","sunday":"","holiday":"","closed":"土・日・祝日・年末年始","capacity":10,"id":"4252000080"},{"name":"プルミエキッズ２nd","nameKana":"ぷるみえきっずせかんど","corp":"株式会社　ＦＵＳＩＯＮ","serviceTypes":["児童発達支援","放課後等デイサービス"],"ward":"東彼杵郡波佐見町","address":"長崎県東彼杵郡波佐見町田ノ頭郷340-4","tel":"0956595011","url":"https://fusion-n.co.jp","lat":33.12882388,"lng":129.88926212,"weekday":"10:00-17:00","saturday":"09:00-16:00","sunday":"","holiday":"","closed":"日曜、祝日、年末年始(12月30日〜1月3日)","capacity":10,"id":"4251800076"},{"name":"キッズすてっぷ　とうひ","nameKana":"きっずすてっぷとうひ","corp":"株式会社　ＦＵＳＩＯＮ","serviceTypes":["児童発達支援"],"ward":"東彼杵郡川棚町","address":"長崎県東彼杵郡川棚町百津郷364-282","tel":"0956-82-2350","url":"","lat":33.06666528,"lng":129.86456398,"weekday":"10:00-17:00","saturday":"09:00-16:00","sunday":"","holiday":"","closed":"日曜、祝日、年末年始(12月30日〜1月3日)","capacity":10,"id":"4251700052"},{"name":"スマイルさざ","nameKana":"すまいるさざ","corp":"株式会社　ティー・エイチ","serviceTypes":["児童発達支援","放課後等デイサービス"],"ward":"北松浦郡佐々町","address":"長崎県北松浦郡佐々町本田原免190-32階","tel":"0956598085","url":"https://smiletenjin.t-eichi.co","lat":33.23724691,"lng":129.65017235,"weekday":"11:00-17:30","saturday":"10:00-16:00","sunday":"","holiday":"10:00-16:00","closed":"毎週日曜日・お盆（8/13-15）年末年始（12/30-1/3）","capacity":10,"id":"4252000072"},{"name":"チームごちゃまぜきっず","nameKana":"ちーむごちゃまぜきっず","corp":"社会福祉法人　宮共生会","serviceTypes":["児童発達支援","放課後等デイサービス"],"ward":"佐世保市","address":"長崎県佐世保市権常寺町1108-6","tel":"0956-76-8499","url":"https://miyakyoseikai.or.jp/","lat":33.13588548,"lng":129.80492531,"weekday":"10:00-16:00","saturday":"10:00-16:00","sunday":"","holiday":"","closed":"日、祝　年末年始。職員の研修等により平日・土曜日が閉所になる場合あり。","capacity":10,"id":"4250200575"},{"name":"チームくるーる","nameKana":"ちーむくるーる","corp":"社会福祉法人　宮共生会","serviceTypes":["児童発達支援","放課後等デイサービス"],"ward":"佐世保市","address":"長崎県佐世保市木風町10番1号","tel":"0956-59-7140","url":"","lat":33.1639395,"lng":129.7410995,"weekday":"09:00-17:00","saturday":"09:00-17:00","sunday":"","holiday":"09:00-17:00","closed":"","capacity":10,"id":"4250200849"},{"name":"チームみらいときっず","nameKana":"ちーむみらいときっず","corp":"社会福祉法人　宮共生会","serviceTypes":["児童発達支援","放課後等デイサービス"],"ward":"佐世保市","address":"長崎県佐世保市稲荷町25-38","tel":"0956-37-8805","url":"https://miyakyoseikai.or.jp/","lat":33.15862317,"lng":129.73588337,"weekday":"10:00-16:00","saturday":"10:00-16:00","sunday":"10:00-16:00","holiday":"10:00-16:00","closed":"なし","capacity":15,"id":"4250200138"},{"name":"さんりんしゃ","nameKana":"さんりんしゃ","corp":"一般財団法人　三輪車","serviceTypes":["児童発達支援"],"ward":"佐世保市","address":"長崎県佐世保市吉井町大渡１０４−１０","tel":"0956-41-2700","url":"http://sanrinsha.main.jp","lat":33.26636459,"lng":129.68900386,"weekday":"10:00-13:30","saturday":"","sunday":"","holiday":"10:00-13:30","closed":"土・日","capacity":20,"id":"4250200716"},{"name":"てとてきっず","nameKana":"てとてきっず","corp":"株式会社　わかば","serviceTypes":["児童発達支援","放課後等デイサービス"],"ward":"佐世保市","address":"長崎県佐世保市権常寺町1444-2","tel":"0956-55-7021","url":"http://wakaba-clover.com/","lat":33.13075815,"lng":129.80678913,"weekday":"10:00-17:00","saturday":"10:00-17:00","sunday":"00:00-00:00","holiday":"10:00-15:00","closed":"日曜日、5/3〜5/5、8/12〜8/15、12/29〜1/4","capacity":10,"id":"4250200906"},{"name":"児童デイサービス　みかわち","nameKana":"じどうでいさーびすみかわち","corp":"医療法人　雄人会","serviceTypes":["児童発達支援","放課後等デイサービス","居宅訪問型児童発達支援"],"ward":"佐世保市","address":"長崎県佐世保市三川内本町358番地4","tel":"0956-30-7000","url":"http://www.mikawachi.or.jp/","lat":33.15414552,"lng":129.83010048,"weekday":"08:30-18:00","saturday":"08:30-17:20","sunday":"08:30-17:20","holiday":"","closed":"土曜日曜（月に1回ずつは営業）、祝日、8月15日、12月31日〜1月3日","capacity":10,"id":"4250200682"},{"name":"佐世保市子ども発達センター","nameKana":"させぼしこどもはったつせんたー","corp":"佐世保市","serviceTypes":["児童発達支援"],"ward":"佐世保市","address":"長崎県佐世保市常盤町6番1号サンクル4番館","tel":"0956-23-3945","url":"http://www.city.sasebo.lg.jp/kodomomirai/kodomo/sasebo.html","lat":33.17366844,"lng":129.71882355,"weekday":"08:30-17:15","saturday":"","sunday":"","holiday":"","closed":"土曜日、日曜日、祝日および休日、年末年始（12月29日〜1月3日）","capacity":10,"id":"4250200021"},{"name":"佐世保市立　すぎのこ園","nameKana":"させぼしりつすぎのこえん","corp":"佐世保市","serviceTypes":["児童発達支援"],"ward":"佐世保市","address":"長崎県佐世保市干尽町３−１０１","tel":"0956-32-7791","url":"http://www.city.sasebo.lg.jp/kodomomirai/kodoiku/suginokoen.html","lat":33.15406503,"lng":129.72818141,"weekday":"","saturday":"","sunday":"","holiday":"","closed":"土曜、日曜、祝日、盆休み、12月29日〜1月3日","capacity":30,"id":"4250200070"},{"name":"キッズルームかわい","nameKana":"きっずるーむかわい","corp":"特定非営利活動法人Ｉ.Ｓ.Ｋ","serviceTypes":["児童発達支援","放課後等デイサービス"],"ward":"佐世保市","address":"長崎県佐世保市吉井町橋川内１０００番地１","tel":"0956-41-2855","url":"http://www.waiwai-kawai.jp/index.html","lat":33.26697904,"lng":129.7140135,"weekday":"08:30-17:30","saturday":"08:30-17:30","sunday":"08:30-17:30","holiday":"08:30-17:30","closed":"法人が特に定めた日","capacity":10,"id":"4250200039"},{"name":"さんりんしゃ３","nameKana":"さんりんしゃすりー","corp":"有限会社　三輪車","serviceTypes":["児童発達支援","放課後等デイサービス"],"ward":"佐世保市","address":"長崎県佐世保市吉井町大渡１０４−９","tel":"0956-64-2612","url":"http://sanrinsha.main.jp","lat":33.26636459,"lng":129.68900386,"weekday":"10:00-13:00","saturday":"","sunday":"","holiday":"","closed":"土曜日、日曜日、年末年始","capacity":7,"id":"4250200146"},{"name":"放課後等デイサービス　クローバー","nameKana":"ほうかごとうでいさーびすくろーばー","corp":"株式会社　わかば","serviceTypes":["児童発達支援","放課後等デイサービス"],"ward":"佐世保市","address":"長崎県佐世保市早苗町487","tel":"0956-39-2828","url":"http://wakaba-clover.com/","lat":33.14147933,"lng":129.80128384,"weekday":"14:00-18:00","saturday":"09:00-17:00","sunday":"","holiday":"09:00-17:00","closed":"日曜日、5月ゴールデンウイーク、８月１３日〜１５日、１２月２９日〜１月４日","capacity":10,"id":"4250200310"},{"name":"キッズすてっぷ　ひうみ","nameKana":"きっずすてっぷひうみ","corp":"株式会社　ＦＵＳＩＯＮ","serviceTypes":["児童発達支援","放課後等デイサービス"],"ward":"佐世保市","address":"長崎県佐世保市日宇町695-2","tel":"0956-59-8799","url":"https://fusion-n.co.jp/","lat":33.15868215,"lng":129.75896483,"weekday":"10:00-17:00","saturday":"09:00-16:00","sunday":"","holiday":"","closed":"日曜、祝日、年末年始(12月30日〜1月3日)","capacity":10,"id":"4250200799"},{"name":"プルミエ　キッズ　1ｓｔ","nameKana":"ぷるみえきっずふぁーすと","corp":"株式会社　ＦＵＳＩＯＮ","serviceTypes":["児童発達支援","放課後等デイサービス"],"ward":"佐世保市","address":"長崎県佐世保市俵町21-142階","tel":"0956-59-9954","url":"","lat":33.1885311,"lng":129.71916497,"weekday":"10:00-17:00","saturday":"09:00-16:00","sunday":"","holiday":"","closed":"日曜、祝日、年末年始(12月30日〜1月3日)","capacity":10,"id":"4250200930"},{"name":"プルミエキッズ3rd","nameKana":"ぷるみえきっずさーど","corp":"株式会社　ＦＵＳＩＯＮ","serviceTypes":["児童発達支援","放課後等デイサービス"],"ward":"佐世保市","address":"長崎県佐世保市権常寺1丁目9番13号","tel":"0956-76-7714","url":"","lat":33.13294951,"lng":129.80177562,"weekday":"10:00-17:00","saturday":"09:00-16:00","sunday":"","holiday":"","closed":"日曜、祝日、年末年始(12月30日〜1月3日)","capacity":10,"id":"4250200989"},{"name":"キッズすてっぷ　あいのうら","nameKana":"きっずすてっぷあいのうら","corp":"株式会社　ＦＵＳＩＯＮ","serviceTypes":["児童発達支援","放課後等デイサービス"],"ward":"佐世保市","address":"長崎県佐世保市上相浦町9-7","tel":"0956-59-6936","url":"https://fusion-n.co.jp","lat":33.19605477,"lng":129.66884449,"weekday":"10:00-17:00","saturday":"09:00-16:00","sunday":"","holiday":"","closed":"日曜、祝日、年末年始(12月30日〜1月3日)　","capacity":10,"id":"4250200344"},{"name":"キッズすてっぷ　させぼ","nameKana":"きっずすてっぷさせぼ","corp":"株式会社　ＦＵＳＩＯＮ","serviceTypes":["児童発達支援","放課後等デイサービス"],"ward":"佐世保市","address":"長崎県佐世保市春日町３７−１","tel":"0956-59-9989","url":"https://fusion-n.co.jp","lat":33.20166056,"lng":129.7204785,"weekday":"10:00-17:00","saturday":"09:00-16:00","sunday":"","holiday":"","closed":"日曜、祝日、年末年始(12月30日〜1月3日)","capacity":10,"id":"4250200351"},{"name":"キッズすてっぷ　かいぜ","nameKana":"きっずすてっぷかいぜ","corp":"株式会社　ＦＵＳＩＯＮ","serviceTypes":["児童発達支援","放課後等デイサービス"],"ward":"佐世保市","address":"長崎県佐世保市皆瀬町48-16","tel":"0956-59-9770","url":"https://fusion-n.co.jp","lat":33.21427571,"lng":129.69647484,"weekday":"10:30-10:30","saturday":"09:00-16:00","sunday":"","holiday":"","closed":"日曜、祝日、年末年始(12月30日〜1月3日)","capacity":10,"id":"4250200484"},{"name":"児童デイ　ゆめ　木風","nameKana":"じどうでいゆめきかぜ","corp":"株式会社湧命","serviceTypes":["児童発達支援","放課後等デイサービス"],"ward":"佐世保市","address":"長崎県佐世保市木風町１４７３−１","tel":"0956-37-8991","url":"http://yumei-group.jp/yume/index.html","lat":33.16351461,"lng":129.74314934,"weekday":"13:00-18:00","saturday":"09:00-17:00","sunday":"09:00-17:00","holiday":"09:00-17:00","closed":"１２月３１日〜１月３日","capacity":10,"id":"4250200500"},{"name":"児童デイ　ゆめ　木風２","nameKana":"じどうでいゆめきかぜに","corp":"株式会社湧命","serviceTypes":["児童発達支援","放課後等デイサービス"],"ward":"佐世保市","address":"長崎県佐世保市木風町１４７３−１（５階）","tel":"0956-37-8992","url":"http://yumei-group.jp/yume/index.html","lat":33.16351461,"lng":129.74314934,"weekday":"12:00-18:00","saturday":"09:00-17:00","sunday":"09:00-17:00","holiday":"09:00-17:00","closed":"12月31日、1月1日、1月2日、1月3日","capacity":10,"id":"4250200518"},{"name":"児童デイ　ゆめ　木風３","nameKana":"じどうでいゆめきかぜさん","corp":"株式会社湧命","serviceTypes":["児童発達支援","放課後等デイサービス"],"ward":"佐世保市","address":"長崎県佐世保市木風町1473-1","tel":"0956-37-8993","url":"","lat":33.16351461,"lng":129.74314934,"weekday":"12:00-18:00","saturday":"09:00-17:00","sunday":"09:00-17:00","holiday":"09:00-17:00","closed":"12月31日から1月3日","capacity":10,"id":"4250200534"},{"name":"児童発達支援・放課後等デイサービス　おとは","nameKana":"じどうはったつしえんほうかごとうでいさーびすおとは","corp":"ＳＴＥＰＬＡＮ　株式会社","serviceTypes":["児童発達支援","放課後等デイサービス"],"ward":"佐世保市","address":"長崎県佐世保市有福町4159-1","tel":"0956-55-6641","url":"https://steplan.co.jp/","lat":33.13051888,"lng":129.79250698,"weekday":"10:00-17:00","saturday":"10:00-16:00","sunday":"","holiday":"10:00-16:00","closed":"日曜日、3/3、8/13〜15、12/30〜1/3","capacity":10,"id":"4250200674"},{"name":"児童発達支援・放課後等デイサービス　いろは","nameKana":"じどうはったつしえんほうかごとうでいさーびすいろは","corp":"ＳＴＥＰＬＡＮ　株式会社","serviceTypes":["児童発達支援","放課後等デイサービス"],"ward":"佐世保市","address":"長崎県佐世保市有福町９０−１１　メゾン有福２０１","tel":"0956-55-7957","url":"https://steplan.co.jp/","lat":33.13238822,"lng":129.79406238,"weekday":"10:00-16:00","saturday":"10:00-16:00","sunday":"","holiday":"10:00-16:00","closed":"日曜日・3/3・8/13-15・12/30-1/3","capacity":10,"id":"4250200567"},{"name":"させぼ療育plus","nameKana":"させぼりょういくぷらす","corp":"佐世保療育サポート　合同会社","serviceTypes":["児童発達支援","放課後等デイサービス"],"ward":"佐世保市","address":"長崎県佐世保市高天町１２番１３号田雑ビル1階","tel":"0956-37-6464","url":"","lat":33.17331316,"lng":129.72746439,"weekday":"09:00-17:00","saturday":"","sunday":"","holiday":"","closed":"土曜日・日曜日・国民の祝日及び年末年始（１２月３０日〜１月３日）","capacity":10,"id":"4250200625"},{"name":"チャイルドハートときわ","nameKana":"ちゃいるどはーとときわ","corp":"一般社団法人　日本教育機構","serviceTypes":["児童発達支援"],"ward":"佐世保市","address":"長崎県佐世保市常盤町3番9号ダイセイ常盤ビル３F","tel":"0956-56-3341","url":"https://childheart.co.jp","lat":33.17513778,"lng":129.71983731,"weekday":"10:00-16:00","saturday":"10:00-16:00","sunday":"","holiday":"10:00-16:00","closed":"日曜、事業所が定める休日","capacity":10,"id":"4250200666"},{"name":"スマイルてんじん　","nameKana":"すまいるてんじん","corp":"株式会社　ティー・エイチ","serviceTypes":["児童発達支援"],"ward":"佐世保市","address":"長崎県佐世保市天神町1094番地1１F","tel":"0956-31-3838","url":"https://smiletenjin.t-eichi.co","lat":33.14884345,"lng":129.73374492,"weekday":"11:00-17:30","saturday":"10:00-16:00","sunday":"","holiday":"10:00-16:00","closed":"日曜日・お盆（８月13日〜15日）年末年始(12月30日〜1月３日）","capacity":10,"id":"4250200559"},{"name":"スマイルてんじん３号館","nameKana":"すまいるてんじんさんごうかん","corp":"株式会社　ティー・エイチ","serviceTypes":["児童発達支援","放課後等デイサービス"],"ward":"佐世保市","address":"長崎県佐世保市天神２丁目19-45","tel":"0956-59-6402","url":"https://smiletenjin.t-eichi.co","lat":33.14568558,"lng":129.73967505,"weekday":"11:00-17:30","saturday":"10:00-16:00","sunday":"","holiday":"10:00-16:00","closed":"日・お盆(8/13〜15）・年末年始（12/30〜1/3）","capacity":10,"id":"4250200898"},{"name":"放課後デイサービス　あんなか","nameKana":"ほうかごでいさーびすあんなか","corp":"ウェルフェアしまばら","serviceTypes":["児童発達支援","放課後等デイサービス"],"ward":"島原市","address":"長崎県島原市島原市中安徳町丁1814番地4","tel":"0957-60-4554","url":"https://johka.jp/pages/35/","lat":32.74745388,"lng":130.36153756,"weekday":"13:00-17:00","saturday":"09:00-17:00","sunday":"","holiday":"","closed":"日曜・祭日","capacity":10,"id":"4250300151"},{"name":"株式会社山共こどもの家　花","nameKana":"かぶしきかいしゃやまともこどものいえはな","corp":"株式会社　山共","serviceTypes":["児童発達支援","放課後等デイサービス"],"ward":"島原市","address":"長崎県島原市洗切町丙６−８","tel":"0957643220","url":"https://www.kodomonoie-support.com","lat":32.82844572,"lng":130.35079396,"weekday":"09:30-17:00","saturday":"09:00-16:00","sunday":"","holiday":"09:00-16:00","closed":"日曜・8月13日14日15日・12月30日31日・1月1日2日3日","capacity":null,"id":"4250300201"},{"name":"株式会社山共こどもの家","nameKana":"かぶしきかいしゃやまともこどものいえ","corp":"株式会社　山共","serviceTypes":["児童発達支援","放課後等デイサービス"],"ward":"島原市","address":"長崎県島原市洗切町丙6-8","tel":"0957643220","url":"","lat":32.82844572,"lng":130.35079396,"weekday":"09:00-17:00","saturday":"09:00-16:00","sunday":"","holiday":"09:00-16:00","closed":"日曜　お盆（8/13〜8/15）　12/30〜1/3","capacity":10,"id":"4250300177"},{"name":"光のフェアリー","nameKana":"ひかりのふえありー","corp":"社会福祉法人　島原市手をつなぐ育成会","serviceTypes":["児童発達支援","放課後等デイサービス"],"ward":"島原市","address":"長崎県島原市萩が丘２丁目５７32番","tel":"0957-64-7065","url":"","lat":32.78352754,"lng":130.36037259,"weekday":"08:30-17:30","saturday":"08:30-17:30","sunday":"","holiday":"","closed":"日曜、祝祭日","capacity":6,"id":"4250300011"},{"name":"島原市通園施設あいあい","nameKana":"しまばらしつうえんしせつあいあい","corp":"社会福祉法人　島原市社会福祉協議会","serviceTypes":["児童発達支援","放課後等デイサービス"],"ward":"島原市","address":"長崎県島原市下川尻町７８９５番地長崎県島原病院　別館ＢＦ","tel":"0957-63-5144","url":"http://www.shimabara-shakyo.or.jp","lat":32.76939575,"lng":130.36756429,"weekday":"09:00-17:30","saturday":"00:00-00:00","sunday":"00:00-00:00","holiday":"00:00-00:00","closed":"土、日、祝日、年末年始（12/29〜1/3）","capacity":10,"id":"4250300029"},{"name":"児童発達支援センターACTしまばら","nameKana":"じどうはったつしえんせんたーあくとしまばら","corp":"株式会社　リハビリテーションケア","serviceTypes":["児童発達支援","放課後等デイサービス","居宅訪問型児童発達支援"],"ward":"島原市","address":"長崎県島原市萩原2丁目5004番地3","tel":"0957-73-6955","url":"","lat":32.78537469,"lng":130.36483055,"weekday":"","saturday":"","sunday":"","holiday":"","closed":"","capacity":null,"id":"4250300144"},{"name":"ACTしまばら３","nameKana":"あくとしまばらすりー","corp":"株式会社　リハビリテーションケア","serviceTypes":["児童発達支援","放課後等デイサービス"],"ward":"島原市","address":"長崎県島原市萩原二丁目5004−3","tel":"0957736955","url":"","lat":32.78537469,"lng":130.36483055,"weekday":"","saturday":"","sunday":"","holiday":"","closed":"お盆・年末年始","capacity":10,"id":"4250300169"},{"name":"ＡＣＴしまばら1","nameKana":"あくとしまばらわん","corp":"株式会社　リハビリテーションケア","serviceTypes":["児童発達支援"],"ward":"島原市","address":"長崎県島原市萩原2丁目5004番地3","tel":"0957-73-6955","url":"","lat":32.78537469,"lng":130.36483055,"weekday":"","saturday":"","sunday":"","holiday":"","closed":"","capacity":null,"id":"4250300110"},{"name":"サニーキッズいさはや","nameKana":"さにーきっずいさはや","corp":"合同会社　ニコラボ","serviceTypes":["児童発達支援","放課後等デイサービス"],"ward":"諫早市","address":"長崎県諫早市泉町２０番２５号フォレストビル１Ｆ","tel":"0957-42-3239","url":"https://www.sunny-isahaya.jimdofree.com/","lat":32.84801534,"lng":130.05844201,"weekday":"13:30-17:00","saturday":"10:00-15:00","sunday":"","holiday":"10:00-15:00","closed":"日曜日、年末年始、５月３日〜５日、８月１３日〜１５日、１２月３０日〜１月３日","capacity":10,"id":"4250450030"},{"name":"オトナリ","nameKana":"おとなり","corp":"合同会社ポルタス","serviceTypes":["児童発達支援","放課後等デイサービス"],"ward":"諫早市","address":"長崎県諫早市栄田町1308-1","tel":"0957-42-4665","url":"https://otonari-portus.jimdofree.com/","lat":32.84342665,"lng":130.05308099,"weekday":"09:00-13:00","saturday":"09:00-15:30","sunday":"","holiday":"","closed":"日曜日、国民の休日","capacity":10,"id":"4250450147"},{"name":"児童デイサービスくやまドレミ","nameKana":"じどうでいさーびすくやまどれみ","corp":"特定非営利活動法人かぜのおと","serviceTypes":["児童発達支援"],"ward":"諫早市","address":"長崎県諫早市久山町1003番地１","tel":"0957479717","url":"https://jenesys2000.wixsite.com/kazenooto","lat":32.81878614,"lng":129.99632781,"weekday":"09:00-18:00","saturday":"","sunday":"","holiday":"","closed":"土曜日、日曜日、祝日","capacity":10,"id":"4250450337"},{"name":"もりのいろは","nameKana":"もりのいろは","corp":"慈照福祉会","serviceTypes":["児童発達支援","放課後等デイサービス"],"ward":"諫早市","address":"長崎県諫早市森山町慶師野1871番地","tel":"0957352760","url":"http://jishoufukushikai.jp/","lat":32.82317607,"lng":130.11620967,"weekday":"09:00-18:00","saturday":"09:00-17:30","sunday":"","holiday":"","closed":"土曜日、日曜日、祝日、年末年始（12/29〜1/3）","capacity":10,"id":"4250450402"},{"name":"こぱんはうすさくら長崎中里教室","nameKana":"こぱんはうすさくらながさきなかざときょうしつ","corp":"株式会社プラス３","serviceTypes":["児童発達支援","放課後等デイサービス"],"ward":"長崎市","address":"長崎県長崎市中里町1688-1","tel":"095-865-8929","url":"","lat":32.81075341,"lng":129.96652757,"weekday":"10:00-16:00","saturday":"10:00-16:00","sunday":"","holiday":"10:00-16:00","closed":"日曜日、年末年始","capacity":10,"id":"4250101815"},{"name":"ことり","nameKana":"ことり","corp":"合同会社　ninos","serviceTypes":["児童発達支援","放課後等デイサービス"],"ward":"諫早市","address":"長崎県諫早市土師野尾町1690","tel":"0957510360","url":"","lat":32.8003532,"lng":130.0299392,"weekday":"09:00-16:00","saturday":"09:00-12:00","sunday":"","holiday":"","closed":"祝祭日、日曜日、その他","capacity":10,"id":"4250450428"},{"name":"共生型サービス　暖家withキッズ","nameKana":"きょうせいがたさーびすだんけうぃずきっず","corp":"社会福祉法人　博愛会","serviceTypes":["児童発達支援","放課後等デイサービス"],"ward":"諫早市","address":"長崎県諫早市幸町64-15","tel":"0957-22-7581","url":"https://danke-day.site/","lat":32.83777248,"lng":130.07125218,"weekday":"14:00-19:00","saturday":"09:30-17:30","sunday":"","holiday":"09:30-17:30","closed":"","capacity":5,"id":"4250450410"},{"name":"児童発達支援デイサービス　カラフル","nameKana":"じどうはったつしえんでいさーびすからふる","corp":"Ｌｉｆｅ　ｉｓ　Ｂｅａｕｔｉｆｕｌ　株式会社","serviceTypes":["児童発達支援"],"ward":"諫早市","address":"長崎県諫早市飯盛町古場８４６番地１","tel":"0957481200","url":"","lat":32.79496407,"lng":129.99874241,"weekday":"09:00-17:00","saturday":"09:00-17:00","sunday":"","holiday":"","closed":"日曜日","capacity":10,"id":"4250400282"},{"name":"特定非営利活動法人　諫早なかよし村２１　このゆびとまれ","nameKana":"とくていひえいりかつどうほうじんいさはやなかよしむらにじゅういちこのゆびとまれ","corp":"特定非営利活動法人　諫早なかよし村２１","serviceTypes":["児童発達支援","放課後等デイサービス"],"ward":"諫早市","address":"長崎県諫早市福田町443-1","tel":"0957-21-6050","url":"http://www.isahaya-konoyubitomare.com/","lat":32.85462046,"lng":130.06200018,"weekday":"10:00-13:00","saturday":"10:00-17:00","sunday":"","holiday":"","closed":"土曜・日曜・祝日・お盆・年末年始","capacity":10,"id":"4250400043"},{"name":"PARK　ふたばっこ","nameKana":"ぱーくふたばっこ","corp":"社会福祉法人　南高愛隣会","serviceTypes":["児童発達支援","放課後等デイサービス"],"ward":"諫早市","address":"長崎県諫早市福田町３５７ー１５","tel":"0957-46-3036","url":"","lat":32.85416765,"lng":130.06012805,"weekday":"09:00-13:00","saturday":"09:00-13:00","sunday":"","holiday":"09:00-13:00","closed":"日曜日","capacity":10,"id":"4250400035"},{"name":"みさかえの園あゆみの家　通所　ひばり","nameKana":"みさかえのそのあゆみのいえつうしょひばり","corp":"社会福祉法人　聖家族会","serviceTypes":["児童発達支援","放課後等デイサービス"],"ward":"大村","address":"長崎県大村市久原2丁目1346−1","tel":"0957273115","url":"http://www.misakae.or.jp","lat":32.89453477,"lng":129.97738135,"weekday":"09:00-16:00","saturday":"","sunday":"","holiday":"","closed":"土、日・祝祭日・年末年始","capacity":5,"id":"4250500451"},{"name":"みさかえの園児童発達支援センター","nameKana":"みさかえのそのじどうはったつしえんせんたー","corp":"社会福祉法人　聖家族会","serviceTypes":["児童発達支援","放課後等デイサービス"],"ward":"諫早市","address":"長崎県諫早市小長井町牧５７０番地１","tel":"0957-34-3113","url":"https://misakae.or.jp/facility/jidohhattatusien/","lat":32.92414718,"lng":130.17082791,"weekday":"08:45-17:15","saturday":"08:45-17:15","sunday":"","holiday":"","closed":"日曜・祝日・１２月３０日から１月３日","capacity":10,"id":"4250400019"},{"name":"諫早こどもデイサービス　わくわく広場","nameKana":"いさはやこどもでいさーびすわくわくひろば","corp":"社会福祉法人　聖家族会","serviceTypes":["児童発達支援","放課後等デイサービス"],"ward":"諫早市","address":"長崎県諫早市長田町１４７０番地","tel":"0957-20-4120","url":"http://www.misakae.or.jp/","lat":32.86880068,"lng":130.08787817,"weekday":"09:30-16:00","saturday":"09:30-16:00","sunday":"","holiday":"","closed":"国民の祝日、12月29日〜1月3日まで","capacity":10,"id":"4250400084"},{"name":"児童発達支援事業「障害児通所　ひまわり」","nameKana":"じどうはったつしえんじぎょうしょうがいじつうしょひまわり","corp":"社会福祉法人　幸生会","serviceTypes":["児童発達支援"],"ward":"諫早市","address":"長崎県諫早市有喜町537番地2","tel":"0957-28-3131","url":"https://www.koseikai.or.jp/facility-info/isahaya/","lat":32.79338105,"lng":130.07746712,"weekday":"09:00-17:00","saturday":"09:00-17:00","sunday":"","holiday":"","closed":"日曜・祝日・正月３ヶ日","capacity":15,"id":"4250400027"},{"name":"諫早市手をつなぐ　つくしっ子","nameKana":"いさはやしてをつなぐつくしっこ","corp":"社会福祉法人　諫早市手をつなぐ育成会","serviceTypes":["児童発達支援"],"ward":"諫早市","address":"長崎県諫早市小船越町５５４番地6","tel":"0957-27-0121","url":"http://isahayashi-ikuseikai.com/","lat":32.83849838,"lng":130.02414146,"weekday":"09:00-15:00","saturday":"09:00-15:00","sunday":"","holiday":"","closed":"日曜　祝祭日　年末年始","capacity":10,"id":"4250400068"},{"name":"リタの心　療育学苑","nameKana":"りたのこころりょういくがくえん","corp":"社会福祉法人　愛善会","serviceTypes":["児童発達支援","放課後等デイサービス"],"ward":"諫早市","address":"長崎県諫早市永昌東町２２番４８号","tel":"0957-21-3122","url":"","lat":32.8554198,"lng":130.0435981,"weekday":"09:30-17:00","saturday":"09:30-17:00","sunday":"","holiday":"","closed":"日祭日　お盆　年末年始","capacity":10,"id":"4250400274"},{"name":"にじいろ・ｋｉｄｓ","nameKana":"にじいろきっず","corp":"株式会社エス・ティ・コーポレーション","serviceTypes":["児童発達支援","放課後等デイサービス"],"ward":"諫早市","address":"長崎県諫早市幸町２４−３３山本ビル１階","tel":"0957-56-8321","url":"","lat":32.83927745,"lng":130.06163054,"weekday":"","saturday":"","sunday":"","holiday":"","closed":"","capacity":null,"id":"4250400266"},{"name":"おひさま","nameKana":"おひさま","corp":"株式会社　おひさま","serviceTypes":["児童発達支援"],"ward":"諫早市","address":"長崎県諫早市上野町18-8","tel":"0957-22-0333","url":"","lat":32.83964379,"lng":130.055478,"weekday":"09:00-15:00","saturday":"09:00-15:00","sunday":"","holiday":"","closed":"日・祝・盆正月","capacity":10,"id":"4250400225"},{"name":"放課後等デイサービスオリジン","nameKana":"ほうかごとうでいさーびすおりじん","corp":"社会福祉法人如月会","serviceTypes":["児童発達支援","放課後等デイサービス"],"ward":"諫早市","address":"長崎県諫早市川床町127-2","tel":"0957475800","url":"","lat":32.82272756,"lng":130.07405045,"weekday":"09:00-16:30","saturday":"09:00-16:30","sunday":"","holiday":"09:00-16:30","closed":"日曜日、盆期間、年末年始","capacity":10,"id":"4250450360"},{"name":"児童発達支援・放課後等デイサービス　One hand（ワン・ハンド）","nameKana":"じどうはったつしえんほうかごとうでいさーびすわんはんど","corp":"C・Nドリーム合同会社","serviceTypes":["児童発達支援","放課後等デイサービス"],"ward":"長崎市","address":"長崎県長崎市平瀬町68番地21平瀬町６８番地２１","tel":"095-893-5266","url":"","lat":32.68764006,"lng":129.8388875,"weekday":"11:00-18:00","saturday":"10:00-16:00","sunday":"","holiday":"","closed":"国民の祝日・８／１３，１４，１５　　１２／３０，３１，　１／１，２，３","capacity":10,"id":"4250101435"},{"name":"児童発達支援・放課後等デイサービス　One handⅡ","nameKana":"じどうはったつしえんほうかごとうでいさーびすわんはんどつー","corp":"C・Nドリーム合同会社","serviceTypes":["児童発達支援","放課後等デイサービス"],"ward":"大村","address":"長崎県大村市久原1丁目４８８−１","tel":"0957479074","url":"","lat":32.89251795,"lng":129.96082991,"weekday":"11:00-17:30","saturday":"11:00-16:00","sunday":"","holiday":"","closed":"日曜日、祝日、8/13〜8/15、12/29〜1/3","capacity":10,"id":"4250500743"},{"name":"COLOR","nameKana":"からー","corp":"合同会社礼和サポート","serviceTypes":["児童発達支援","放課後等デイサービス"],"ward":"大村","address":"長崎県大村市諏訪三丁目73番地１","tel":"0957463312","url":"","lat":32.92352378,"lng":129.95800677,"weekday":"","saturday":"","sunday":"","holiday":"","closed":"","capacity":null,"id":"4250500495"},{"name":"COLOR Sun","nameKana":"からーさん","corp":"合同会社礼和サポート","serviceTypes":["児童発達支援"],"ward":"大村","address":"長崎県大村市諏訪3-73-1","tel":"0957463312","url":"","lat":32.92349045,"lng":129.95802622,"weekday":"","saturday":"","sunday":"","holiday":"","closed":"","capacity":null,"id":"4250500719"},{"name":"児童発達支援サポートゆかり","nameKana":"じどうはったつしえんさぽーとゆかり","corp":"株式会社　ゆかり","serviceTypes":["児童発達支援"],"ward":"大村","address":"長崎県大村市植松3丁目630-3","tel":"0957-42-3780","url":"https://yukari-systems.com/","lat":32.9349506,"lng":129.95492905,"weekday":"09:00-17:00","saturday":"09:00-17:00","sunday":"","holiday":"","closed":"日曜日、祝日","capacity":10,"id":"4250500552"},{"name":"児童発達支援サポートゆかりパステル","nameKana":"じどうはったつしえんさぽーとゆかりぱすてる","corp":"株式会社　ゆかり","serviceTypes":["児童発達支援","放課後等デイサービス"],"ward":"大村","address":"長崎県大村市宮小路213-101階","tel":"0957-42-5572","url":"https://yukari-systems.com/","lat":32.94914907,"lng":129.94496591,"weekday":"09:00-17:00","saturday":"09:00-17:00","sunday":"","holiday":"","closed":"日曜日、国民の祝日及び、12月30日から1月3日休み","capacity":10,"id":"4250500610"},{"name":"児童発達支援サポートゆかりホープ","nameKana":"じどうはったつしえんさぽーとゆかりほーぷ","corp":"株式会社　ゆかり","serviceTypes":["児童発達支援","放課後等デイサービス"],"ward":"大村","address":"長崎県大村市富の原一丁目1302-1富の原アパートT101","tel":"0957-42-5572","url":"https://yukari-systems.com/","lat":32.94051908,"lng":129.93808609,"weekday":"12:00-18:00","saturday":"10:00-16:00","sunday":"","holiday":"","closed":"日曜日、その他国民の祝日及び、12月30日から1月3日まで","capacity":10,"id":"4250500784"},{"name":"おはなのいえ宮小路","nameKana":"おはなのいえみやしょうじ","corp":"株式会社Noie","serviceTypes":["児童発達支援"],"ward":"大村","address":"長崎県大村市木場2丁目382-15","tel":"09033098135","url":"","lat":32.90792817,"lng":129.97783637,"weekday":"","saturday":"","sunday":"","holiday":"","closed":"","capacity":null,"id":"4250500628"},{"name":"児童デイサービス　グリーンズ","nameKana":"じどうでいさーびすぐりーんず","corp":"株式会社ヴィレッジワン","serviceTypes":["児童発達支援","放課後等デイサービス"],"ward":"長崎市","address":"長崎県長崎市川平町1207番地5ほっとメゾン川平1階","tel":"095-846-3700","url":"","lat":32.79399453,"lng":129.88106759,"weekday":"10:00-17:00","saturday":"10:00-16:00","sunday":"10:00-16:00","holiday":"10:00-16:00","closed":"","capacity":5,"id":"4250101526"},{"name":"will","nameKana":"うぃる","corp":"株式会社ヴィレッジワン","serviceTypes":["児童発達支援","放課後等デイサービス"],"ward":"長崎市","address":"長崎県長崎市滑石1丁目２４番７号キャッスル打坂１階","tel":"095-846-3700","url":"","lat":32.80926177,"lng":129.84559754,"weekday":"10:00-17:00","saturday":"09:00-16:00","sunday":"","holiday":"","closed":"日、祝日、お盆、年末年始","capacity":10,"id":"4250101740"},{"name":"STAY.by　Risana520","nameKana":"すていどっとばいりさな","corp":"株式会社RSN","serviceTypes":["児童発達支援"],"ward":"大村","address":"長崎県大村市鬼橋町1419−2","tel":"08025957373","url":"https://risana520.com","lat":32.9460303,"lng":129.95812303,"weekday":"","saturday":"","sunday":"","holiday":"","closed":"","capacity":null,"id":"4250500701"},{"name":"夢(どりいむ)","nameKana":"どりいむ","corp":"特定非営利活動法人　元気っ子クラブファイト","serviceTypes":["児童発達支援"],"ward":"大村","address":"長崎県大村市諏訪1丁目895","tel":"0957476812","url":"https://genkikkoclub.jp","lat":32.92401558,"lng":129.96433404,"weekday":"10:00-13:30","saturday":"09:30-13:30","sunday":"","holiday":"","closed":"日曜日、国民の祝日。８月13日から８月15日まで、及び12月29日から1月3日。","capacity":10,"id":"4250500164"},{"name":"児童発達支援　たっち","nameKana":"じどうはったつしえんたっち","corp":"社会福祉法人　とみのはら福祉会","serviceTypes":["児童発達支援"],"ward":"大村","address":"長崎県大村市大川田町338-2","tel":"0957-55-4711","url":"","lat":32.94497452,"lng":129.94727406,"weekday":"","saturday":"","sunday":"","holiday":"","closed":"","capacity":null,"id":"4250500412"},{"name":"児童発達支援事業所すいすい","nameKana":"じどうはったつしえんじぎょうしょすいすい","corp":"社会福祉法人　とみのはら福祉会","serviceTypes":["児童発達支援"],"ward":"大村","address":"長崎県大村市大川田町423-4","tel":"0957-55-3122","url":"","lat":32.94305245,"lng":129.9467658,"weekday":"","saturday":"","sunday":"","holiday":"","closed":"","capacity":null,"id":"4250500214"},{"name":"ふわり諫早","nameKana":"ふわりいさはや","corp":"ことの海会","serviceTypes":["児童発達支援","放課後等デイサービス"],"ward":"諫早市","address":"長崎県諫早市西里町１６９１−２","tel":"0957-47-5758","url":"https://kotonoumi.com/","lat":32.85422635,"lng":130.07146368,"weekday":"09:30-14:30","saturday":"09:30-14:30","sunday":"","holiday":"09:30-14:30","closed":"土曜日、日曜日、お盆、年末年始","capacity":15,"id":"4250400324"},{"name":"ふわり久原","nameKana":"ふわりくばら","corp":"ことの海会","serviceTypes":["児童発達支援","放課後等デイサービス"],"ward":"大村","address":"長崎県大村市久原１丁目５９５−１","tel":"0957-47-5757","url":"https://kotonoumi.com/","lat":32.89565111,"lng":129.96532108,"weekday":"10:00-15:30","saturday":"09:30-15:30","sunday":"00:00-00:00","holiday":"09:30-15:30","closed":"事前に事業所が指定した休日を除く","capacity":20,"id":"4250500115"},{"name":"大村市療育支援センター","nameKana":"おおむらしりょういくしえんせんたー","corp":"社会福祉法人　大村市社会福祉協議会","serviceTypes":["児童発達支援"],"ward":"大村","address":"長崎県大村市西三城町１３８番地","tel":"0957-53-8200","url":"","lat":32.91269125,"lng":129.9579876,"weekday":"09:30-15:30","saturday":"","sunday":"","holiday":"","closed":"土曜、日曜、国民の祝日、12月29日〜1月3日","capacity":null,"id":"4250500024"},{"name":"カンタービレ","nameKana":"かんたーびれ","corp":"合同会社　三弘企画","serviceTypes":["児童発達支援","放課後等デイサービス"],"ward":"大村","address":"長崎県大村市寿古町812-11","tel":"0957476557","url":"https://sankou-kikaku.net/","lat":32.96783598,"lng":129.94294375,"weekday":"09:00-17:30","saturday":"09:00-17:00","sunday":"","holiday":"","closed":"日曜日、国民の祝日、12月30日から1月３日まで","capacity":10,"id":"4250500735"},{"name":"どれみ","nameKana":"どれみ","corp":"株式会社オフィス・エス・ワン","serviceTypes":["児童発達支援","放課後等デイサービス"],"ward":"大村","address":"長崎県大村市黒丸町160番地１","tel":"0957-47-6631","url":"http://office-s-one.c-co.jp/","lat":32.9529402,"lng":129.93975804,"weekday":"10:00-18:00","saturday":"10:00-17:00","sunday":"","holiday":"10:00-17:00","closed":"日曜日、年末年始","capacity":10,"id":"4250500149"},{"name":"ふぁそら","nameKana":"ふあそら","corp":"株式会社オフィス・エス・ワン","serviceTypes":["児童発達支援","放課後等デイサービス"],"ward":"大村","address":"長崎県大村市黒丸町160番地１","tel":"0957-47-6631","url":"http://office-s-one.c-co.jp/","lat":32.9529402,"lng":129.93975804,"weekday":"10:00-17:00","saturday":"10:00-17:00","sunday":"","holiday":"10:00-17:00","closed":"日曜及び年末年始","capacity":5,"id":"4250500180"},{"name":"しーど","nameKana":"しーど","corp":"株式会社オフィス・エス・ワン","serviceTypes":["児童発達支援","放課後等デイサービス"],"ward":"大村","address":"長崎県大村市杭出津２丁目５８７−２","tel":"0957-51-4159","url":"http://office-s-one.c-co.jp/","lat":32.91484661,"lng":129.95682097,"weekday":"10:00-18:00","saturday":"10:00-17:00","sunday":"","holiday":"10:00-17:00","closed":"日曜日、年末年始","capacity":10,"id":"4250500271"},{"name":"Ｒｉｓａｎａ５２０","nameKana":"りさなごにまる","corp":"株式会社ＲＳＮ","serviceTypes":["児童発達支援","放課後等デイサービス"],"ward":"大村","address":"長崎県大村市鬼橋町1419-2","tel":"0957-47-5208","url":"https://risana520.com","lat":32.9460303,"lng":129.95812303,"weekday":"08:00-14:00","saturday":"09:00-16:00","sunday":"","holiday":"","closed":"土・日・祝日","capacity":10,"id":"4250500206"},{"name":"発達支援ルームくじらぐも","nameKana":"はったつしえんるーむくじらぐも","corp":"株式会社　Ｋ＆Ｌ´Ｓ　ｆａｃｔｏｒｙ","serviceTypes":["児童発達支援","放課後等デイサービス"],"ward":"大村","address":"長崎県大村市富の原二丁目９０６番地−２","tel":"0957-46-3396","url":"https://masterpiece1689.wixsite.com/kujiragumo1689","lat":32.94434634,"lng":129.93294763,"weekday":"09:00-16:45","saturday":"09:00-16:45","sunday":"","holiday":"09:00-16:45","closed":"土日、GW、お盆、年末年始（12月29日〜1月3日）","capacity":10,"id":"4250500347"},{"name":"かしのきランド","nameKana":"かしのきらんど","corp":"大村未来づくり株式会社","serviceTypes":["児童発達支援","放課後等デイサービス"],"ward":"大村","address":"長崎県大村市雄ケ原町１２９８−２９アルカディア大村内","tel":"0957-46-3110","url":"http://kashinoki-land.com/","lat":32.93715113,"lng":129.98002141,"weekday":"09:00-14:00","saturday":"09:00-16:00","sunday":"","holiday":"","closed":"日曜日　祝日　年末年始（12月29日〜1月3日）","capacity":10,"id":"4250500313"},{"name":"こども発達支援センターもみじ","nameKana":"こどもはったつしえんせんたーもみじ","corp":"一般社団法人　きらく福祉事業会","serviceTypes":["児童発達支援"],"ward":"大村","address":"長崎県大村市松並２丁目８５１−３","tel":"0957-47-9336","url":"http://www.momiji3928.com/","lat":32.92070982,"lng":129.94619393,"weekday":"09:30-15:30","saturday":"09:30-15:30","sunday":"","holiday":"","closed":"祝日及び日曜日","capacity":10,"id":"4250500305"},{"name":"児童発達支援うみかぜホースパーク","nameKana":"じどうはったつしえんうみかぜほーすぱーく","corp":"株式会社シービューランチ","serviceTypes":["児童発達支援"],"ward":"平戸市","address":"長崎県平戸市川内町35","tel":"0950227276","url":"http://www.svr-umikaze.com","lat":33.33215957,"lng":129.53011014,"weekday":"12:00-18:00","saturday":"","sunday":"","holiday":"09:00-17:00","closed":"土日曜日、及び5月3日から5日、8月13日から15日、12月31日から1月3日","capacity":10,"id":"4250600097"},{"name":"ふぁみりーステーション・クレール","nameKana":"ふぁみりーすてーしょんくれーる","corp":"有限会社秀穂","serviceTypes":["児童発達支援","放課後等デイサービス"],"ward":"諫早市","address":"長崎県諫早市天満町12番26号なし","tel":"0957-47-9700","url":"https://clair-sun.com/","lat":32.84718166,"lng":130.04702293,"weekday":"10:00-11:15","saturday":"10:00-11:15","sunday":"","holiday":"","closed":"日曜日、国民の祝日、８月14日から８月15日、12月29日〜1月3日","capacity":10,"id":"4250450345"},{"name":"平戸市療育支援センター　あったかさん２１","nameKana":"ひらどしりょういくしえんせんたーあったかさんにじゅういち","corp":"社会福祉法人　親愛会","serviceTypes":["児童発達支援","放課後等デイサービス"],"ward":"平戸市","address":"長崎県平戸市山中町689−4","tel":"0950-22-7510","url":"http://h-shinaikai.jp/","lat":33.34402735,"lng":129.50793137,"weekday":"09:30-15:30","saturday":"09:00-17:00","sunday":"","holiday":"","closed":"日曜、月曜、祝祭日、夏季・年末年始休業","capacity":10,"id":"4250600014"},{"name":"児童発達支援・放課後等デイサービスまんてん　まつうら校","nameKana":"じどうはったつしえんほうかごなどでいさーびすまんてんまつうらこう","corp":"社会福祉法人　敬昌会","serviceTypes":["児童発達支援"],"ward":"松浦市","address":"長崎県松浦市志佐町浦免1532−11","tel":"0956-73-0505","url":"","lat":33.33790143,"lng":129.70790855,"weekday":"09:00-18:00","saturday":"08:30-17:30","sunday":"","holiday":"08:30-17:30","closed":"日曜日　　年末年始12月30日〜1月3日","capacity":10,"id":"4250700061"},{"name":"児童発達支援・放課後等デイサービスまんてんミライズ","nameKana":"じどうはったつしえんほうかごとうでいさーびすまんてんみらいず","corp":"社会福祉法人　敬昌会","serviceTypes":["児童発達支援"],"ward":"平戸市","address":"長崎県平戸市田平町小手田免1020−12","tel":"0950299901","url":"","lat":33.35358275,"lng":129.5792032,"weekday":"10:00-14:00","saturday":"10:00-16:30","sunday":"","holiday":"10:00-16:30","closed":"日曜日　　12月30日〜1月3日","capacity":10,"id":"4250600089"},{"name":"NPO法人BrighterSteps Pedal 〜ペダル〜","nameKana":"えぬぴーおーほうじんぶらいたーすてっぷすぺだる","corp":"特定非営利活動法人　Ｂｒｉｇｈｔｅｒ　Ｓｔｅｐｓ","serviceTypes":["児童発達支援"],"ward":"対馬市","address":"長崎県対馬市厳原町久田道１６１１番地１","tel":"0920-52-6767","url":"https://brightersteps.localinfo.jp/","lat":34.19547367,"lng":129.28852594,"weekday":"09:00-13:00","saturday":"09:00-13:00","sunday":"","holiday":"09:00-13:00","closed":"日曜日　月曜日","capacity":10,"id":"4250800028"},{"name":"対馬こども療育デイサービスセンター","nameKana":"つしまこどもりょういくでいさーびすせんたー","corp":"社会福祉法人　米寿会","serviceTypes":["児童発達支援","放課後等デイサービス"],"ward":"対馬市","address":"長崎県対馬市美津島町鶏知甲８８２−１２","tel":"0920-54-3863","url":"http://beijyukai.com/","lat":34.25737377,"lng":129.29652484,"weekday":"09:00-17:00","saturday":"09:00-13:00","sunday":"","holiday":"","closed":"日曜日、12月29日から1月3日、国民の祝日","capacity":10,"id":"4250800010"},{"name":"壱岐こどもセンター","nameKana":"いきこどもせんたー","corp":"壱岐市","serviceTypes":["児童発達支援","放課後等デイサービス"],"ward":"壱岐市","address":"長崎県壱岐市郷ノ浦町本村触９３番地","tel":"0920-48-0848","url":"","lat":33.75111328,"lng":129.69340094,"weekday":"08:30-17:15","saturday":"","sunday":"","holiday":"","closed":"土曜日曜祝日および１２月２９日〜１月３日","capacity":10,"id":"4250900018"},{"name":"社会福祉法人　さゆり会　ひまわりルーム","nameKana":"しゃかいふくしほうじんさゆりかいひまわりるーむ","corp":"社会福祉法人　さゆり会","serviceTypes":["児童発達支援","放課後等デイサービス"],"ward":"五島市","address":"長崎県五島市下大津町５５０番地１","tel":"0959-74-0005","url":"https://sayurikai.jp/pages/119/\t\t\t\t\t\t\t\t\t\t\t\t\t\t\t\t","lat":32.68585932,"lng":128.85640057,"weekday":"09:00-17:00","saturday":"09:00-17:00","sunday":"","holiday":"","closed":"日、祝日、12月29〜31日、1月1日〜３日\t\t\t\t\t\t\t\t\t\t\t\t\t\t\t\t\t\t","capacity":16,"id":"4251000024"},{"name":"こばの空","nameKana":"こばのそら","corp":"合同会社ありがとう","serviceTypes":["児童発達支援"],"ward":"雲仙市","address":"長崎県雲仙市千々石町庚４２６","tel":"0957-51-7101","url":"https://arigatou2021.jp/","lat":32.76579234,"lng":130.21577282,"weekday":"09:00-16:00","saturday":"","sunday":"","holiday":"","closed":"日曜日、国民の祝日、8月13日〜8月15日、12月29日〜1月3日","capacity":10,"id":"4251200145"},{"name":"こばの風","nameKana":"こばのかぜ","corp":"合同会社ありがとう","serviceTypes":["児童発達支援","放課後等デイサービス"],"ward":"雲仙市","address":"長崎県雲仙市千々石町庚439番地","tel":"0957510564","url":"https://arigatou2021.jp/","lat":32.8352025,"lng":130.1875075,"weekday":"09:00-17:00","saturday":"09:00-16:30","sunday":"","holiday":"","closed":"日曜日、国民の祝日、8月13日〜8月15日、12月29日〜1月3日","capacity":10,"id":"4251200178"},{"name":"こばの花","nameKana":"こばのはな","corp":"合同会社ありがとう","serviceTypes":["児童発達支援","放課後等デイサービス"],"ward":"雲仙市","address":"長崎県雲仙市千々石町庚426","tel":"0957517101","url":"https://arigatou2021.jp/","lat":32.76578957,"lng":130.21577837,"weekday":"09:30-16:00","saturday":"10:00-15:00","sunday":"","holiday":"","closed":"日曜日、国民の祝日、8月13日〜8月15日、12月29日〜1月3日","capacity":10,"id":"4251200194"},{"name":"はなまるキッズ","nameKana":"はなまるきっず","corp":"株式会社　アケボノ","serviceTypes":["児童発達支援","放課後等デイサービス"],"ward":"雲仙市","address":"長崎県雲仙市愛野町甲3873‐37　2階","tel":"0957-51-4174","url":"","lat":32.81865403,"lng":130.15571592,"weekday":"10:00-12:00","saturday":"10:00-15:00","sunday":"","holiday":"","closed":"日曜日・祝日、お盆、年活年始","capacity":10,"id":"4251200202"},{"name":"キッズステーションあいの","nameKana":"きっずすてーしょんあいの","corp":"社会福祉法人　星のくま","serviceTypes":["児童発達支援","放課後等デイサービス"],"ward":"雲仙市","address":"長崎県雲仙市愛野町乙２３３９番地３","tel":"0957-36-7575","url":"http://hoshinokuma.com/","lat":32.80118332,"lng":130.15879661,"weekday":"08:30-12:30","saturday":"09:00-15:00","sunday":"","holiday":"09:00-15:00","closed":"・火曜日　・木曜日　・土曜日　・日曜日","capacity":10,"id":"4251200152"},{"name":"株式会社こぴっと　多機能型事業所ななつの風　にこり","nameKana":"かぶしきかいしゃこぴっとたきのうがたじぎょうしょななつのかぜにこり","corp":"株式会社　こぴっと","serviceTypes":["児童発達支援","放課後等デイサービス"],"ward":"雲仙市","address":"長崎県雲仙市吾妻町牛口名498-2","tel":"0957739500","url":"","lat":32.8386076,"lng":130.18721871,"weekday":"09:00-14:00","saturday":"10:30-15:30","sunday":"","holiday":"","closed":"日曜・祝日","capacity":10,"id":"4251200160"},{"name":"株式会社こぴっと 多機能型事業所ななつの風 きらり","nameKana":"かぶしきかいしゃこぴっとたきのうがたじぎょうしょななつのかぜきらり","corp":"株式会社　こぴっと","serviceTypes":["児童発達支援"],"ward":"雲仙市","address":"長崎県雲仙市吾妻町牛口名498-2","tel":"0957739500","url":"https://nana.kopit.biz/","lat":32.8386076,"lng":130.18721871,"weekday":"09:00-11:00","saturday":"","sunday":"","holiday":"","closed":"日曜・祝日","capacity":10,"id":"4251200186"},{"name":"児童支援センターエミール","nameKana":"じどうしえんせんたーえみーる","corp":"社会福祉法人木場福祉会","serviceTypes":["児童発達支援","放課後等デイサービス"],"ward":"南島原市","address":"長崎県南島原市布津町丙187番地1","tel":"0957-73-6063","url":"http://koba-kids.com","lat":32.69736053,"lng":130.33090913,"weekday":"09:00-12:00","saturday":"09:00-12:00","sunday":"","holiday":"","closed":"日曜・祝日・お盆・年末年始","capacity":10,"id":"4251300168"},{"name":"たすかる早崎","nameKana":"たすかるはやさき","corp":"社会福祉法人　コスモス会","serviceTypes":["児童発達支援"],"ward":"南島原市","address":"長崎県南島原市口之津町乙２２４０−１","tel":"0957-86-5567","url":"","lat":32.59926843,"lng":130.17543637,"weekday":"","saturday":"","sunday":"","holiday":"","closed":"","capacity":null,"id":"4251300069"},{"name":"キッズセンターさんわ","nameKana":"きっずせんたーさんわ","corp":"合同会社　雲仙堂","serviceTypes":["児童発達支援","放課後等デイサービス"],"ward":"南島原市","address":"長崎県南島原市深江町丁２０２１−３","tel":"0957-72-5215","url":"","lat":32.71970108,"lng":130.35397214,"weekday":"09:00-18:30","saturday":"09:00-18:30","sunday":"09:00-18:30","holiday":"09:00-18:30","closed":"12月31日、1月1日、1月2日","capacity":10,"id":"4251300127"},{"name":"児童発達支援・放課後等デイサービス　おーぷんはぁと3校","nameKana":"じどうはったしえんほうかごとうでいさーびすおーぷんはぁとさんこう","corp":"合同会社Shin","serviceTypes":["児童発達支援","放課後等デイサービス"],"ward":"西彼杵郡長与町","address":"長崎県西彼杵郡長与町吉無田郷2061番地4","tel":"0958012006","url":"","lat":32.81534246,"lng":129.88353361,"weekday":"10:00-18:00","saturday":"09:00-17:00","sunday":"","holiday":"","closed":"日曜日・祝日・お盆（8月13日〜15日）・正月（12月30日〜1月3日まで）","capacity":10,"id":"4251400133"},{"name":"児童発達支援・放課後等デイサービスやわら時津店","nameKana":"じどうはったつしえんほうかごとうでいさーびすやわらとぎつてん","corp":"株式会社てわざ","serviceTypes":["児童発達支援","放課後等デイサービス"],"ward":"西彼杵郡時津町","address":"長崎県西彼杵郡時津町左底郷1832-1","tel":"0958659915","url":"","lat":32.83408455,"lng":129.84407744,"weekday":"10:00-11:30","saturday":"09:00-15:00","sunday":"","holiday":"09:00-15:00","closed":"８月１３日〜１５日、１２月３０日〜１月３日","capacity":10,"id":"4251500155"},{"name":"児童発達支援・放課後等デイサービスやわら","nameKana":"じどうはったつしえんほうかごとうでいさーびすやわら","corp":"株式会社てわざ","serviceTypes":["児童発達支援","放課後等デイサービス"],"ward":"西彼杵郡長与町","address":"長崎県西彼杵郡長与町高田郷2155-1","tel":"0958575194","url":"https://tewaza.hp.peraichi.com/yawara/houkago","lat":32.80583444,"lng":129.85333601,"weekday":"10:00-11:30","saturday":"10:00-11:30","sunday":"","holiday":"10:00-11:30","closed":"日曜日、８月１３日〜１５日、１２月３０日〜１月３日","capacity":10,"id":"4251400141"},{"name":"児童発達支援・放課後等デイサービスやわら　住吉店","nameKana":"ほうかごとうでいさーびすすみよしてん","corp":"株式会社てわざ","serviceTypes":["児童発達支援","放課後等デイサービス"],"ward":"長崎市","address":"長崎県長崎市千歳町21-1シンキンビル　301号","tel":"095-894-8519","url":"","lat":32.79083074,"lng":129.86561621,"weekday":"10:30-19:30","saturday":"09:00-15:00","sunday":"","holiday":"09:00-15:00","closed":"日曜日　８月１３日〜８月１５日　１２月３０〜１月３日","capacity":10,"id":"4250101799"},{"name":"チャイルドSP花丘","nameKana":"ちゃいるどえすぴーはなおか","corp":"PROGRESS株式会社","serviceTypes":["児童発達支援","放課後等デイサービス"],"ward":"長崎市","address":"長崎県長崎市花丘町12-5杉本ビル202","tel":"095-842-0003","url":"","lat":32.79188889,"lng":129.86331914,"weekday":"10:00-16:00","saturday":"09:30-13:00","sunday":"","holiday":"","closed":"日曜日、祝日、お盆（8/13〜15）、年末年始（12/29〜1/3）","capacity":10,"id":"4250101880"},{"name":"児童発達支援・放課後等デイサービス　おーぷんはぁと","nameKana":"じどうはったつしえんほうかごとうでいさーびすおーぷんはあと","corp":"合同会社　Ｓｈｉｎ","serviceTypes":["児童発達支援"],"ward":"西彼杵郡長与町","address":"長崎県西彼杵郡長与町北陽台１丁目１番５号","tel":"095-894-1171","url":"","lat":32.82157505,"lng":129.87431177,"weekday":"14:00-17:30","saturday":"10:00-16:30","sunday":"","holiday":"","closed":"祝祭日、8／13〜8／15、12／30〜1／3","capacity":10,"id":"4251400034"},{"name":"児童発達支援・放課後等デイサービス　おーぷんはぁと　第２校","nameKana":"じどうはったつしえんほうかごなどでいさーびすおーぷんはあとだいにこう","corp":"合同会社　Ｓｈｉｎ","serviceTypes":["児童発達支援"],"ward":"西彼杵郡長与町","address":"長崎県西彼杵郡長与町北陽台１丁目１番５号","tel":"0958941174","url":"","lat":32.82157505,"lng":129.87431177,"weekday":"10:00-17:30","saturday":"09:00-16:30","sunday":"","holiday":"","closed":"日曜日・祝祭日、8／13〜8／15、12／30〜1／3","capacity":10,"id":"4251400067"},{"name":"LICOKIDS","nameKana":"りこきっず","corp":"一般社団法人OhanaLaulea","serviceTypes":["児童発達支援","放課後等デイサービス"],"ward":"西彼杵郡時津町","address":"長崎県西彼杵郡時津町浜田郷196-5マルイチビル1F","tel":"095-865-6009","url":"https://r.goope.jp/ohanalaulea","lat":32.83189047,"lng":129.8560349,"weekday":"10:00-13:00","saturday":"09:00-17:00","sunday":"","holiday":"09:00-17:00","closed":"日曜日","capacity":10,"id":"4251500114"},{"name":"ほのぼのくらす","nameKana":"ほのぼのくらす","corp":"合同会社ほのぼのプラス","serviceTypes":["児童発達支援","放課後等デイサービス"],"ward":"西彼杵郡時津町","address":"長崎県西彼杵郡時津町野田郷46-1","tel":"0958013065","url":"https://honobonopurasu.com","lat":32.82605195,"lng":129.84750523,"weekday":"10:00-17:00","saturday":"","sunday":"","holiday":"","closed":"土日祝日","capacity":10,"id":"4251500122"},{"name":"こどもサポート教室「あいあい」長崎時津校","nameKana":"こどもさぽーときょうしつあいあいながさきとぎつこう","corp":"株式会社　クラ・ゼミ","serviceTypes":["児童発達支援","放課後等デイサービス"],"ward":"西彼杵郡時津町","address":"長崎県西彼杵郡時津町元村郷815-13植木ビル","tel":"0958827488","url":"https://kirari-kodomo.com/","lat":32.82270504,"lng":129.84880799,"weekday":"10:00-19:00","saturday":"10:00-19:00","sunday":"00:00-00:00","holiday":"10:00-19:00","closed":"日曜日 月曜日","capacity":10,"id":"4251500130"},{"name":"時津町児童発達支援センターひまわりの園","nameKana":"とぎつちょうじどうはったつしえんせんたーひまわりのその","corp":"社会福祉法人　時津町社会福祉協議会","serviceTypes":["児童発達支援"],"ward":"西彼杵郡時津町","address":"長崎県西彼杵郡時津町左底郷367番地時津町総合福祉センター","tel":"095-882-4520","url":"http://www.togitsu-shakyo.org/himawari/","lat":32.83061801,"lng":129.83626699,"weekday":"09:00-14:30","saturday":"","sunday":"","holiday":"","closed":"土日祝日 12月29日〜翌年1月3日","capacity":30,"id":"4251500056"},{"name":"児童発達支援事業所たんぽぽ","nameKana":"じどうはったつしえんじぎょうしょたんぽぽ","corp":"社会福祉法人　時津町社会福祉協議会","serviceTypes":["児童発達支援"],"ward":"西彼杵郡時津町","address":"長崎県西彼杵郡時津町左底郷３６７番地時津町総合福祉センター","tel":"095-882-4520","url":"http://www.togitsu-shakyo.org/himawari/","lat":32.83061801,"lng":129.83626699,"weekday":"09:45-15:30","saturday":"","sunday":"","holiday":"","closed":"土日祝日　12月29日〜翌年1月3日","capacity":10,"id":"4251500015"},{"name":"児童発達支援センターなないろハウス","nameKana":"じどうはったつしえんせんたーなないろはうす","corp":"社会福祉法人わかば福祉会","serviceTypes":["児童発達支援","放課後等デイサービス"],"ward":"東彼杵郡東彼杵町","address":"長崎県東彼杵郡東彼杵町蔵本郷1485番地5","tel":"0957-46-7716","url":"https://www.ans.co.jp/n/nanairohouse/","lat":33.04428244,"lng":129.90872781,"weekday":"09:00-18:00","saturday":"09:00-18:00","sunday":"","holiday":"","closed":"日曜祝日　８月１５日及び１２月２９日〜１月３日は休み","capacity":16,"id":"4251600013"},{"name":"ぱる","nameKana":"ぱる","corp":"N・ライフプラン","serviceTypes":["児童発達支援","放課後等デイサービス"],"ward":"東彼杵郡川棚町","address":"長崎県東彼杵郡川棚町栄町40番地2川棚ヒルズビル　1-Ａ","tel":"0956-76-7563","url":"","lat":33.06977603,"lng":129.86186689,"weekday":"10:00-18:00","saturday":"10:00-17:00","sunday":"","holiday":"10:00-17:00","closed":"","capacity":10,"id":"4251750024"},{"name":"こども発達支援センター　ホープ","nameKana":"こどもはったつしえんせんたーほーぷ","corp":"社会福祉法人　長崎慈光園","serviceTypes":["児童発達支援","放課後等デイサービス"],"ward":"東彼杵郡川棚町","address":"長崎県東彼杵郡川棚町小串郷１９７４−１こども発達支援センターホープ","tel":"0956-82-2081","url":"https://jikouen.or.jp/","lat":33.07223133,"lng":129.86158906,"weekday":"09:00-17:00","saturday":"09:00-17:00","sunday":"","holiday":"","closed":"土曜日、日曜日","capacity":20,"id":"4251700029"},{"name":"子ども発達支援室さくらいろ","nameKana":"こどもはったつしえんしつさくらいろ","corp":"特定非営利活動法人しらかば","serviceTypes":["児童発達支援"],"ward":"東彼杵郡波佐見町","address":"長崎県東彼杵郡波佐見町稗木場郷104番地","tel":"0956-37-8685","url":"","lat":33.1379536,"lng":129.8955613,"weekday":"09:00-17:30","saturday":"09:00-13:00","sunday":"","holiday":"","closed":"","capacity":10,"id":"4251800043"},{"name":"チャイルドハート大村","nameKana":"ちゃいるどはーとおおむら","corp":"医療法人戸嶋会","serviceTypes":["児童発達支援","放課後等デイサービス"],"ward":"大村","address":"長崎県大村市植松２丁目７２６−２１　植松インタービル２Ｆ","tel":"0957-52-0305","url":"https://childheart.co.jp/company/company_omura/","lat":32.93066202,"lng":129.95407086,"weekday":"10:00-15:00","saturday":"10:00-12:00","sunday":"","holiday":"","closed":"日曜、祝祭日","capacity":10,"id":"4250500263"},{"name":"新上五島町こども発達センターあおいとり","nameKana":"しんかみごとうちょうこどもはったつせんたーあおいとり","corp":"新上五島町","serviceTypes":["児童発達支援","放課後等デイサービス"],"ward":"南松浦郡新上五島町","address":"長崎県南松浦郡新上五島町青方郷２０９０番地４６","tel":"0959-52-2293","url":"","lat":32.98709355,"lng":129.04862524,"weekday":"09:00-17:00","saturday":"","sunday":"","holiday":"","closed":"土曜、日曜、祝日、年末年始","capacity":10,"id":"4252100013"},{"name":"ワーカーズコープおたくさキッズ","nameKana":"わーかーずこーぷおたくさきっず","corp":"労働者協同組合ワーカーズコープ・センター事業団","serviceTypes":["放課後等デイサービス"],"ward":"長崎市","address":"長崎県長崎市末石町370-52","tel":"095-893-8080","url":"https://sites.google.com/view/otakusakids/%E3%83%9B%E3%83%BC%E3%83%A0","lat":32.68589852,"lng":129.83663767,"weekday":"14:00-18:00","saturday":"09:00-18:00","sunday":"","holiday":"","closed":"日曜日、祝祭日、8/13〜8/15、12/29〜1/3","capacity":10,"id":"4250100429"},{"name":"フリースマイル大村","nameKana":"ふりーすまいるおおむら","corp":"青少年児童療育支援協会株式会社","serviceTypes":["放課後等デイサービス"],"ward":"大村","address":"長崎県大村市本町223−1セントロビル3F","tel":"0957465990","url":"","lat":32.89997,"lng":129.9581714,"weekday":"14:00-17:45","saturday":"10:30-16:30","sunday":"","holiday":"10:30-16:30","closed":"日曜日","capacity":10,"id":"4250500602"},{"name":"COMPASS多良見","nameKana":"こんぱすたらみ","corp":"一般社団法人特別支援協","serviceTypes":["放課後等デイサービス"],"ward":"諫早市","address":"長崎県諫早市多良見町中里129-9森ビル2階","tel":"0957435528","url":"https://www.compass-mitsuba.com/facility","lat":32.8232966,"lng":129.97361254,"weekday":"14:00-18:00","saturday":"","sunday":"","holiday":"","closed":"土・日・祝祭日","capacity":10,"id":"4250450303"},{"name":"放課後等デイサービス　やすらぎ","nameKana":"ほうかごとうでいさーびすやすらぎ","corp":"株式会社翔舞会","serviceTypes":["放課後等デイサービス"],"ward":"長崎市","address":"長崎県長崎市北陽町1-7","tel":"095-801-4518","url":"","lat":32.80985311,"lng":129.82942091,"weekday":"12:30-18:00","saturday":"08:30-17:00","sunday":"","holiday":"08:30-17:00","closed":"日曜・ＧＷ・お盆・年末年始","capacity":20,"id":"4250101294"},{"name":"放課後等デイサービス　やすらぎ2","nameKana":"ほうかごとうでいさーびすやすらぎに","corp":"株式会社翔舞会","serviceTypes":["放課後等デイサービス"],"ward":"長崎市","address":"長崎県長崎市北陽町22-14","tel":"095-801-4518","url":"","lat":32.80977803,"lng":129.82465183,"weekday":"12:30-18:00","saturday":"09:00-17:00","sunday":"","holiday":"09:00-17:00","closed":"日曜・GW・お盆・年末年始・その他","capacity":10,"id":"4250101385"},{"name":"総合療育　れお","nameKana":"そうごうりょういくれお","corp":"株式会社MUSASHI","serviceTypes":["放課後等デイサービス"],"ward":"長崎市","address":"長崎県長崎市三和町124-1","tel":"095-878-0677","url":"https://musashi.link","lat":32.69437025,"lng":129.85285877,"weekday":"10:00-17:00","saturday":"","sunday":"","holiday":"","closed":"土、日、祝、お盆、年末年始","capacity":10,"id":"4250101823"},{"name":"エフ・ステージイオンタウン長与daydream","nameKana":"えふすてーじいおんたうんながよでいどりーむ","corp":"株式会社　ENTOWA","serviceTypes":["放課後等デイサービス"],"ward":"西彼杵郡長与町","address":"長崎県西彼杵郡長与町北陽台1丁目2番地1","tel":"095-894-1104","url":"","lat":32.82238051,"lng":129.87258963,"weekday":"09:30-18:30","saturday":"08:30-17:30","sunday":"","holiday":"08:30-17:30","closed":"日曜日、8月15日、12月31日〜1月3日","capacity":10,"id":"4251400117"},{"name":"けこたまな　柳谷","nameKana":"けこたまなやなぎだに","corp":"株式会社エムアールケイ","serviceTypes":["放課後等デイサービス"],"ward":"長崎市","address":"長崎県長崎市柳谷町39-3","tel":"095-800-2197","url":"","lat":32.79141098,"lng":129.85359488,"weekday":"","saturday":"","sunday":"","holiday":"","closed":"","capacity":null,"id":"4250101856"},{"name":"放課後等デイサービス　ハートフェルト","nameKana":"ほうかごとうでいさーびすはーとふぇると","corp":"株式会社LeMieux","serviceTypes":["放課後等デイサービス"],"ward":"長崎市","address":"長崎県長崎市中川2丁目1-15サンライズ中川1階101","tel":"095-893-8933","url":"https://heartfelt-lm.online/","lat":32.75227968,"lng":129.89194315,"weekday":"14:00-17:00","saturday":"10:00-16:00","sunday":"","holiday":"","closed":"日曜日・祝休日","capacity":10,"id":"4250101476"},{"name":"放課後等デイサービスサンフラワー","nameKana":"ほうかごとうでいさーびすさんふらわー","corp":"株式会社サンフラワー","serviceTypes":["放課後等デイサービス"],"ward":"長崎市","address":"長崎県長崎市魚の町2-16華成ビル6階","tel":"095-893-5528","url":"https://note.com/sunflower_ngs","lat":32.74830488,"lng":129.87944986,"weekday":"09:00-19:00","saturday":"09:00-18:00","sunday":"","holiday":"","closed":"日曜日、祝日","capacity":10,"id":"4250101559"},{"name":"放課後等デイサービス　テークルート","nameKana":"ほうかごとうでいさーびすてーくるーと","corp":"テークルート合同会社","serviceTypes":["放課後等デイサービス"],"ward":"長崎市","address":"長崎県長崎市住吉町14番26号サンケイ第2ビル201号","tel":"095-843-2728","url":"","lat":32.75029079,"lng":129.87772491,"weekday":"09:00-18:00","saturday":"09:00-18:00","sunday":"","holiday":"09:00-18:00","closed":"日曜日、社内カレンダーによる","capacity":10,"id":"4250101575"},{"name":"通所支援施設みらい","nameKana":"つうしょしえんしせつみらい","corp":"合同会社心来","serviceTypes":["放課後等デイサービス"],"ward":"長崎市","address":"長崎県長崎市若竹町51番11号","tel":"095-807-2826","url":"https://www.houkagomirai.co.jp","lat":32.79347737,"lng":129.85261987,"weekday":"13:30-17:30","saturday":"09:00-15:00","sunday":"","holiday":"","closed":"日曜・祝日・8/13〜8/15・12/29〜1/4","capacity":10,"id":"4250101625"},{"name":"ひまわりキッズ２","nameKana":"ひまわりきっずつー","corp":"株式会社エイトワークス","serviceTypes":["放課後等デイサービス"],"ward":"長崎市","address":"長崎県長崎市みなと坂１丁目５番８","tel":"095-801-1882","url":"","lat":32.72953882,"lng":129.83893924,"weekday":"","saturday":"","sunday":"","holiday":"","closed":"","capacity":null,"id":"4250101906"},{"name":"児童デイサービスわらかど","nameKana":"じどうでいさーびすわらかど","corp":"株式会社　ライフサポート朗","serviceTypes":["放課後等デイサービス"],"ward":"長崎市","address":"長崎県長崎市つつじが丘２丁目９−１０","tel":"095-800-5080","url":"https://nagasaki-warakado.com","lat":32.80420965,"lng":129.96044786,"weekday":"","saturday":"","sunday":"","holiday":"","closed":"","capacity":null,"id":"4250101609"},{"name":"みなみの療育室　放課後等デイサービスみなみ","nameKana":"みなみのりょういくしつほうかごとうでいさーびすみなみ","corp":"株式会社　センテンス","serviceTypes":["放課後等デイサービス"],"ward":"長崎市","address":"長崎県長崎市三景台町3-26SMTエタニティ三景台205号","tel":"050-5530-8161","url":"","lat":32.72878496,"lng":129.8955496,"weekday":"","saturday":"","sunday":"","holiday":"","closed":"","capacity":null,"id":"4250101633"},{"name":"みなみの療育室　EGAWA","nameKana":"みなみのりょういくしつえがわ","corp":"株式会社　センテンス","serviceTypes":["放課後等デイサービス"],"ward":"長崎市","address":"長崎県長崎市柳田町36-1","tel":"0958938996","url":"","lat":32.68452927,"lng":129.84326228,"weekday":"","saturday":"","sunday":"","holiday":"","closed":"","capacity":null,"id":"4250101864"},{"name":"放課後等デイサービスからふる","nameKana":"ほうかごとうでいさーびすからふる","corp":"合同会社TokiYoshi","serviceTypes":["放課後等デイサービス"],"ward":"長崎市","address":"長崎県長崎市高浜町4004番地2","tel":"095-804-9567","url":"","lat":32.60338976,"lng":129.78287344,"weekday":"13:30-17:00","saturday":"10:00-16:00","sunday":"","holiday":"10:00-16:00","closed":"日曜日、８月１５日、１２月３１日から翌年１月３日まで","capacity":10,"id":"4250101641"},{"name":"放課後等デイサービス　えがおの森","nameKana":"ほうかごとうでいさーびすえがおのもり","corp":"合同会社Progress","serviceTypes":["放課後等デイサービス"],"ward":"長崎市","address":"長崎県長崎市小ケ倉３丁目195-19七洋ビル２階","tel":"095-800-5550","url":"https://egaonomori-web.jimdofree.com/","lat":32.70219727,"lng":129.84795337,"weekday":"11:00-18:30","saturday":"10:00-16:30","sunday":"","holiday":"10:00-16:30","closed":"日曜日　　8/15　　12/28〜1/3","capacity":10,"id":"4250101377"},{"name":"放課後等デイサービスえがおの森とまち","nameKana":"ほうかごとうでいさーびすえがおのもりとまち","corp":"合同会社Progress","serviceTypes":["放課後等デイサービス"],"ward":"長崎市","address":"長崎県長崎市戸町３丁目2-6","tel":"095-800-8801","url":"","lat":32.72109601,"lng":129.86316023,"weekday":"14:00-18:30","saturday":"10:00-16:30","sunday":"","holiday":"","closed":"日曜　　8/15　　12/28〜1/3","capacity":10,"id":"4250101914"},{"name":"放課後等デイサービスピース","nameKana":"ほうかごとうでいさーびすぴーす","corp":"特定非営利活動法人　ひだまり会","serviceTypes":["放課後等デイサービス"],"ward":"長崎市","address":"長崎県長崎市平和町5-26　１階","tel":"095-807-4582","url":"","lat":32.77610209,"lng":129.86619168,"weekday":"14:30-17:00","saturday":"10:00-17:00","sunday":"","holiday":"","closed":"日曜、祝日及び8/13〜8/15","capacity":10,"id":"4250101732"},{"name":"Hug・Hug","nameKana":"はぐはぐ","corp":"株式会社　アシスト","serviceTypes":["放課後等デイサービス"],"ward":"長崎市","address":"長崎県長崎市かき道6丁目2番地11号","tel":"095-834-0011","url":"https://wwwassist-hughug.net","lat":32.76572154,"lng":129.96034117,"weekday":"12:00-17:30","saturday":"10:00-16:00","sunday":"","holiday":"","closed":"日曜、祝日、盆正月","capacity":10,"id":"4250101674"},{"name":"放課後等デイサービスよよぎ　長与校","nameKana":"ほうかごなどでいさーびすよよぎながよこう","corp":"はなのき株式会社","serviceTypes":["放課後等デイサービス"],"ward":"西彼杵郡長与町","address":"長崎県西彼杵郡長与町斉藤郷49-3","tel":"090-3195-1219","url":"","lat":32.83260179,"lng":129.86942282,"weekday":"","saturday":"","sunday":"","holiday":"","closed":"","capacity":null,"id":"4251400109"},{"name":"りとる・クローバー","nameKana":"りとるくろーばー","corp":"特定非営利活動法人　燦々クラブ","serviceTypes":["放課後等デイサービス"],"ward":"長崎市","address":"長崎県長崎市畝刈町１６１３番地２５０","tel":"095-850-5001","url":"https://33clover.jimdofree.com","lat":32.82715903,"lng":129.78149906,"weekday":"12:00-18:00","saturday":"09:00-17:00","sunday":"","holiday":"09:00-17:00","closed":"日曜日　年末年始、お盆期間","capacity":20,"id":"4250100049"},{"name":"さくらっ子","nameKana":"さくらっこ","corp":"社会福祉法人　三恵会","serviceTypes":["放課後等デイサービス"],"ward":"西海市","address":"長崎県西海市大瀬戸町瀬戸樫浦郷2513-4","tel":"0957-23-2227","url":"","lat":32.93674922,"lng":129.63991272,"weekday":"","saturday":"","sunday":"","holiday":"","closed":"","capacity":null,"id":"4251100048"},{"name":"サニー","nameKana":"さにー","corp":"社会福祉法人　三恵会","serviceTypes":["放課後等デイサービス"],"ward":"西海市","address":"長崎県西海市西彼町喰場郷1320番地12","tel":"0959314038","url":"https://nagasaki-sankeikai.com/group/g-sunny/","lat":32.98834552,"lng":129.76678166,"weekday":"14:00-17:00","saturday":"10:00-16:00","sunday":"","holiday":"","closed":"日曜日、祝日、年末年始（12/29〜1/3）","capacity":10,"id":"4251100030"},{"name":"子育てステーション　こでまり","nameKana":"こそだてすてーしょんこでまり","corp":"テイクオフ株式会社","serviceTypes":["放課後等デイサービス"],"ward":"大村","address":"長崎県大村市今富町１０−３６","tel":"0957-56-8721","url":"https://takeoff-info.com/","lat":32.95570142,"lng":129.95057363,"weekday":"13:00-18:00","saturday":"","sunday":"","holiday":"10:00-16:30","closed":"土日","capacity":10,"id":"4250500248"},{"name":"子育てステーション　こでまりα","nameKana":"こそだてすてーしょんこでまりあるふあ","corp":"テイクオフ株式会社","serviceTypes":["放課後等デイサービス"],"ward":"大村","address":"長崎県大村市今富町１０−３６","tel":"0957-56-8721","url":"https://takeoff-info.com/","lat":32.95570142,"lng":129.95057363,"weekday":"13:00-19:00","saturday":"","sunday":"","holiday":"","closed":"土日","capacity":10,"id":"4250500362"},{"name":"マーブル","nameKana":"まーぶる","corp":"NPO法人ことと","serviceTypes":["放課後等デイサービス"],"ward":"長崎市","address":"長崎県長崎市畝刈町1613番地250","tel":"095-850-7242","url":"https://kototonagasaki.jimdofree.com","lat":32.82715903,"lng":129.78149906,"weekday":"12:00-18:00","saturday":"09:00-17:00","sunday":"","holiday":"","closed":"日、祝日　年末年始、お盆","capacity":10,"id":"4250101245"},{"name":"放課後等デイサービス　あいびぃ","nameKana":"ほうかごとうでいさーびすあいびぃ","corp":"テイクオフ株式会社","serviceTypes":["放課後等デイサービス"],"ward":"長崎市","address":"長崎県長崎市畝刈町1613-169","tel":"095-801-3904","url":"","lat":32.82669515,"lng":129.77989363,"weekday":"13:00-17:00","saturday":"09:00-16:00","sunday":"","holiday":"09:00-16:00","closed":"","capacity":null,"id":"4250101138"},{"name":"fun place for kids あいびぃ おおぞの","nameKana":"ふぁんぷれーすふぉーきっずあいびぃおおぞの","corp":"テイクオフ株式会社","serviceTypes":["放課後等デイサービス"],"ward":"長崎市","address":"長崎県長崎市大園町8番25号","tel":"095-801-4323","url":"https://aivy-nagasaki.com/service/","lat":32.80478433,"lng":129.83882593,"weekday":"","saturday":"","sunday":"","holiday":"","closed":"","capacity":null,"id":"4250101419"},{"name":"放課後等デイサービス　あじさい","nameKana":"ほうかごとうでいさーびすあじさい","corp":"株式会社　シーエスケイ","serviceTypes":["放課後等デイサービス"],"ward":"長崎市","address":"長崎県長崎市茂木町１８０５−２５","tel":"095-834-6111","url":"https://www.ajisai.site/","lat":32.70363165,"lng":129.91056352,"weekday":"15:00-18:00","saturday":"08:30-17:30","sunday":"","holiday":"08:30-17:30","closed":"日曜日","capacity":10,"id":"4250100718"},{"name":"放課後等デイサービス　あじさい浜町","nameKana":"ほうかごとうでいさーびすあじさいはまのまち","corp":"株式会社　シーエスケイ","serviceTypes":["放課後等デイサービス"],"ward":"長崎市","address":"長崎県長崎市浜町1-10-4","tel":"095-811-0050","url":"https://www.ajisai.site/","lat":32.74435243,"lng":129.87712241,"weekday":"15:00-19:00","saturday":"08:30-17:30","sunday":"","holiday":"08:30-17:30","closed":"日曜日","capacity":10,"id":"4250100809"},{"name":"放課後等デイサービス　あじさい滑石","nameKana":"ほうかごとうでいさーびすあじさいなめし","corp":"株式会社　シーエスケイ","serviceTypes":["放課後等デイサービス"],"ward":"長崎市","address":"長崎県長崎市滑石5丁目1番22号","tel":"095-894-5700","url":"https://www.ajisai.site/","lat":32.80686742,"lng":129.83635104,"weekday":"15:00-19:00","saturday":"08:30-17:30","sunday":"","holiday":"08:30-17:30","closed":"日曜日","capacity":10,"id":"4250101120"},{"name":"みのり会キッズ・コム","nameKana":"みのりかいきっずこむ","corp":"社会福祉法人　みのり会","serviceTypes":["放課後等デイサービス"],"ward":"長崎市","address":"長崎県長崎市梅香崎町２番１３号","tel":"095-82-1092","url":"http://www.minorikai.or.jp/kids/index.html","lat":32.73989733,"lng":129.87461438,"weekday":"15:00-18:00","saturday":"09:00-18:00","sunday":"","holiday":"","closed":"日曜日、祝日、8月14日、8月15日、12月31日〜1月3日","capacity":15,"id":"4250100023"},{"name":"風輪クラブ","nameKana":"ふうりんくらぶ","corp":"株式会社ながさきＵＵカンパニー","serviceTypes":["放課後等デイサービス"],"ward":"長崎市","address":"長崎県長崎市為石町4650−6","tel":"095-892-8833","url":"","lat":32.6427214,"lng":129.8396666,"weekday":"","saturday":"","sunday":"","holiday":"","closed":"","capacity":null,"id":"4250100114"},{"name":"放課後等デイサービスぽにぃすまいる","nameKana":"ほうかごとうでいさーびすぽにぃすまいる","corp":"特定非営利活動法人　ポニーランド長崎","serviceTypes":["放課後等デイサービス"],"ward":"長崎市","address":"長崎県長崎市片淵５丁目８−６片淵丸尾ビル202号","tel":"095-893-8879","url":"https://ponyland-nagasaki.com/","lat":32.76577278,"lng":129.89049818,"weekday":"13:00-17:00","saturday":"10:00-16:00","sunday":"10:00-16:00","holiday":"10:00-16:00","closed":"隔週で土曜日と日曜日閉所　その他","capacity":10,"id":"4250101286"},{"name":"児童デイサービス　ぽにぃルーム","nameKana":"じどうでいさーびすぽにぃるーむ","corp":"特定非営利活動法人　ポニーランド長崎","serviceTypes":["放課後等デイサービス"],"ward":"長崎市","address":"長崎県長崎市片淵5丁目8-6片淵丸尾ビル302","tel":"095-801-0815","url":"https://ponyland-nagasaki.com/","lat":32.76577278,"lng":129.89049818,"weekday":"13:30-17:30","saturday":"10:00-16:00","sunday":"10:00-16:00","holiday":"10:00-16:00","closed":"奇数週日曜日・偶数週土曜日","capacity":10,"id":"4250100890"},{"name":"放課後等デイサービス　のうさぎのひろば","nameKana":"ほうかごとうでいさーびすのうさぎのひろば","corp":"社会福祉法人　陽向會","serviceTypes":["放課後等デイサービス"],"ward":"長崎市","address":"長崎県長崎市中里町１３３５−２５２","tel":"095-865-8646","url":"https://www.usaginomori.net/","lat":32.80918135,"lng":129.96386398,"weekday":"13:00-17:30","saturday":"09:00-16:00","sunday":"","holiday":"","closed":"日曜、祝日、12/29〜1/3","capacity":10,"id":"4250100833"},{"name":"ハッピーデイズ　しんとまち","nameKana":"はっぴーでいずしんとまち","corp":"ハッピーデイズ","serviceTypes":["放課後等デイサービス"],"ward":"長崎市","address":"長崎県長崎市新戸町3丁目3-28103","tel":"095-895-8966","url":"http://www.happy-saonoura.com","lat":32.71324967,"lng":129.86779914,"weekday":"13:30-17:00","saturday":"10:00-16:00","sunday":"","holiday":"10:00-16:00","closed":"日曜日、お盆、年末年始","capacity":10,"id":"4250101427"},{"name":"チャイルドSP城栄","nameKana":"ちゃいるどえすぴーじょうえい","corp":"株式会社　チャイルドハート","serviceTypes":["放課後等デイサービス"],"ward":"長崎市","address":"長崎県長崎市城栄町17-5本多ビル1階","tel":"095-865-7420","url":"http://childheart.jp/","lat":32.77494651,"lng":129.85739809,"weekday":"16:00-20:30","saturday":"10:00-16:30","sunday":"","holiday":"10:00-16:30","closed":"日曜日、祝日、及び8月14日〜16日、12月29日〜1月3日","capacity":10,"id":"4250100551"},{"name":"こどもトレーニングひろば第二校","nameKana":"こどもとれーにんぐひろばだいにこう","corp":"株式会社　ユースリー","serviceTypes":["放課後等デイサービス"],"ward":"長崎市","address":"長崎県長崎市緑町3番19号","tel":"095-813-0012","url":"https://you-three.net/","lat":32.76343947,"lng":129.86712265,"weekday":"13:00-17:30","saturday":"10:00-16:00","sunday":"","holiday":"10:00-16:00","closed":"日曜日・8/15・12/31〜1/3","capacity":20,"id":"4250101211"},{"name":"子どもサポートセンターシェアハート","nameKana":"こどもさぽーとせんたーしえあはーと","corp":"一般社団法人　シェアハート","serviceTypes":["放課後等デイサービス"],"ward":"長崎市","address":"長崎県長崎市花丘町13番4号井上ハウス","tel":"095-807-5969","url":"https://shareheart.net","lat":32.79151948,"lng":129.86326082,"weekday":"15:00-18:00","saturday":"10:00-15:00","sunday":"","holiday":"","closed":"日曜、祝日、盆休み（8/13-15）、年末年始（12/29-1/3）","capacity":10,"id":"4250100908"},{"name":"放課後等デイサービスうらかみえきまえ","nameKana":"ほうかごとうでいさーびすうらかみえきまえ","corp":"社会福祉法人　出島福祉村","serviceTypes":["放課後等デイサービス"],"ward":"長崎市","address":"長崎県長崎市岩川町２番３号池田ビル１Ｆ","tel":"095-842-5055","url":"https://ameblo.jp/ho-kago-dezimahukushimura","lat":32.76619756,"lng":129.86447281,"weekday":"14:30-19:00","saturday":"09:30-16:00","sunday":"","holiday":"09:30-16:00","closed":"日曜日、8月14日〜15日、12月30日〜1月3日","capacity":10,"id":"4250100247"},{"name":"放課後等デイサービスいわかわ","nameKana":"ほうかごとうでいさーびすいわかわ","corp":"社会福祉法人　出島福祉村","serviceTypes":["放課後等デイサービス"],"ward":"長崎市","address":"長崎県長崎市岩川町２−４　ヴァルビル２Ｆ","tel":"095-842-5320","url":"https://ameblo.jp/ho-kago-dezimahukusimura","lat":32.76627255,"lng":129.86445892,"weekday":"14:30-19:00","saturday":"09:30-16:00","sunday":"","holiday":"09:30-16:00","closed":"日曜日、8月14日〜8月15日、12月30日〜1月3日","capacity":10,"id":"4250100775"},{"name":"キッズ大地","nameKana":"きっずだいち","corp":"有限会社　いそや","serviceTypes":["放課後等デイサービス"],"ward":"長崎市","address":"長崎県長崎市中園町１１番１号","tel":"095-801-4598","url":"http://helper-taiyo.com/","lat":32.79201378,"lng":129.85958888,"weekday":"13:00-17:30","saturday":"09:00-16:00","sunday":"","holiday":"","closed":"日曜祝祭日及び会社が定めた休日（盆・年末年始）","capacity":10,"id":"4250100296"},{"name":"ライフくじらのおやこ","nameKana":"らいふくじらのおやこ","corp":"特定非営利活動法人　ライフ","serviceTypes":["放課後等デイサービス"],"ward":"長崎市","address":"長崎県長崎市住吉町3番17号エトワール315 201号","tel":"095-801-8058","url":"https://life-nagasaki.jimdofree.com/","lat":32.79166665,"lng":129.86171373,"weekday":"15:00-18:00","saturday":"10:00-15:00","sunday":"","holiday":"","closed":"日・祝・その他","capacity":10,"id":"4250101302"},{"name":"ライフ　長崎事業所","nameKana":"らいふながさきじぎょうしょ","corp":"特定非営利活動法人　ライフ","serviceTypes":["放課後等デイサービス"],"ward":"長崎市","address":"長崎県長崎市住吉町3-17エトワール315　101号","tel":"095-865-7097","url":"https://www.houdei-life.com/","lat":32.79166665,"lng":129.86171373,"weekday":"15:00-18:00","saturday":"10:00-15:00","sunday":"","holiday":"","closed":"日・祝日　","capacity":10,"id":"4250100387"},{"name":"児童デイサービス　ぷれぷれ遊歩","nameKana":"じどうでいさーびすぷれぷれゆうほ","corp":"社会福祉法人　遊歩の会","serviceTypes":["放課後等デイサービス"],"ward":"長崎市","address":"長崎県長崎市古賀町８６０番地","tel":"095-865-9174","url":"https://yuuhonokai.jp","lat":32.79975459,"lng":129.96154527,"weekday":"11:00-17:30","saturday":"09:00-16:00","sunday":"","holiday":"","closed":"日曜日・国民の祝日及び８月１５日・１２月３０日〜１月３日","capacity":10,"id":"4250100395"},{"name":"児童デイサービス　ゆうゆう","nameKana":"じどうでいさーびすゆうゆう","corp":"社会福祉法人　遊歩の会","serviceTypes":["放課後等デイサービス"],"ward":"長崎市","address":"長崎県長崎市つつじが丘４丁目２−１５","tel":"095-838-2255","url":"http://yuuhonokai.jp","lat":32.80597058,"lng":129.96177266,"weekday":"11:00-17:30","saturday":"09:30-16:00","sunday":"","holiday":"","closed":"日曜日、国民の休日、8月15日、12月30日~1月3日","capacity":10,"id":"4250100403"},{"name":"児童デイサービスゆうみん","nameKana":"じどうでいさーびすゆうみん","corp":"社会福祉法人　遊歩の会","serviceTypes":["放課後等デイサービス"],"ward":"長崎市","address":"長崎県長崎市中里町1562-1","tel":"095-894-5862","url":"http://yuuhonokai.jp","lat":32.8092147,"lng":129.96608325,"weekday":"11:00-17:30","saturday":"09:00-16:00","sunday":"","holiday":"","closed":"日曜・国民の祝日・８月１５日・１２月３０日〜１月３日","capacity":10,"id":"4250100502"},{"name":"ドリームキッズ2","nameKana":"どりーむきっずに","corp":"株式会社アスカ","serviceTypes":["放課後等デイサービス"],"ward":"長崎市","address":"長崎県長崎市宝町8番12号","tel":"0958941550","url":"https://dreamkidsweb.wordpress.com/","lat":32.7596731,"lng":129.86717278,"weekday":"15:00-18:00","saturday":"10:00-15:00","sunday":"","holiday":"10:00-15:00","closed":"日曜日、年末年始、お盆休み等","capacity":10,"id":"4250101351"},{"name":"ドリームキッズ","nameKana":"どりーむきっず","corp":"株式会社アスカ","serviceTypes":["放課後等デイサービス"],"ward":"長崎市","address":"長崎県長崎市宝町8番12号1階","tel":"095-894-1550","url":"https://dreamkidsweb.wordpress.com/","lat":32.7596731,"lng":129.86717278,"weekday":"15:00-18:00","saturday":"10:00-15:00","sunday":"","holiday":"10:00-15:00","closed":"日曜日","capacity":10,"id":"4250100734"},{"name":"多機能型事業所　真　心","nameKana":"たきのうがたじぎょうしょまごころ","corp":"有限会社　真心","serviceTypes":["放課後等デイサービス"],"ward":"長崎市","address":"長崎県長崎市江里町１０番２７号","tel":"095-843-7933","url":"","lat":32.78135965,"lng":129.85991704,"weekday":"09:00-17:00","saturday":"","sunday":"","holiday":"09:00-17:00","closed":"土・日・8/14、15、・12/31〜1/3","capacity":10,"id":"4250100791"},{"name":"こころねキッズ","nameKana":"こころねきっず","corp":"トレランス株式会社","serviceTypes":["放課後等デイサービス"],"ward":"長崎市","address":"長崎県長崎市昭和1丁目2番11号こころねビル3階","tel":"095-842-7373","url":"http://tolerance.co.jp","lat":32.79095854,"lng":129.86707441,"weekday":"13:00-17:30","saturday":"10:00-16:00","sunday":"","holiday":"10:00-16:00","closed":"日曜日　8/15　12/30〜1/3","capacity":10,"id":"4250100817"},{"name":"児童デイサービス　くすの木","nameKana":"じどうでいさーびすくすのき","corp":"株式会社　チャレンジ","serviceTypes":["放課後等デイサービス"],"ward":"長崎市","address":"長崎県長崎市籠町８−４１","tel":"095-822-4428","url":"https://kusunoki123.com","lat":32.7410528,"lng":129.87723916,"weekday":"13:30-17:30","saturday":"10:00-16:00","sunday":"","holiday":"10:00-16:00","closed":"日曜日","capacity":10,"id":"4250100825"},{"name":"放課後等デイサービスよよぎ　松山校","nameKana":"ほうかごとうでいさーびすよよぎまつやまこう","corp":"はなのき株式会社","serviceTypes":["放課後等デイサービス"],"ward":"長崎市","address":"長崎県長崎市岡町4-2-2F","tel":"095-894-7156","url":"http://n-ichi.com/houkago/","lat":32.77724079,"lng":129.86217256,"weekday":"14:00-18:00","saturday":"10:00-16:00","sunday":"","holiday":"","closed":"日曜・祝日","capacity":10,"id":"4250101161"},{"name":"放課後等デイサービスよよぎ　葉山校","nameKana":"ほうかごとうでいさーびすよよぎはやまこう","corp":"はなのき株式会社","serviceTypes":["放課後等デイサービス"],"ward":"長崎市","address":"長崎県長崎市滑石2丁目5番15号","tel":"095-800-6307","url":"","lat":32.806837,"lng":129.84491434,"weekday":"","saturday":"","sunday":"","holiday":"","closed":"","capacity":null,"id":"4250101468"},{"name":"放課後等デイサービスよよぎ","nameKana":"ほうかごとうでいさーびすよよぎ","corp":"はなのき株式会社","serviceTypes":["放課後等デイサービス"],"ward":"長崎市","address":"長崎県長崎市万屋町６−１３　４Ｆ","tel":"095-811-0133","url":"http://www.n-ichi.com/houkago/","lat":32.74500239,"lng":129.88006384,"weekday":"14:00-18:00","saturday":"10:00-16:00","sunday":"","holiday":"","closed":"日曜・祝日","capacity":10,"id":"4250101013"},{"name":"放課後等デイサービス　フェアネス","nameKana":"ほうかごとうでいさーびすふぇあねす","corp":"合同会社　CARRY　OUT","serviceTypes":["放課後等デイサービス"],"ward":"北松浦郡佐々町","address":"長崎県北松浦郡佐々町口石免444-5","tel":"0956-55-3920","url":"http://www.fairness-carryout.com","lat":33.2256124,"lng":129.65411681,"weekday":"","saturday":"","sunday":"","holiday":"","closed":"","capacity":null,"id":"4252000056"},{"name":"放課後等児童デイサービス　えびす","nameKana":"ほうかごとうじどうでいさーびすえびす","corp":"株式会社　福祉工房K’ｓ","serviceTypes":["放課後等デイサービス"],"ward":"佐世保市","address":"長崎県佐世保市天神５丁目９番２６号幼老統合ケア施設えびす","tel":"0956-59-5701","url":"https://ks-ebisu.co.jp","lat":33.14495779,"lng":129.7371003,"weekday":"14:00-17:00","saturday":"","sunday":"","holiday":"10:00-16:00","closed":"土・日曜日、5月5日、8月13日から8月15日、12月30日から1月3日","capacity":10,"id":"4250200724"},{"name":"放課後等デイサービス　えむかえサクラ","nameKana":"ほうかごとうでいさーびすえむかえさくら","corp":"株式会社　ドミニコ","serviceTypes":["放課後等デイサービス"],"ward":"佐世保市","address":"長崎県佐世保市鹿町町新深江８−４","tel":"090-8207-3278","url":"","lat":33.30646677,"lng":129.62791716,"weekday":"14:00-18:00","saturday":"09:00-16:30","sunday":"","holiday":"09:00-16:30","closed":"日曜日","capacity":10,"id":"4250200781"},{"name":"BLUE PLANETS はいき","nameKana":"ぶるーぷらねっつはいき","corp":"株式会社BLUE　PLANETS","serviceTypes":["放課後等デイサービス","居宅訪問型児童発達支援"],"ward":"佐世保市","address":"長崎県佐世保市広田1丁目2-8冨田ビル1階","tel":"0956887930","url":"https://www.blue-planets.net","lat":33.13024964,"lng":129.79867314,"weekday":"09:00-17:00","saturday":"","sunday":"","holiday":"","closed":"","capacity":10,"id":"4250200831"},{"name":"キッズデイかのん","nameKana":"きっずでいかのん","corp":"株式会社grow.mam","serviceTypes":["放課後等デイサービス"],"ward":"佐世保市","address":"長崎県佐世保市相浦町２６８２番１ミヤサダビル１０３号","tel":"0956-37-8440","url":"https://www.growmam01.com/","lat":33.19021072,"lng":129.65324303,"weekday":"13:30-17:30","saturday":"10:00-16:30","sunday":"","holiday":"10:00-16:30","closed":"毎週日曜日","capacity":10,"id":"4250200757"},{"name":"実りえ佐世保教室","nameKana":"みのりえさせぼきょうしつ","corp":"株式会社　air","serviceTypes":["放課後等デイサービス"],"ward":"佐世保市","address":"長崎県佐世保市権常寺一丁目４番１２号木村ビル102","tel":"0956-80-1314","url":"https://kinari-education.com/","lat":33.13197733,"lng":129.80042852,"weekday":"14:30-18:00","saturday":"","sunday":"","holiday":"11:00-17:30","closed":"土日、年末年始","capacity":10,"id":"4250200955"},{"name":"放課後等デイサービスHappy","nameKana":"ほうかごとうでいさーびすはっぴー","corp":"長崎県民協働支援センター","serviceTypes":["放課後等デイサービス"],"ward":"佐世保市","address":"長崎県佐世保市木宮町3番６号","tel":"0956-55-4431","url":"","lat":33.19461322,"lng":129.66715855,"weekday":"14:00-18:00","saturday":"10:30-17:30","sunday":"","holiday":"","closed":"日曜日、国民の祝日、１２月３０日から１月3日","capacity":10,"id":"4250200856"},{"name":"放課後等デイサービスHappyあいのうら","nameKana":"ほうかごとうでいさーびすはっぴーあいのうら","corp":"長崎県民協働支援センター","serviceTypes":["放課後等デイサービス"],"ward":"佐世保市","address":"長崎県佐世保市木宮町２番２５号","tel":"0956-55-7876","url":"","lat":33.19429659,"lng":129.66716411,"weekday":"14:00-18:00","saturday":"10:30-17:30","sunday":"","holiday":"","closed":"日曜日、国民の祝日、12月30日から1月3日","capacity":10,"id":"4250200948"},{"name":"放課後等デイサービスいちばん星","nameKana":"ほうかごとうでいさーびすいちばんぼし","corp":"一般社団法人いちばん星","serviceTypes":["放課後等デイサービス"],"ward":"佐世保市","address":"長崎県佐世保市吉岡町1792-12","tel":"0956-37-9115","url":"https://ichibanboshi7.com","lat":33.21036788,"lng":129.70689624,"weekday":"14:00-18:00","saturday":"10:00-16:30","sunday":"","holiday":"10:00-16:30","closed":"１２月３１日から１月３日、８月１３日から１５日","capacity":16,"id":"4250200963"},{"name":"放課後デイサービスひだまり","nameKana":"ほうかごでいさーびすひだまり","corp":"一般社団法人みらいパートナーズ","serviceTypes":["放課後等デイサービス"],"ward":"佐世保市","address":"長崎県佐世保市有福町570-29","tel":"090-1286-4597","url":"https://h-navi.jp/support_facility/facilities/181944","lat":33.13134648,"lng":129.78892394,"weekday":"13:00-17:30","saturday":"10:00-16:00","sunday":"","holiday":"","closed":"日・祝日　12/29〜1/3、8/13〜8/16","capacity":10,"id":"4250200815"},{"name":"なないろきっず","nameKana":"なないろきっず","corp":"特定非営利活動法人　長崎学舎","serviceTypes":["放課後等デイサービス"],"ward":"西海市","address":"長崎県西海市西海町木場郷547-3","tel":"090-7981-1478","url":"https://nanairo0401.xsrv","lat":33.04320073,"lng":129.69508032,"weekday":"","saturday":"","sunday":"","holiday":"","closed":"","capacity":null,"id":"4251100063"},{"name":"放課後等デイサービス　ともに","nameKana":"ほうかごとうでいさーびすともに","corp":"特定非営利活動法人Ｓ，Ｌ，Ｈ","serviceTypes":["放課後等デイサービス"],"ward":"東彼杵郡波佐見町","address":"長崎県東彼杵郡波佐見町宿郷49-2","tel":"0956596379","url":"","lat":33.13457057,"lng":129.89466702,"weekday":"14:00-17:00","saturday":"10:00-16:00","sunday":"","holiday":"","closed":"","capacity":10,"id":"4251800068"},{"name":"チェリー","nameKana":"ちえりー","corp":"社会福祉法人　一粒の麦の会","serviceTypes":["放課後等デイサービス"],"ward":"北松浦郡佐々町","address":"長崎県北松浦郡佐々町沖田免１−１","tel":"080-9242-3363","url":"http://www.mugi.or.jp/","lat":33.22537329,"lng":129.63916216,"weekday":"14:00-18:00","saturday":"09:00-17:00","sunday":"","holiday":"","closed":"木曜日、日曜日、祝祭日","capacity":10,"id":"4250200153"},